{
  "bbox": {
    "south": 22.696666666666665,
    "north": 22.933333333333334,
    "west": 121.11999999999999,
    "east": 121.25999999999999
  },
  "pois": [
    {
      "id": "node-188460473",
      "lat": 22.8724438,
      "lon": 121.2262611,
      "name": "都蘭紅糖咖啡館",
      "decorType": "cafe",
      "decorName": "咖啡廳",
      "decorIcon": "☕"
    },
    {
      "id": "node-321119026",
      "lat": 22.7523297,
      "lon": 121.1533489,
      "name": "未命名咖啡廳",
      "decorType": "cafe",
      "decorName": "咖啡廳",
      "decorIcon": "☕"
    },
    {
      "id": "node-321119489",
      "lat": 22.8786704,
      "lon": 121.2308115,
      "name": "馬利諾廚房",
      "decorType": "bakery",
      "decorName": "麵包店",
      "decorIcon": "🥐"
    },
    {
      "id": "node-1450781905",
      "lat": 22.9123929,
      "lon": 121.1371405,
      "name": "鹿野",
      "decorType": "station",
      "decorName": "車站",
      "decorIcon": "🚉"
    },
    {
      "id": "node-1464098386",
      "lat": 22.8618154,
      "lon": 121.1379913,
      "name": "山里",
      "decorType": "station",
      "decorName": "車站",
      "decorIcon": "🚉"
    },
    {
      "id": "node-2389082046",
      "lat": 22.7520918,
      "lon": 121.152474,
      "name": "台東林家臭豆腐",
      "decorType": "restaurant",
      "decorName": "餐廳",
      "decorIcon": "🍽️"
    },
    {
      "id": "node-2389083014",
      "lat": 22.7535379,
      "lon": 121.1526559,
      "name": "85度C",
      "decorType": "cafe",
      "decorName": "咖啡廳",
      "decorIcon": "☕"
    },
    {
      "id": "node-2389083180",
      "lat": 22.749907,
      "lon": 121.1574027,
      "name": "七里坡複合式餐飲館",
      "decorType": "restaurant",
      "decorName": "餐廳",
      "decorIcon": "🍽️"
    },
    {
      "id": "node-2483017627",
      "lat": 22.7636377,
      "lon": 121.1361248,
      "name": "7-Eleven",
      "decorType": "convenience-store",
      "decorName": "便利商店",
      "decorIcon": "🏪"
    },
    {
      "id": "node-2483018418",
      "lat": 22.7803986,
      "lon": 121.1232006,
      "name": "7-Eleven",
      "decorType": "convenience-store",
      "decorName": "便利商店",
      "decorIcon": "🏪"
    },
    {
      "id": "node-2483141548",
      "lat": 22.9175524,
      "lon": 121.1221729,
      "name": "鹿台草原餐廳",
      "decorType": "restaurant",
      "decorName": "餐廳",
      "decorIcon": "🍽️"
    },
    {
      "id": "node-2592792622",
      "lat": 22.7675465,
      "lon": 121.1279318,
      "name": "東糖文物館",
      "decorType": "art-gallery",
      "decorName": "美術館",
      "decorIcon": "🖼️"
    },
    {
      "id": "node-2596196084",
      "lat": 22.7660364,
      "lon": 121.1456708,
      "name": "夫妻肺片",
      "decorType": "restaurant",
      "decorName": "餐廳",
      "decorIcon": "🍽️"
    },
    {
      "id": "node-2596197024",
      "lat": 22.7552543,
      "lon": 121.1559197,
      "name": "蓮玉湯圓",
      "decorType": "restaurant",
      "decorName": "餐廳",
      "decorIcon": "🍽️"
    },
    {
      "id": "node-2596199588",
      "lat": 22.7527723,
      "lon": 121.1512233,
      "name": "寶桑湯圓",
      "decorType": "restaurant",
      "decorName": "餐廳",
      "decorIcon": "🍽️"
    },
    {
      "id": "node-2596204189",
      "lat": 22.7801261,
      "lon": 121.1236285,
      "name": "卑南包子店",
      "decorType": "restaurant",
      "decorName": "餐廳",
      "decorIcon": "🍽️"
    },
    {
      "id": "node-2596206083",
      "lat": 22.7636477,
      "lon": 121.1452879,
      "name": "正海城北方小館",
      "decorType": "restaurant",
      "decorName": "餐廳",
      "decorIcon": "🍽️"
    },
    {
      "id": "node-2596207450",
      "lat": 22.7545783,
      "lon": 121.1458485,
      "name": "客來吃樂",
      "decorType": "restaurant",
      "decorName": "餐廳",
      "decorIcon": "🍽️"
    },
    {
      "id": "node-2596210344",
      "lat": 22.7490673,
      "lon": 121.1566738,
      "name": "黃記蔥油餅",
      "decorType": "restaurant",
      "decorName": "餐廳",
      "decorIcon": "🍽️"
    },
    {
      "id": "node-2596213157",
      "lat": 22.7573167,
      "lon": 121.1562571,
      "name": "蕭家肉圓",
      "decorType": "restaurant",
      "decorName": "餐廳",
      "decorIcon": "🍽️"
    },
    {
      "id": "node-2596214512",
      "lat": 22.7545964,
      "lon": 121.151665,
      "name": "藍蜻蜓速食專賣店",
      "decorType": "burger",
      "decorName": "漢堡店",
      "decorIcon": "🍔"
    },
    {
      "id": "node-3160756617",
      "lat": 22.768885,
      "lon": 121.1235833,
      "name": "全家便利商店",
      "decorType": "convenience-store",
      "decorName": "便利商店",
      "decorIcon": "🏪"
    },
    {
      "id": "node-3160756622",
      "lat": 22.768287,
      "lon": 121.1280978,
      "name": "台糖蜜鄰",
      "decorType": "supermarket",
      "decorName": "超市",
      "decorIcon": "🛒"
    },
    {
      "id": "node-3160756623",
      "lat": 22.7596864,
      "lon": 121.1387674,
      "name": "歐巴螞蛋糕",
      "decorType": "bakery",
      "decorName": "麵包店",
      "decorIcon": "🥐"
    },
    {
      "id": "node-3160756627",
      "lat": 22.7524104,
      "lon": 121.1516308,
      "name": "屈臣氏",
      "decorType": "pharmacy",
      "decorName": "藥局",
      "decorIcon": "💊"
    },
    {
      "id": "node-3160756628",
      "lat": 22.7532419,
      "lon": 121.1483503,
      "name": "臺東中山路郵局",
      "decorType": "post-office",
      "decorName": "郵局",
      "decorIcon": "📮"
    },
    {
      "id": "node-3160756629",
      "lat": 22.7608386,
      "lon": 121.143783,
      "name": "未命名美髮院",
      "decorType": "hair-salon",
      "decorName": "美髮院",
      "decorIcon": "✂️"
    },
    {
      "id": "node-3160756631",
      "lat": 22.7544413,
      "lon": 121.1499174,
      "name": "全家便利商店",
      "decorType": "convenience-store",
      "decorName": "便利商店",
      "decorIcon": "🏪"
    },
    {
      "id": "node-3168017415",
      "lat": 22.7531231,
      "lon": 121.1490081,
      "name": "家樂福",
      "decorType": "supermarket",
      "decorName": "超市",
      "decorIcon": "🛒"
    },
    {
      "id": "node-3168017416",
      "lat": 22.7568895,
      "lon": 121.1464588,
      "name": "全家便利商店",
      "decorType": "convenience-store",
      "decorName": "便利商店",
      "decorIcon": "🏪"
    },
    {
      "id": "node-3168017420",
      "lat": 22.7580779,
      "lon": 121.1569849,
      "name": "未命名超市",
      "decorType": "supermarket",
      "decorName": "超市",
      "decorIcon": "🛒"
    },
    {
      "id": "node-3168017421",
      "lat": 22.7510862,
      "lon": 121.1497722,
      "name": "7-Eleven",
      "decorType": "convenience-store",
      "decorName": "便利商店",
      "decorIcon": "🏪"
    },
    {
      "id": "node-3168017422",
      "lat": 22.7544975,
      "lon": 121.1532143,
      "name": "7-Eleven",
      "decorType": "convenience-store",
      "decorName": "便利商店",
      "decorIcon": "🏪"
    },
    {
      "id": "node-3339530716",
      "lat": 22.7915086,
      "lon": 121.1849303,
      "name": "美蛾海產",
      "decorType": "restaurant",
      "decorName": "餐廳",
      "decorIcon": "🍽️"
    },
    {
      "id": "node-3712063292",
      "lat": 22.7505264,
      "lon": 121.1495232,
      "name": "全家便利商店",
      "decorType": "convenience-store",
      "decorName": "便利商店",
      "decorIcon": "🏪"
    },
    {
      "id": "node-3739945916",
      "lat": 22.7639846,
      "lon": 121.140444,
      "name": "丁丁藥局",
      "decorType": "pharmacy",
      "decorName": "藥局",
      "decorIcon": "💊"
    },
    {
      "id": "node-3787338062",
      "lat": 22.7636205,
      "lon": 121.1409437,
      "name": "怪豆咖啡 ODDO COFFEE",
      "decorType": "cafe",
      "decorName": "咖啡廳",
      "decorIcon": "☕"
    },
    {
      "id": "node-3787338063",
      "lat": 22.7607766,
      "lon": 121.1423623,
      "name": "193咖啡館",
      "decorType": "cafe",
      "decorName": "咖啡廳",
      "decorIcon": "☕"
    },
    {
      "id": "node-3787347945",
      "lat": 22.758825,
      "lon": 121.147829,
      "name": "有時散步早午食",
      "decorType": "restaurant",
      "decorName": "餐廳",
      "decorIcon": "🍽️"
    },
    {
      "id": "node-3808071711",
      "lat": 22.7757676,
      "lon": 121.1284703,
      "name": "墾墨咖啡",
      "decorType": "cafe",
      "decorName": "咖啡廳",
      "decorIcon": "☕"
    },
    {
      "id": "node-3836773178",
      "lat": 22.7613691,
      "lon": 121.1434926,
      "name": "一家餐廳",
      "decorType": "restaurant",
      "decorName": "餐廳",
      "decorIcon": "🍽️"
    },
    {
      "id": "node-3864647749",
      "lat": 22.7983512,
      "lon": 121.1251364,
      "name": "新站診所",
      "decorType": "hospital",
      "decorName": "醫院",
      "decorIcon": "🏥"
    },
    {
      "id": "node-3865043097",
      "lat": 22.7515749,
      "lon": 121.1495199,
      "name": "多那之新生門市",
      "decorType": "cafe",
      "decorName": "咖啡廳",
      "decorIcon": "☕"
    },
    {
      "id": "node-3865043099",
      "lat": 22.7511995,
      "lon": 121.1491279,
      "name": "寶桑町壽司屋",
      "decorType": "restaurant",
      "decorName": "餐廳",
      "decorIcon": "🍽️"
    },
    {
      "id": "node-3865043100",
      "lat": 22.7510254,
      "lon": 121.149178,
      "name": "鐵花小路美食堂",
      "decorType": "restaurant",
      "decorName": "餐廳",
      "decorIcon": "🍽️"
    },
    {
      "id": "node-3902575082",
      "lat": 22.7924565,
      "lon": 121.124845,
      "name": "悟饕池上飯包",
      "decorType": "restaurant",
      "decorName": "餐廳",
      "decorIcon": "🍽️"
    },
    {
      "id": "node-3902575161",
      "lat": 22.7939377,
      "lon": 121.1232879,
      "name": "7-Eleven",
      "decorType": "convenience-store",
      "decorName": "便利商店",
      "decorIcon": "🏪"
    },
    {
      "id": "node-3902622478",
      "lat": 22.7559987,
      "lon": 121.1388535,
      "name": "7-Eleven",
      "decorType": "convenience-store",
      "decorName": "便利商店",
      "decorIcon": "🏪"
    },
    {
      "id": "node-3903872137",
      "lat": 22.7535416,
      "lon": 121.1466259,
      "name": "星巴克",
      "decorType": "cafe",
      "decorName": "咖啡廳",
      "decorIcon": "☕"
    },
    {
      "id": "node-4156695589",
      "lat": 22.7549718,
      "lon": 121.1516705,
      "name": "Sinphar Group",
      "decorType": "pharmacy",
      "decorName": "藥局",
      "decorIcon": "💊"
    },
    {
      "id": "node-4210905272",
      "lat": 22.912479,
      "lon": 121.1364889,
      "name": "鹿鳴診所",
      "decorType": "hospital",
      "decorName": "醫院",
      "decorIcon": "🏥"
    },
    {
      "id": "node-4210905273",
      "lat": 22.9124392,
      "lon": 121.1364609,
      "name": "萱軒牛肉麵水餃",
      "decorType": "restaurant",
      "decorName": "餐廳",
      "decorIcon": "🍽️"
    },
    {
      "id": "node-4210920991",
      "lat": 22.9126551,
      "lon": 121.1359444,
      "name": "和平小館",
      "decorType": "restaurant",
      "decorName": "餐廳",
      "decorIcon": "🍽️"
    },
    {
      "id": "node-4210920997",
      "lat": 22.9131522,
      "lon": 121.1361497,
      "name": "金名城麵包店",
      "decorType": "bakery",
      "decorName": "麵包店",
      "decorIcon": "🥐"
    },
    {
      "id": "node-4210920998",
      "lat": 22.9132305,
      "lon": 121.1361638,
      "name": "福源西藥房",
      "decorType": "pharmacy",
      "decorName": "藥局",
      "decorIcon": "💊"
    },
    {
      "id": "node-4210970399",
      "lat": 22.912118,
      "lon": 121.1359909,
      "name": "鹿野香自助餐廳",
      "decorType": "restaurant",
      "decorName": "餐廳",
      "decorIcon": "🍽️"
    },
    {
      "id": "node-4211013859",
      "lat": 22.9035697,
      "lon": 121.128998,
      "name": "龍田蝴蝶保育協會",
      "decorType": "park",
      "decorName": "公園",
      "decorIcon": "🌳"
    },
    {
      "id": "node-4211013860",
      "lat": 22.90392,
      "lon": 121.1255811,
      "name": "阿度的店",
      "decorType": "restaurant",
      "decorName": "餐廳",
      "decorIcon": "🍽️"
    },
    {
      "id": "node-4231983790",
      "lat": 22.7436143,
      "lon": 121.1363215,
      "name": "7-Eleven",
      "decorType": "convenience-store",
      "decorName": "便利商店",
      "decorIcon": "🏪"
    },
    {
      "id": "node-4235209989",
      "lat": 22.7539627,
      "lon": 121.1526183,
      "name": "東和外科",
      "decorType": "hospital",
      "decorName": "醫院",
      "decorIcon": "🏥"
    },
    {
      "id": "node-4235221399",
      "lat": 22.7538771,
      "lon": 121.1337317,
      "name": "7-Eleven",
      "decorType": "convenience-store",
      "decorName": "便利商店",
      "decorIcon": "🏪"
    },
    {
      "id": "node-4235225093",
      "lat": 22.7566787,
      "lon": 121.1401714,
      "name": "美而美早餐店",
      "decorType": "restaurant",
      "decorName": "餐廳",
      "decorIcon": "🍽️"
    },
    {
      "id": "node-4235225191",
      "lat": 22.7552744,
      "lon": 121.1448333,
      "name": "麥當勞",
      "decorType": "burger",
      "decorName": "漢堡店",
      "decorIcon": "🍔"
    },
    {
      "id": "node-4235229290",
      "lat": 22.7566008,
      "lon": 121.1401645,
      "name": "名家自助餐",
      "decorType": "restaurant",
      "decorName": "餐廳",
      "decorIcon": "🍽️"
    },
    {
      "id": "node-4235238890",
      "lat": 22.7551207,
      "lon": 121.1313809,
      "name": "全家便利商店",
      "decorType": "convenience-store",
      "decorName": "便利商店",
      "decorIcon": "🏪"
    },
    {
      "id": "node-4236706291",
      "lat": 22.7492454,
      "lon": 121.1336791,
      "name": "7-Eleven",
      "decorType": "convenience-store",
      "decorName": "便利商店",
      "decorIcon": "🏪"
    },
    {
      "id": "node-4236709090",
      "lat": 22.7602011,
      "lon": 121.1389572,
      "name": "全家便利商店",
      "decorType": "convenience-store",
      "decorName": "便利商店",
      "decorIcon": "🏪"
    },
    {
      "id": "node-4236714589",
      "lat": 22.7454496,
      "lon": 121.1408063,
      "name": "御饌鼎皇",
      "decorType": "restaurant",
      "decorName": "餐廳",
      "decorIcon": "🍽️"
    },
    {
      "id": "node-4236714689",
      "lat": 22.7455472,
      "lon": 121.141094,
      "name": "7-Eleven",
      "decorType": "convenience-store",
      "decorName": "便利商店",
      "decorIcon": "🏪"
    },
    {
      "id": "node-4236715789",
      "lat": 22.7441899,
      "lon": 121.1385455,
      "name": "貴族世家",
      "decorType": "restaurant",
      "decorName": "餐廳",
      "decorIcon": "🍽️"
    },
    {
      "id": "node-4249861790",
      "lat": 22.7763153,
      "lon": 121.1271227,
      "name": "7-Eleven",
      "decorType": "convenience-store",
      "decorName": "便利商店",
      "decorIcon": "🏪"
    },
    {
      "id": "node-4269461188",
      "lat": 22.7553296,
      "lon": 121.1552732,
      "name": "阿咪米台目",
      "decorType": "restaurant",
      "decorName": "餐廳",
      "decorIcon": "🍽️"
    },
    {
      "id": "node-4269461789",
      "lat": 22.7531568,
      "lon": 121.1532612,
      "name": "全家便利商店",
      "decorType": "convenience-store",
      "decorName": "便利商店",
      "decorIcon": "🏪"
    },
    {
      "id": "node-4269477637",
      "lat": 22.7518269,
      "lon": 121.1481383,
      "name": "台東秀泰影城",
      "decorType": "movie-theater",
      "decorName": "電影院",
      "decorIcon": "🍿"
    },
    {
      "id": "node-4269477638",
      "lat": 22.7520408,
      "lon": 121.148458,
      "name": "Uniqlo",
      "decorType": "clothing-store",
      "decorName": "服飾店",
      "decorIcon": "👕"
    },
    {
      "id": "node-4269477639",
      "lat": 22.7519085,
      "lon": 121.1482286,
      "name": "台東秀泰影城-御之饌日式料理",
      "decorType": "restaurant",
      "decorName": "餐廳",
      "decorIcon": "🍽️"
    },
    {
      "id": "node-4269483355",
      "lat": 22.7554639,
      "lon": 121.1452019,
      "name": "歐鄉牛排館",
      "decorType": "restaurant",
      "decorName": "餐廳",
      "decorIcon": "🍽️"
    },
    {
      "id": "node-4269483357",
      "lat": 22.7554749,
      "lon": 121.1446319,
      "name": "台東縣農會超市",
      "decorType": "supermarket",
      "decorName": "超市",
      "decorIcon": "🛒"
    },
    {
      "id": "node-4269483363",
      "lat": 22.7557123,
      "lon": 121.1447511,
      "name": "來來牛排",
      "decorType": "restaurant",
      "decorName": "餐廳",
      "decorIcon": "🍽️"
    },
    {
      "id": "node-4269483366",
      "lat": 22.7550766,
      "lon": 121.1446163,
      "name": "川普牛排",
      "decorType": "restaurant",
      "decorName": "餐廳",
      "decorIcon": "🍽️"
    },
    {
      "id": "node-4269496789",
      "lat": 22.7573294,
      "lon": 121.1438418,
      "name": "UNPASTA義大利麵",
      "decorType": "restaurant",
      "decorName": "餐廳",
      "decorIcon": "🍽️"
    },
    {
      "id": "node-4269496790",
      "lat": 22.7571749,
      "lon": 121.1440784,
      "name": "鮮茶道",
      "decorType": "cafe",
      "decorName": "咖啡廳",
      "decorIcon": "☕"
    },
    {
      "id": "node-4269496792",
      "lat": 22.76342,
      "lon": 121.140912,
      "name": "丁丁藥局",
      "decorType": "pharmacy",
      "decorName": "藥局",
      "decorIcon": "💊"
    },
    {
      "id": "node-4274842491",
      "lat": 22.7510235,
      "lon": 121.1415751,
      "name": "7-Eleven",
      "decorType": "convenience-store",
      "decorName": "便利商店",
      "decorIcon": "🏪"
    },
    {
      "id": "node-4319019293",
      "lat": 22.7503797,
      "lon": 121.1355182,
      "name": "全家便利商店",
      "decorType": "convenience-store",
      "decorName": "便利商店",
      "decorIcon": "🏪"
    },
    {
      "id": "node-4327981941",
      "lat": 22.7568559,
      "lon": 121.1523298,
      "name": "7-Eleven",
      "decorType": "convenience-store",
      "decorName": "便利商店",
      "decorIcon": "🏪"
    },
    {
      "id": "node-4331831291",
      "lat": 22.7550158,
      "lon": 121.1539713,
      "name": "李旺駿耳鼻喉科診所",
      "decorType": "hospital",
      "decorName": "醫院",
      "decorIcon": "🏥"
    },
    {
      "id": "node-4337889689",
      "lat": 22.7781671,
      "lon": 121.1256596,
      "name": "侯卑南豬血湯",
      "decorType": "restaurant",
      "decorName": "餐廳",
      "decorIcon": "🍽️"
    },
    {
      "id": "node-4337890589",
      "lat": 22.7811426,
      "lon": 121.121944,
      "name": "杉原陳家麻糬",
      "decorType": "restaurant",
      "decorName": "餐廳",
      "decorIcon": "🍽️"
    },
    {
      "id": "node-4360116593",
      "lat": 22.7913518,
      "lon": 121.1851617,
      "name": "7-Eleven",
      "decorType": "convenience-store",
      "decorName": "便利商店",
      "decorIcon": "🏪"
    },
    {
      "id": "node-4360116594",
      "lat": 22.7577315,
      "lon": 121.1565357,
      "name": "7-Eleven",
      "decorType": "convenience-store",
      "decorName": "便利商店",
      "decorIcon": "🏪"
    },
    {
      "id": "node-4360308093",
      "lat": 22.7541947,
      "lon": 121.1521804,
      "name": "榕樹下米苔目",
      "decorType": "restaurant",
      "decorName": "餐廳",
      "decorIcon": "🍽️"
    },
    {
      "id": "node-4397722490",
      "lat": 22.7579684,
      "lon": 121.15317,
      "name": "寶町藝文中心",
      "decorType": "art-gallery",
      "decorName": "美術館",
      "decorIcon": "🖼️"
    },
    {
      "id": "node-4452669291",
      "lat": 22.8774399,
      "lon": 121.228207,
      "name": "32鄰咖啡民宿",
      "decorType": "cafe",
      "decorName": "咖啡廳",
      "decorIcon": "☕"
    },
    {
      "id": "node-4452680091",
      "lat": 22.874671,
      "lon": 121.22582,
      "name": "五九八快炒",
      "decorType": "restaurant",
      "decorName": "餐廳",
      "decorIcon": "🍽️"
    },
    {
      "id": "node-4452688489",
      "lat": 22.8744767,
      "lon": 121.2259429,
      "name": "哈亞細快炒",
      "decorType": "restaurant",
      "decorName": "餐廳",
      "decorIcon": "🍽️"
    },
    {
      "id": "node-4452737990",
      "lat": 22.8762704,
      "lon": 121.2295593,
      "name": "錦鸞越南美食",
      "decorType": "restaurant",
      "decorName": "餐廳",
      "decorIcon": "🍽️"
    },
    {
      "id": "node-4452994691",
      "lat": 22.8857266,
      "lon": 121.2171877,
      "name": "蘇菲的小酒館",
      "decorType": "restaurant",
      "decorName": "餐廳",
      "decorIcon": "🍽️"
    },
    {
      "id": "node-4470299391",
      "lat": 22.7441674,
      "lon": 121.1383,
      "name": "麥當勞",
      "decorType": "burger",
      "decorName": "漢堡店",
      "decorIcon": "🍔"
    },
    {
      "id": "node-4483212301",
      "lat": 22.7919166,
      "lon": 121.1911387,
      "name": "未命名餐廳",
      "decorType": "restaurant",
      "decorName": "餐廳",
      "decorIcon": "🍽️"
    },
    {
      "id": "node-4488207790",
      "lat": 22.7601563,
      "lon": 121.1514128,
      "name": "陳記麻糬",
      "decorType": "sweetshop",
      "decorName": "甜點店",
      "decorIcon": "🍩"
    },
    {
      "id": "node-4503957192",
      "lat": 22.7530745,
      "lon": 121.1537087,
      "name": "臺東大同路郵局",
      "decorType": "post-office",
      "decorName": "郵局",
      "decorIcon": "📮"
    },
    {
      "id": "node-4514776891",
      "lat": 22.7689847,
      "lon": 121.1261107,
      "name": "7-Eleven",
      "decorType": "convenience-store",
      "decorName": "便利商店",
      "decorIcon": "🏪"
    },
    {
      "id": "node-4623058790",
      "lat": 22.7907592,
      "lon": 121.1856031,
      "name": "藍色愛情海",
      "decorType": "restaurant",
      "decorName": "餐廳",
      "decorIcon": "🍽️"
    },
    {
      "id": "node-4639193190",
      "lat": 22.7666619,
      "lon": 121.1303865,
      "name": "桃子核的家",
      "decorType": "restaurant",
      "decorName": "餐廳",
      "decorIcon": "🍽️"
    },
    {
      "id": "node-4690733275",
      "lat": 22.7551353,
      "lon": 121.156082,
      "name": "仙草屋",
      "decorType": "restaurant",
      "decorName": "餐廳",
      "decorIcon": "🍽️"
    },
    {
      "id": "node-4690733276",
      "lat": 22.7553753,
      "lon": 121.1554641,
      "name": "蘇天助素食麵",
      "decorType": "restaurant",
      "decorName": "餐廳",
      "decorIcon": "🍽️"
    },
    {
      "id": "node-4690733277",
      "lat": 22.7557352,
      "lon": 121.1550453,
      "name": "來點感性滷味",
      "decorType": "restaurant",
      "decorName": "餐廳",
      "decorIcon": "🍽️"
    },
    {
      "id": "node-4690733278",
      "lat": 22.7541906,
      "lon": 121.1556145,
      "name": "丹寧象咖啡館",
      "decorType": "restaurant",
      "decorName": "餐廳",
      "decorIcon": "🍽️"
    },
    {
      "id": "node-4690733279",
      "lat": 22.7575682,
      "lon": 121.1530571,
      "name": "海草健康輕食館",
      "decorType": "restaurant",
      "decorName": "餐廳",
      "decorIcon": "🍽️"
    },
    {
      "id": "node-4761150222",
      "lat": 22.7553391,
      "lon": 121.1554894,
      "name": "蘇天助素食麵",
      "decorType": "restaurant",
      "decorName": "餐廳",
      "decorIcon": "🍽️"
    },
    {
      "id": "node-4761162823",
      "lat": 22.7514835,
      "lon": 121.1492999,
      "name": "精采南洋風味廚房",
      "decorType": "restaurant",
      "decorName": "餐廳",
      "decorIcon": "🍽️"
    },
    {
      "id": "node-4761172422",
      "lat": 22.7536517,
      "lon": 121.1550931,
      "name": "披薩工廠",
      "decorType": "restaurant",
      "decorName": "餐廳",
      "decorIcon": "🍽️"
    },
    {
      "id": "node-4761179521",
      "lat": 22.7500764,
      "lon": 121.1499582,
      "name": "穗科手打烏龍麵",
      "decorType": "restaurant",
      "decorName": "餐廳",
      "decorIcon": "🍽️"
    },
    {
      "id": "node-4761179523",
      "lat": 22.7541517,
      "lon": 121.1555809,
      "name": "小地方素食館",
      "decorType": "restaurant",
      "decorName": "餐廳",
      "decorIcon": "🍽️"
    },
    {
      "id": "node-4761179524",
      "lat": 22.7584025,
      "lon": 121.1416356,
      "name": "四季素食館",
      "decorType": "restaurant",
      "decorName": "餐廳",
      "decorIcon": "🍽️"
    },
    {
      "id": "node-4761184421",
      "lat": 22.7559732,
      "lon": 121.152422,
      "name": "十方養生素食餐廳",
      "decorType": "restaurant",
      "decorName": "餐廳",
      "decorIcon": "🍽️"
    },
    {
      "id": "node-4761363924",
      "lat": 22.7517915,
      "lon": 121.1479251,
      "name": "Mister Donut",
      "decorType": "burger",
      "decorName": "漢堡店",
      "decorIcon": "🍔"
    },
    {
      "id": "node-4761370021",
      "lat": 22.7538233,
      "lon": 121.1450872,
      "name": "全家便利商店",
      "decorType": "convenience-store",
      "decorName": "便利商店",
      "decorIcon": "🏪"
    },
    {
      "id": "node-4765312122",
      "lat": 22.7540377,
      "lon": 121.155712,
      "name": "丹寧象",
      "decorType": "restaurant",
      "decorName": "餐廳",
      "decorIcon": "🍽️"
    },
    {
      "id": "node-4766635029",
      "lat": 22.7553717,
      "lon": 121.1540452,
      "name": "Solo Studio Taitung",
      "decorType": "cafe",
      "decorName": "咖啡廳",
      "decorIcon": "☕"
    },
    {
      "id": "node-4769024352",
      "lat": 22.7542235,
      "lon": 121.1554322,
      "name": "幸福綠豆湯",
      "decorType": "restaurant",
      "decorName": "餐廳",
      "decorIcon": "🍽️"
    },
    {
      "id": "node-4841698123",
      "lat": 22.7542646,
      "lon": 121.1530131,
      "name": "日本九州拉面",
      "decorType": "restaurant",
      "decorName": "餐廳",
      "decorIcon": "🍽️"
    },
    {
      "id": "node-4851257740",
      "lat": 22.7525319,
      "lon": 121.1483033,
      "name": "小吃",
      "decorType": "restaurant",
      "decorName": "餐廳",
      "decorIcon": "🍽️"
    },
    {
      "id": "node-4851289368",
      "lat": 22.9300172,
      "lon": 121.1397572,
      "name": "方克巧克力工坊",
      "decorType": "cafe",
      "decorName": "咖啡廳",
      "decorIcon": "☕"
    },
    {
      "id": "node-4866021121",
      "lat": 22.7535433,
      "lon": 121.1462415,
      "name": "林家臭豆腐",
      "decorType": "restaurant",
      "decorName": "餐廳",
      "decorIcon": "🍽️"
    },
    {
      "id": "node-4899394440",
      "lat": 22.7908155,
      "lon": 121.1271993,
      "name": "全家便利商店",
      "decorType": "convenience-store",
      "decorName": "便利商店",
      "decorIcon": "🏪"
    },
    {
      "id": "node-4899400455",
      "lat": 22.7906111,
      "lon": 121.1271976,
      "name": "7-Eleven",
      "decorType": "convenience-store",
      "decorName": "便利商店",
      "decorIcon": "🏪"
    },
    {
      "id": "node-4909774521",
      "lat": 22.7681537,
      "lon": 121.1362191,
      "name": "強生藥局",
      "decorType": "pharmacy",
      "decorName": "藥局",
      "decorIcon": "💊"
    },
    {
      "id": "node-4997468522",
      "lat": 22.7544349,
      "lon": 121.1493276,
      "name": "Taitung Night Market",
      "decorType": "supermarket",
      "decorName": "超市",
      "decorIcon": "🛒"
    },
    {
      "id": "node-5160952809",
      "lat": 22.8727121,
      "lon": 121.2265683,
      "name": "逗留豆遊",
      "decorType": "cafe",
      "decorName": "咖啡廳",
      "decorIcon": "☕"
    },
    {
      "id": "node-5225695350",
      "lat": 22.8794717,
      "lon": 121.2312872,
      "name": "A Mano Pizza",
      "decorType": "restaurant",
      "decorName": "餐廳",
      "decorIcon": "🍽️"
    },
    {
      "id": "node-5249920230",
      "lat": 22.7650617,
      "lon": 121.1389333,
      "name": "全家便利商店",
      "decorType": "convenience-store",
      "decorName": "便利商店",
      "decorIcon": "🏪"
    },
    {
      "id": "node-5249925353",
      "lat": 22.7584331,
      "lon": 121.1499399,
      "name": "7-Eleven",
      "decorType": "convenience-store",
      "decorName": "便利商店",
      "decorIcon": "🏪"
    },
    {
      "id": "node-5250416681",
      "lat": 22.760016,
      "lon": 121.1491781,
      "name": "未命名美髮院",
      "decorType": "hair-salon",
      "decorName": "美髮院",
      "decorIcon": "✂️"
    },
    {
      "id": "node-5250417422",
      "lat": 22.7564444,
      "lon": 121.1523442,
      "name": "Da Che Lun",
      "decorType": "restaurant",
      "decorName": "餐廳",
      "decorIcon": "🍽️"
    },
    {
      "id": "node-5250419546",
      "lat": 22.7552274,
      "lon": 121.154232,
      "name": "未命名美髮院",
      "decorType": "hair-salon",
      "decorName": "美髮院",
      "decorIcon": "✂️"
    },
    {
      "id": "node-5250419597",
      "lat": 22.7545931,
      "lon": 121.1550442,
      "name": "Knife Shaved Noodles",
      "decorType": "restaurant",
      "decorName": "餐廳",
      "decorIcon": "🍽️"
    },
    {
      "id": "node-5250420455",
      "lat": 22.7547489,
      "lon": 121.1544121,
      "name": "七里坡",
      "decorType": "restaurant",
      "decorName": "餐廳",
      "decorIcon": "🍽️"
    },
    {
      "id": "node-5250420586",
      "lat": 22.755465,
      "lon": 121.1538783,
      "name": "未命名餐廳",
      "decorType": "restaurant",
      "decorName": "餐廳",
      "decorIcon": "🍽️"
    },
    {
      "id": "node-5250427385",
      "lat": 22.7524054,
      "lon": 121.1569844,
      "name": "全聯福利中心",
      "decorType": "supermarket",
      "decorName": "超市",
      "decorIcon": "🛒"
    },
    {
      "id": "node-5250427678",
      "lat": 22.7519738,
      "lon": 121.1578812,
      "name": "未命名麵包店",
      "decorType": "bakery",
      "decorName": "麵包店",
      "decorIcon": "🥐"
    },
    {
      "id": "node-5252082389",
      "lat": 22.7565517,
      "lon": 121.1516307,
      "name": "必勝客",
      "decorType": "restaurant",
      "decorName": "餐廳",
      "decorIcon": "🍽️"
    },
    {
      "id": "node-5252085883",
      "lat": 22.7559713,
      "lon": 121.151447,
      "name": "萬家鄉",
      "decorType": "restaurant",
      "decorName": "餐廳",
      "decorIcon": "🍽️"
    },
    {
      "id": "node-5252118838",
      "lat": 22.7541804,
      "lon": 121.1459035,
      "name": "摩斯漢堡",
      "decorType": "burger",
      "decorName": "漢堡店",
      "decorIcon": "🍔"
    },
    {
      "id": "node-5252138666",
      "lat": 22.7653871,
      "lon": 121.1437012,
      "name": "全家便利商店",
      "decorType": "convenience-store",
      "decorName": "便利商店",
      "decorIcon": "🏪"
    },
    {
      "id": "node-5254012685",
      "lat": 22.773149,
      "lon": 121.1303537,
      "name": "全聯福利中心",
      "decorType": "supermarket",
      "decorName": "超市",
      "decorIcon": "🛒"
    },
    {
      "id": "node-5254129311",
      "lat": 22.7611829,
      "lon": 121.144347,
      "name": "未命名美髮院",
      "decorType": "hair-salon",
      "decorName": "美髮院",
      "decorIcon": "✂️"
    },
    {
      "id": "node-5254129316",
      "lat": 22.7608093,
      "lon": 121.1446278,
      "name": "未命名美髮院",
      "decorType": "hair-salon",
      "decorName": "美髮院",
      "decorIcon": "✂️"
    },
    {
      "id": "node-5254130477",
      "lat": 22.7616517,
      "lon": 121.1444167,
      "name": "未命名餐廳",
      "decorType": "restaurant",
      "decorName": "餐廳",
      "decorIcon": "🍽️"
    },
    {
      "id": "node-5254132425",
      "lat": 22.7603054,
      "lon": 121.1454809,
      "name": "達美樂披薩",
      "decorType": "burger",
      "decorName": "漢堡店",
      "decorIcon": "🍔"
    },
    {
      "id": "node-5254134297",
      "lat": 22.7601017,
      "lon": 121.146105,
      "name": "7-Eleven",
      "decorType": "convenience-store",
      "decorName": "便利商店",
      "decorIcon": "🏪"
    },
    {
      "id": "node-5254144751",
      "lat": 22.7617031,
      "lon": 121.1488413,
      "name": "Obamacake",
      "decorType": "bakery",
      "decorName": "麵包店",
      "decorIcon": "🥐"
    },
    {
      "id": "node-5254147627",
      "lat": 22.7592122,
      "lon": 121.1493749,
      "name": "未命名餐廳",
      "decorType": "restaurant",
      "decorName": "餐廳",
      "decorIcon": "🍽️"
    },
    {
      "id": "node-5254166262",
      "lat": 22.7564633,
      "lon": 121.1506102,
      "name": "未命名餐廳",
      "decorType": "restaurant",
      "decorName": "餐廳",
      "decorIcon": "🍽️"
    },
    {
      "id": "node-5254167170",
      "lat": 22.7548695,
      "lon": 121.1514063,
      "name": "未命名美髮院",
      "decorType": "hair-salon",
      "decorName": "美髮院",
      "decorIcon": "✂️"
    },
    {
      "id": "node-5255529245",
      "lat": 22.757056,
      "lon": 121.1501151,
      "name": "未命名美髮院",
      "decorType": "hair-salon",
      "decorName": "美髮院",
      "decorIcon": "✂️"
    },
    {
      "id": "node-5257490818",
      "lat": 22.7567168,
      "lon": 121.1517618,
      "name": "打鐵和風火鍋",
      "decorType": "restaurant",
      "decorName": "餐廳",
      "decorIcon": "🍽️"
    },
    {
      "id": "node-5260438785",
      "lat": 22.7517268,
      "lon": 121.148199,
      "name": "IMEI",
      "decorType": "convenience-store",
      "decorName": "便利商店",
      "decorIcon": "🏪"
    },
    {
      "id": "node-5260439222",
      "lat": 22.7516258,
      "lon": 121.1483404,
      "name": "未命名美髮院",
      "decorType": "hair-salon",
      "decorName": "美髮院",
      "decorIcon": "✂️"
    },
    {
      "id": "node-5260446422",
      "lat": 22.7536059,
      "lon": 121.1487267,
      "name": "全聯福利中心",
      "decorType": "supermarket",
      "decorName": "超市",
      "decorIcon": "🛒"
    },
    {
      "id": "node-5260446821",
      "lat": 22.7530627,
      "lon": 121.1481798,
      "name": "Subway",
      "decorType": "burger",
      "decorName": "漢堡店",
      "decorIcon": "🍔"
    },
    {
      "id": "node-5260446929",
      "lat": 22.7536352,
      "lon": 121.1502121,
      "name": "未命名服飾店",
      "decorType": "clothing-store",
      "decorName": "服飾店",
      "decorIcon": "👕"
    },
    {
      "id": "node-5260464062",
      "lat": 22.7584334,
      "lon": 121.1479344,
      "name": "未命名咖啡廳",
      "decorType": "cafe",
      "decorName": "咖啡廳",
      "decorIcon": "☕"
    },
    {
      "id": "node-5260469808",
      "lat": 22.7567774,
      "lon": 121.1463857,
      "name": "未命名麵包店",
      "decorType": "bakery",
      "decorName": "麵包店",
      "decorIcon": "🥐"
    },
    {
      "id": "node-5260475556",
      "lat": 22.7655993,
      "lon": 121.1387798,
      "name": "未命名甜點店",
      "decorType": "sweetshop",
      "decorName": "甜點店",
      "decorIcon": "🍩"
    },
    {
      "id": "node-5261322617",
      "lat": 22.7559855,
      "lon": 121.1510889,
      "name": "蔡文澤小兒科診所",
      "decorType": "hospital",
      "decorName": "醫院",
      "decorIcon": "🏥"
    },
    {
      "id": "node-5261323343",
      "lat": 22.7562613,
      "lon": 121.1476189,
      "name": "未命名美髮院",
      "decorType": "hair-salon",
      "decorName": "美髮院",
      "decorIcon": "✂️"
    },
    {
      "id": "node-5261836744",
      "lat": 22.7553021,
      "lon": 121.1467249,
      "name": "未命名餐廳",
      "decorType": "restaurant",
      "decorName": "餐廳",
      "decorIcon": "🍽️"
    },
    {
      "id": "node-5261855651",
      "lat": 22.7565565,
      "lon": 121.1479189,
      "name": "牛比蔥壽喜燒",
      "decorType": "restaurant",
      "decorName": "餐廳",
      "decorIcon": "🍽️"
    },
    {
      "id": "node-5261863302",
      "lat": 22.7544554,
      "lon": 121.145954,
      "name": "伊蕾名店",
      "decorType": "clothing-store",
      "decorName": "服飾店",
      "decorIcon": "👕"
    },
    {
      "id": "node-5261917511",
      "lat": 22.7531621,
      "lon": 121.1477061,
      "name": "肯德基",
      "decorType": "burger",
      "decorName": "漢堡店",
      "decorIcon": "🍔"
    },
    {
      "id": "node-5261947940",
      "lat": 22.7449984,
      "lon": 121.1393873,
      "name": "未命名餐廳",
      "decorType": "restaurant",
      "decorName": "餐廳",
      "decorIcon": "🍽️"
    },
    {
      "id": "node-5261954000",
      "lat": 22.7480682,
      "lon": 121.1455726,
      "name": "拉麵",
      "decorType": "restaurant",
      "decorName": "餐廳",
      "decorIcon": "🍽️"
    },
    {
      "id": "node-5261957041",
      "lat": 22.7496707,
      "lon": 121.1486037,
      "name": "50嵐",
      "decorType": "cafe",
      "decorName": "咖啡廳",
      "decorIcon": "☕"
    },
    {
      "id": "node-5261957042",
      "lat": 22.7494721,
      "lon": 121.1484203,
      "name": "未命名麵包店",
      "decorType": "bakery",
      "decorName": "麵包店",
      "decorIcon": "🥐"
    },
    {
      "id": "node-5261957442",
      "lat": 22.7475635,
      "lon": 121.1443747,
      "name": "未命名美髮院",
      "decorType": "hair-salon",
      "decorName": "美髮院",
      "decorIcon": "✂️"
    },
    {
      "id": "node-5289830983",
      "lat": 22.7678511,
      "lon": 121.1420388,
      "name": "全家便利商店",
      "decorType": "convenience-store",
      "decorName": "便利商店",
      "decorIcon": "🏪"
    },
    {
      "id": "node-5289833595",
      "lat": 22.767881,
      "lon": 121.1439758,
      "name": "7-Eleven",
      "decorType": "convenience-store",
      "decorName": "便利商店",
      "decorIcon": "🏪"
    },
    {
      "id": "node-5289846148",
      "lat": 22.7660243,
      "lon": 121.1443278,
      "name": "未命名醫院",
      "decorType": "hospital",
      "decorName": "醫院",
      "decorIcon": "🏥"
    },
    {
      "id": "node-5293766927",
      "lat": 22.9109373,
      "lon": 121.1360414,
      "name": "未命名郵局",
      "decorType": "post-office",
      "decorName": "郵局",
      "decorIcon": "📮"
    },
    {
      "id": "node-5293767838",
      "lat": 22.9109112,
      "lon": 121.1361896,
      "name": "Chicgo Pizza House",
      "decorType": "restaurant",
      "decorName": "餐廳",
      "decorIcon": "🍽️"
    },
    {
      "id": "node-5336034622",
      "lat": 22.7452847,
      "lon": 121.1398663,
      "name": "八方雲集",
      "decorType": "burger",
      "decorName": "漢堡店",
      "decorIcon": "🍔"
    },
    {
      "id": "node-5351036635",
      "lat": 22.7555424,
      "lon": 121.144562,
      "name": "NET",
      "decorType": "clothing-store",
      "decorName": "服飾店",
      "decorIcon": "👕"
    },
    {
      "id": "node-5351036637",
      "lat": 22.7684705,
      "lon": 121.1402904,
      "name": "芳埠咖啡廳",
      "decorType": "cafe",
      "decorName": "咖啡廳",
      "decorIcon": "☕"
    },
    {
      "id": "node-5351036638",
      "lat": 22.7555001,
      "lon": 121.1532654,
      "name": "Haifa",
      "decorType": "cafe",
      "decorName": "咖啡廳",
      "decorIcon": "☕"
    },
    {
      "id": "node-5351036639",
      "lat": 22.7555841,
      "lon": 121.1533957,
      "name": "五花馬",
      "decorType": "restaurant",
      "decorName": "餐廳",
      "decorIcon": "🍽️"
    },
    {
      "id": "node-5383397421",
      "lat": 22.7590299,
      "lon": 121.1478733,
      "name": "阿興小吃",
      "decorType": "restaurant",
      "decorName": "餐廳",
      "decorIcon": "🍽️"
    },
    {
      "id": "node-5383526222",
      "lat": 22.7791028,
      "lon": 121.1248436,
      "name": "卑南香腸",
      "decorType": "burger",
      "decorName": "漢堡店",
      "decorIcon": "🍔"
    },
    {
      "id": "node-5383526223",
      "lat": 22.7601258,
      "lon": 121.1439953,
      "name": "蕃薯伯楊記地瓜酥專賣店",
      "decorType": "restaurant",
      "decorName": "餐廳",
      "decorIcon": "🍽️"
    },
    {
      "id": "node-5392524822",
      "lat": 22.7529501,
      "lon": 121.1534647,
      "name": "老東台米苔目",
      "decorType": "restaurant",
      "decorName": "餐廳",
      "decorIcon": "🍽️"
    },
    {
      "id": "node-5392692323",
      "lat": 22.7527183,
      "lon": 121.1526151,
      "name": "王子麵店",
      "decorType": "restaurant",
      "decorName": "餐廳",
      "decorIcon": "🍽️"
    },
    {
      "id": "node-5392692524",
      "lat": 22.7516473,
      "lon": 121.152642,
      "name": "寶桑豆花",
      "decorType": "restaurant",
      "decorName": "餐廳",
      "decorIcon": "🍽️"
    },
    {
      "id": "node-5395389521",
      "lat": 22.7794036,
      "lon": 121.1245556,
      "name": "陳家麻糬",
      "decorType": "bakery",
      "decorName": "麵包店",
      "decorIcon": "🥐"
    },
    {
      "id": "node-5453906121",
      "lat": 22.757217,
      "lon": 121.1443328,
      "name": "Ming Long Vegetarian Restaurant",
      "decorType": "restaurant",
      "decorName": "餐廳",
      "decorIcon": "🍽️"
    },
    {
      "id": "node-5553486923",
      "lat": 22.7903986,
      "lon": 121.1851517,
      "name": "未命名咖啡廳",
      "decorType": "cafe",
      "decorName": "咖啡廳",
      "decorIcon": "☕"
    },
    {
      "id": "node-5631842723",
      "lat": 22.9106776,
      "lon": 121.1362273,
      "name": "7-Eleven",
      "decorType": "convenience-store",
      "decorName": "便利商店",
      "decorIcon": "🏪"
    },
    {
      "id": "node-5660104019",
      "lat": 22.768073,
      "lon": 121.1443245,
      "name": "好悅美食",
      "decorType": "restaurant",
      "decorName": "餐廳",
      "decorIcon": "🍽️"
    },
    {
      "id": "node-5660190521",
      "lat": 22.7678526,
      "lon": 121.1444611,
      "name": "夏安居草食堂",
      "decorType": "restaurant",
      "decorName": "餐廳",
      "decorIcon": "🍽️"
    },
    {
      "id": "node-5660190535",
      "lat": 22.768327,
      "lon": 121.145708,
      "name": "小李の頭毛店",
      "decorType": "hair-salon",
      "decorName": "美髮院",
      "decorIcon": "✂️"
    },
    {
      "id": "node-5660190538",
      "lat": 22.7669454,
      "lon": 121.1450916,
      "name": "砂糖兔",
      "decorType": "sweetshop",
      "decorName": "甜點店",
      "decorIcon": "🍩"
    },
    {
      "id": "node-5660190566",
      "lat": 22.7634277,
      "lon": 121.1466425,
      "name": "7-Eleven",
      "decorType": "convenience-store",
      "decorName": "便利商店",
      "decorIcon": "🏪"
    },
    {
      "id": "node-5660190575",
      "lat": 22.763633,
      "lon": 121.1456072,
      "name": "張崇晉婦產科",
      "decorType": "hospital",
      "decorName": "醫院",
      "decorIcon": "🏥"
    },
    {
      "id": "node-5660268449",
      "lat": 22.7646306,
      "lon": 121.1466017,
      "name": "池上山東小吃",
      "decorType": "restaurant",
      "decorName": "餐廳",
      "decorIcon": "🍽️"
    },
    {
      "id": "node-5660268450",
      "lat": 22.764739,
      "lon": 121.1465994,
      "name": "荷包蛋早餐",
      "decorType": "restaurant",
      "decorName": "餐廳",
      "decorIcon": "🍽️"
    },
    {
      "id": "node-5660268456",
      "lat": 22.7636265,
      "lon": 121.1467789,
      "name": "正一百貨",
      "decorType": "supermarket",
      "decorName": "超市",
      "decorIcon": "🛒"
    },
    {
      "id": "node-5660268458",
      "lat": 22.7634393,
      "lon": 121.1462744,
      "name": "康妮造型沙龍",
      "decorType": "hair-salon",
      "decorName": "美髮院",
      "decorIcon": "✂️"
    },
    {
      "id": "node-5660268459",
      "lat": 22.7634393,
      "lon": 121.1461967,
      "name": "卡洛里早午餐",
      "decorType": "restaurant",
      "decorName": "餐廳",
      "decorIcon": "🍽️"
    },
    {
      "id": "node-5660268460",
      "lat": 22.7634358,
      "lon": 121.1461227,
      "name": "巨森早餐吧",
      "decorType": "restaurant",
      "decorName": "餐廳",
      "decorIcon": "🍽️"
    },
    {
      "id": "node-5660268461",
      "lat": 22.7634446,
      "lon": 121.145971,
      "name": "小辣椒自助餐",
      "decorType": "restaurant",
      "decorName": "餐廳",
      "decorIcon": "🍽️"
    },
    {
      "id": "node-5660268462",
      "lat": 22.7634446,
      "lon": 121.1459141,
      "name": "蔬果堡",
      "decorType": "restaurant",
      "decorName": "餐廳",
      "decorIcon": "🍽️"
    },
    {
      "id": "node-5660268464",
      "lat": 22.7634568,
      "lon": 121.1456239,
      "name": "吉購吉",
      "decorType": "restaurant",
      "decorName": "餐廳",
      "decorIcon": "🍽️"
    },
    {
      "id": "node-5660268468",
      "lat": 22.7634253,
      "lon": 121.1451498,
      "name": "大吉屋",
      "decorType": "restaurant",
      "decorName": "餐廳",
      "decorIcon": "🍽️"
    },
    {
      "id": "node-5660268469",
      "lat": 22.7634428,
      "lon": 121.1450379,
      "name": "麗特IS髮藝聯盟",
      "decorType": "hair-salon",
      "decorName": "美髮院",
      "decorIcon": "✂️"
    },
    {
      "id": "node-5660268471",
      "lat": 22.7634481,
      "lon": 121.1448823,
      "name": "經典健康早餐吧",
      "decorType": "restaurant",
      "decorName": "餐廳",
      "decorIcon": "🍽️"
    },
    {
      "id": "node-5660268474",
      "lat": 22.7636702,
      "lon": 121.1442925,
      "name": "全館流行服飾店",
      "decorType": "clothing-store",
      "decorName": "服飾店",
      "decorIcon": "👕"
    },
    {
      "id": "node-5660268475",
      "lat": 22.7636457,
      "lon": 121.1440402,
      "name": "一薌園美食",
      "decorType": "restaurant",
      "decorName": "餐廳",
      "decorIcon": "🍽️"
    },
    {
      "id": "node-5660373310",
      "lat": 22.7638971,
      "lon": 121.1440283,
      "name": "長文西藥房",
      "decorType": "pharmacy",
      "decorName": "藥局",
      "decorIcon": "💊"
    },
    {
      "id": "node-5660374224",
      "lat": 22.7644298,
      "lon": 121.1437742,
      "name": "陶坊",
      "decorType": "restaurant",
      "decorName": "餐廳",
      "decorIcon": "🍽️"
    },
    {
      "id": "node-5660374225",
      "lat": 22.7648303,
      "lon": 121.1437609,
      "name": "未命名餐廳",
      "decorType": "restaurant",
      "decorName": "餐廳",
      "decorIcon": "🍽️"
    },
    {
      "id": "node-5660410666",
      "lat": 22.7660256,
      "lon": 121.1434218,
      "name": "新北斗石頭火鍋",
      "decorType": "restaurant",
      "decorName": "餐廳",
      "decorIcon": "🍽️"
    },
    {
      "id": "node-5660410667",
      "lat": 22.7659924,
      "lon": 121.1446337,
      "name": "合興大藥局",
      "decorType": "pharmacy",
      "decorName": "藥局",
      "decorIcon": "💊"
    },
    {
      "id": "node-5660410668",
      "lat": 22.76626,
      "lon": 121.1440135,
      "name": "維康醫療用品",
      "decorType": "pharmacy",
      "decorName": "藥局",
      "decorIcon": "💊"
    },
    {
      "id": "node-5660410669",
      "lat": 22.7667217,
      "lon": 121.1440041,
      "name": "天隆中藥房",
      "decorType": "pharmacy",
      "decorName": "藥局",
      "decorIcon": "💊"
    },
    {
      "id": "node-5660410670",
      "lat": 22.7667269,
      "lon": 121.1437518,
      "name": "仟子蓮餐坊",
      "decorType": "restaurant",
      "decorName": "餐廳",
      "decorIcon": "🍽️"
    },
    {
      "id": "node-5660410676",
      "lat": 22.7672813,
      "lon": 121.1439908,
      "name": "一心堂中醫診所",
      "decorType": "hospital",
      "decorName": "醫院",
      "decorIcon": "🏥"
    },
    {
      "id": "node-5660410682",
      "lat": 22.7677657,
      "lon": 121.1437575,
      "name": "佳廚食坊",
      "decorType": "restaurant",
      "decorName": "餐廳",
      "decorIcon": "🍽️"
    },
    {
      "id": "node-5660410684",
      "lat": 22.7684943,
      "lon": 121.1437216,
      "name": "東之園草袋飯",
      "decorType": "restaurant",
      "decorName": "餐廳",
      "decorIcon": "🍽️"
    },
    {
      "id": "node-5660440072",
      "lat": 22.7686848,
      "lon": 121.1437484,
      "name": "早安美芝城",
      "decorType": "burger",
      "decorName": "漢堡店",
      "decorIcon": "🍔"
    },
    {
      "id": "node-5660440075",
      "lat": 22.7689327,
      "lon": 121.1439578,
      "name": "西門切仔麵",
      "decorType": "restaurant",
      "decorName": "餐廳",
      "decorIcon": "🍽️"
    },
    {
      "id": "node-5660440077",
      "lat": 22.7690426,
      "lon": 121.1439597,
      "name": "幸福早餐吧",
      "decorType": "restaurant",
      "decorName": "餐廳",
      "decorIcon": "🍽️"
    },
    {
      "id": "node-5660503159",
      "lat": 22.7678903,
      "lon": 121.1435275,
      "name": "巨森早餐",
      "decorType": "restaurant",
      "decorName": "餐廳",
      "decorIcon": "🍽️"
    },
    {
      "id": "node-5660503169",
      "lat": 22.7678991,
      "lon": 121.1423345,
      "name": "雞房重地",
      "decorType": "restaurant",
      "decorName": "餐廳",
      "decorIcon": "🍽️"
    },
    {
      "id": "node-5660503176",
      "lat": 22.7676869,
      "lon": 121.1422441,
      "name": "康僑臭豆腐",
      "decorType": "restaurant",
      "decorName": "餐廳",
      "decorIcon": "🍽️"
    },
    {
      "id": "node-5660503177",
      "lat": 22.7680875,
      "lon": 121.1423836,
      "name": "後山傳奇",
      "decorType": "restaurant",
      "decorName": "餐廳",
      "decorIcon": "🍽️"
    },
    {
      "id": "node-5660503178",
      "lat": 22.7680949,
      "lon": 121.1419464,
      "name": "東霸王",
      "decorType": "restaurant",
      "decorName": "餐廳",
      "decorIcon": "🍽️"
    },
    {
      "id": "node-5660503186",
      "lat": 22.7679129,
      "lon": 121.1396339,
      "name": "壹里香餐坊",
      "decorType": "restaurant",
      "decorName": "餐廳",
      "decorIcon": "🍽️"
    },
    {
      "id": "node-5660503187",
      "lat": 22.768086,
      "lon": 121.1400818,
      "name": "人文主義",
      "decorType": "restaurant",
      "decorName": "餐廳",
      "decorIcon": "🍽️"
    },
    {
      "id": "node-5660503188",
      "lat": 22.7678361,
      "lon": 121.1362861,
      "name": "85度C",
      "decorType": "cafe",
      "decorName": "咖啡廳",
      "decorIcon": "☕"
    },
    {
      "id": "node-5660503206",
      "lat": 22.7660862,
      "lon": 121.1490202,
      "name": "尚旺美食",
      "decorType": "restaurant",
      "decorName": "餐廳",
      "decorIcon": "🍽️"
    },
    {
      "id": "node-5660577921",
      "lat": 22.7671714,
      "lon": 121.1489966,
      "name": "越南村美食",
      "decorType": "restaurant",
      "decorName": "餐廳",
      "decorIcon": "🍽️"
    },
    {
      "id": "node-5660577930",
      "lat": 22.7636822,
      "lon": 121.1477586,
      "name": "真好味拿手菜",
      "decorType": "restaurant",
      "decorName": "餐廳",
      "decorIcon": "🍽️"
    },
    {
      "id": "node-5660577932",
      "lat": 22.7647862,
      "lon": 121.1480127,
      "name": "千歲鍋",
      "decorType": "restaurant",
      "decorName": "餐廳",
      "decorIcon": "🍽️"
    },
    {
      "id": "node-5660577943",
      "lat": 22.7624038,
      "lon": 121.1437915,
      "name": "萱軒美食手工麵包",
      "decorType": "restaurant",
      "decorName": "餐廳",
      "decorIcon": "🍽️"
    },
    {
      "id": "node-5660577944",
      "lat": 22.7625078,
      "lon": 121.144017,
      "name": "美而美",
      "decorType": "restaurant",
      "decorName": "餐廳",
      "decorIcon": "🍽️"
    },
    {
      "id": "node-5660577945",
      "lat": 22.7632212,
      "lon": 121.1440306,
      "name": "曙拉麵",
      "decorType": "restaurant",
      "decorName": "餐廳",
      "decorIcon": "🍽️"
    },
    {
      "id": "node-5660577946",
      "lat": 22.7631609,
      "lon": 121.1440261,
      "name": "聯豪理髮廳",
      "decorType": "hair-salon",
      "decorName": "美髮院",
      "decorIcon": "✂️"
    },
    {
      "id": "node-5660624235",
      "lat": 22.7626687,
      "lon": 121.1440076,
      "name": "平梅園",
      "decorType": "restaurant",
      "decorName": "餐廳",
      "decorIcon": "🍽️"
    },
    {
      "id": "node-5660624236",
      "lat": 22.76217,
      "lon": 121.143743,
      "name": "八方雲集",
      "decorType": "burger",
      "decorName": "漢堡店",
      "decorIcon": "🍔"
    },
    {
      "id": "node-5660624239",
      "lat": 22.7618826,
      "lon": 121.1440076,
      "name": "河南砂鍋手工扯麵",
      "decorType": "restaurant",
      "decorName": "餐廳",
      "decorIcon": "🍽️"
    },
    {
      "id": "node-5660624241",
      "lat": 22.761789,
      "lon": 121.1440008,
      "name": "緣龍無骨鹹酥雞",
      "decorType": "restaurant",
      "decorName": "餐廳",
      "decorIcon": "🍽️"
    },
    {
      "id": "node-5660624248",
      "lat": 22.7615922,
      "lon": 121.1442221,
      "name": "臺東馬蘭郵局",
      "decorType": "post-office",
      "decorName": "郵局",
      "decorIcon": "📮"
    },
    {
      "id": "node-5660624249",
      "lat": 22.7611463,
      "lon": 121.1443955,
      "name": "小阿一麵食館",
      "decorType": "restaurant",
      "decorName": "餐廳",
      "decorIcon": "🍽️"
    },
    {
      "id": "node-5660624250",
      "lat": 22.7610902,
      "lon": 121.1444722,
      "name": "許瑞昇中醫診所",
      "decorType": "hospital",
      "decorName": "醫院",
      "decorIcon": "🏥"
    },
    {
      "id": "node-5660624251",
      "lat": 22.7608447,
      "lon": 121.1444677,
      "name": "豫香手工麵",
      "decorType": "restaurant",
      "decorName": "餐廳",
      "decorIcon": "🍽️"
    },
    {
      "id": "node-5660624252",
      "lat": 22.7588845,
      "lon": 121.1437523,
      "name": "卑南豬血湯",
      "decorType": "restaurant",
      "decorName": "餐廳",
      "decorIcon": "🍽️"
    },
    {
      "id": "node-5660624253",
      "lat": 22.7579925,
      "lon": 121.1437674,
      "name": "陳紅心豬肉麵",
      "decorType": "restaurant",
      "decorName": "餐廳",
      "decorIcon": "🍽️"
    },
    {
      "id": "node-5660624254",
      "lat": 22.7551871,
      "lon": 121.1456801,
      "name": "小路咖啡",
      "decorType": "cafe",
      "decorName": "咖啡廳",
      "decorIcon": "☕"
    },
    {
      "id": "node-5668585621",
      "lat": 22.860868,
      "lon": 121.2019331,
      "name": "星浪.新蘭海景咖啡",
      "decorType": "cafe",
      "decorName": "咖啡廳",
      "decorIcon": "☕"
    },
    {
      "id": "node-5695400434",
      "lat": 22.7934597,
      "lon": 121.1224316,
      "name": "臺東",
      "decorType": "station",
      "decorName": "車站",
      "decorIcon": "🚉"
    },
    {
      "id": "node-5845843894",
      "lat": 22.758474,
      "lon": 121.1571239,
      "name": "大園日本料理",
      "decorType": "restaurant",
      "decorName": "餐廳",
      "decorIcon": "🍽️"
    },
    {
      "id": "node-5845843989",
      "lat": 22.7541223,
      "lon": 121.152026,
      "name": "陳記麻糬",
      "decorType": "sweetshop",
      "decorName": "甜點店",
      "decorIcon": "🍩"
    },
    {
      "id": "node-5856863285",
      "lat": 22.75392,
      "lon": 121.15009,
      "name": "早點大王",
      "decorType": "restaurant",
      "decorName": "餐廳",
      "decorIcon": "🍽️"
    },
    {
      "id": "node-5856863286",
      "lat": 22.75227,
      "lon": 121.15022,
      "name": "鄉親牛肉麵",
      "decorType": "restaurant",
      "decorName": "餐廳",
      "decorIcon": "🍽️"
    },
    {
      "id": "node-5856936085",
      "lat": 22.74732,
      "lon": 121.14385,
      "name": "阿嬤ㄟ古早味",
      "decorType": "restaurant",
      "decorName": "餐廳",
      "decorIcon": "🍽️"
    },
    {
      "id": "node-5857553585",
      "lat": 22.75476,
      "lon": 121.14949,
      "name": "無名蘿蔔糕",
      "decorType": "restaurant",
      "decorName": "餐廳",
      "decorIcon": "🍽️"
    },
    {
      "id": "node-5857553586",
      "lat": 22.75382,
      "lon": 121.15032,
      "name": "黃記傳統美食",
      "decorType": "restaurant",
      "decorName": "餐廳",
      "decorIcon": "🍽️"
    },
    {
      "id": "node-5857553685",
      "lat": 22.75809,
      "lon": 121.15622,
      "name": "阿榮蘿蔔糕",
      "decorType": "restaurant",
      "decorName": "餐廳",
      "decorIcon": "🍽️"
    },
    {
      "id": "node-5857653885",
      "lat": 22.75542,
      "lon": 121.15187,
      "name": "文化街紅麴飯",
      "decorType": "restaurant",
      "decorName": "餐廳",
      "decorIcon": "🍽️"
    },
    {
      "id": "node-5857653985",
      "lat": 22.75527,
      "lon": 121.15556,
      "name": "天天好飯店",
      "decorType": "restaurant",
      "decorName": "餐廳",
      "decorIcon": "🍽️"
    },
    {
      "id": "node-5931262786",
      "lat": 22.7529055,
      "lon": 121.1470051,
      "name": "WoW's Pang Chan",
      "decorType": "cafe",
      "decorName": "咖啡廳",
      "decorIcon": "☕"
    },
    {
      "id": "node-5963564289",
      "lat": 22.8751446,
      "lon": 121.2259483,
      "name": "大骨麵",
      "decorType": "restaurant",
      "decorName": "餐廳",
      "decorIcon": "🍽️"
    },
    {
      "id": "node-5963565086",
      "lat": 22.7533136,
      "lon": 121.1546995,
      "name": "杨桃汁 路边",
      "decorType": "restaurant",
      "decorName": "餐廳",
      "decorIcon": "🍽️"
    },
    {
      "id": "node-6102793687",
      "lat": 22.7547549,
      "lon": 121.1563317,
      "name": "寶桑小吃蚵嗲",
      "decorType": "restaurant",
      "decorName": "餐廳",
      "decorIcon": "🍽️"
    },
    {
      "id": "node-6121399786",
      "lat": 22.7554734,
      "lon": 121.1534811,
      "name": "Tea Plus",
      "decorType": "cafe",
      "decorName": "咖啡廳",
      "decorIcon": "☕"
    },
    {
      "id": "node-6196968586",
      "lat": 22.7790442,
      "lon": 121.1270219,
      "name": "ETaiwan",
      "decorType": "restaurant",
      "decorName": "餐廳",
      "decorIcon": "🍽️"
    },
    {
      "id": "node-6312269369",
      "lat": 22.7571945,
      "lon": 121.145195,
      "name": "Ming Long Vegetarian Restaurant",
      "decorType": "restaurant",
      "decorName": "餐廳",
      "decorIcon": "🍽️"
    },
    {
      "id": "node-6339290785",
      "lat": 22.7930905,
      "lon": 121.1229342,
      "name": "OK Mart",
      "decorType": "convenience-store",
      "decorName": "便利商店",
      "decorIcon": "🏪"
    },
    {
      "id": "node-6342398886",
      "lat": 22.7799924,
      "lon": 121.1234947,
      "name": "good dumplings and noodles",
      "decorType": "burger",
      "decorName": "漢堡店",
      "decorIcon": "🍔"
    },
    {
      "id": "node-6346546087",
      "lat": 22.9037428,
      "lon": 121.1265087,
      "name": "wasiba",
      "decorType": "cafe",
      "decorName": "咖啡廳",
      "decorIcon": "☕"
    },
    {
      "id": "node-6371993885",
      "lat": 22.7546091,
      "lon": 121.1535462,
      "name": "未命名麵包店",
      "decorType": "bakery",
      "decorName": "麵包店",
      "decorIcon": "🥐"
    },
    {
      "id": "node-6372019285",
      "lat": 22.7540455,
      "lon": 121.1530587,
      "name": "未命名麵包店",
      "decorType": "bakery",
      "decorName": "麵包店",
      "decorIcon": "🥐"
    },
    {
      "id": "node-6380328386",
      "lat": 22.874414,
      "lon": 121.2283044,
      "name": "恩娜",
      "decorType": "restaurant",
      "decorName": "餐廳",
      "decorIcon": "🍽️"
    },
    {
      "id": "node-6383196785",
      "lat": 22.8947212,
      "lon": 121.2473719,
      "name": "興文小吃",
      "decorType": "restaurant",
      "decorName": "餐廳",
      "decorIcon": "🍽️"
    },
    {
      "id": "node-6385478385",
      "lat": 22.8725095,
      "lon": 121.2270344,
      "name": "都蘭小吃部",
      "decorType": "restaurant",
      "decorName": "餐廳",
      "decorIcon": "🍽️"
    },
    {
      "id": "node-6602769285",
      "lat": 22.7537906,
      "lon": 121.1505904,
      "name": "吉祥食品行",
      "decorType": "bakery",
      "decorName": "麵包店",
      "decorIcon": "🥐"
    },
    {
      "id": "node-6738102585",
      "lat": 22.7566223,
      "lon": 121.1399938,
      "name": "九",
      "decorType": "restaurant",
      "decorName": "餐廳",
      "decorIcon": "🍽️"
    },
    {
      "id": "node-6797071995",
      "lat": 22.8068848,
      "lon": 121.1535117,
      "name": "九伯羊肉爐",
      "decorType": "restaurant",
      "decorName": "餐廳",
      "decorIcon": "🍽️"
    },
    {
      "id": "node-6797710670",
      "lat": 22.75167,
      "lon": 121.1506377,
      "name": "主幼商場",
      "decorType": "clothing-store",
      "decorName": "服飾店",
      "decorIcon": "👕"
    },
    {
      "id": "node-6797710676",
      "lat": 22.7529575,
      "lon": 121.1467391,
      "name": "烤大爺烤肉串專賣",
      "decorType": "restaurant",
      "decorName": "餐廳",
      "decorIcon": "🍽️"
    },
    {
      "id": "node-6806877188",
      "lat": 22.7387366,
      "lon": 121.1271098,
      "name": "7-Eleven",
      "decorType": "convenience-store",
      "decorName": "便利商店",
      "decorIcon": "🏪"
    },
    {
      "id": "node-6821658058",
      "lat": 22.7909039,
      "lon": 121.1921578,
      "name": "富崗碼頭",
      "decorType": "station",
      "decorName": "車站",
      "decorIcon": "🚉"
    },
    {
      "id": "node-6884444585",
      "lat": 22.7694306,
      "lon": 121.1347601,
      "name": "高工肉燥飯",
      "decorType": "restaurant",
      "decorName": "餐廳",
      "decorIcon": "🍽️"
    },
    {
      "id": "node-6884445085",
      "lat": 22.7550427,
      "lon": 121.1491064,
      "name": "ABC Deli",
      "decorType": "restaurant",
      "decorName": "餐廳",
      "decorIcon": "🍽️"
    },
    {
      "id": "node-6897350386",
      "lat": 22.872173,
      "lon": 121.2266076,
      "name": "元美",
      "decorType": "restaurant",
      "decorName": "餐廳",
      "decorIcon": "🍽️"
    },
    {
      "id": "node-6903439618",
      "lat": 22.7579637,
      "lon": 121.1421311,
      "name": "鬆餅先生",
      "decorType": "cafe",
      "decorName": "咖啡廳",
      "decorIcon": "☕"
    },
    {
      "id": "node-6903439619",
      "lat": 22.7549066,
      "lon": 121.1523798,
      "name": "春日部",
      "decorType": "restaurant",
      "decorName": "餐廳",
      "decorIcon": "🍽️"
    },
    {
      "id": "node-6903439620",
      "lat": 22.7548522,
      "lon": 121.1524683,
      "name": "小漫咖啡",
      "decorType": "cafe",
      "decorName": "咖啡廳",
      "decorIcon": "☕"
    },
    {
      "id": "node-6904587685",
      "lat": 22.8737205,
      "lon": 121.2280475,
      "name": "思麥爾",
      "decorType": "restaurant",
      "decorName": "餐廳",
      "decorIcon": "🍽️"
    },
    {
      "id": "node-7005278486",
      "lat": 22.7518514,
      "lon": 121.1410675,
      "name": "天天新",
      "decorType": "restaurant",
      "decorName": "餐廳",
      "decorIcon": "🍽️"
    },
    {
      "id": "node-7013550585",
      "lat": 22.752126,
      "lon": 121.151994,
      "name": "阿鋐炸雞",
      "decorType": "restaurant",
      "decorName": "餐廳",
      "decorIcon": "🍽️"
    },
    {
      "id": "node-7013551085",
      "lat": 22.7564192,
      "lon": 121.1467999,
      "name": "七里香 水煎包 滷味",
      "decorType": "restaurant",
      "decorName": "餐廳",
      "decorIcon": "🍽️"
    },
    {
      "id": "node-7025801332",
      "lat": 22.9115443,
      "lon": 121.1362184,
      "name": "阿丁早點",
      "decorType": "restaurant",
      "decorName": "餐廳",
      "decorIcon": "🍽️"
    },
    {
      "id": "node-7089383147",
      "lat": 22.8958647,
      "lon": 121.1233529,
      "name": "春萱園",
      "decorType": "restaurant",
      "decorName": "餐廳",
      "decorIcon": "🍽️"
    },
    {
      "id": "node-7089383150",
      "lat": 22.8372645,
      "lon": 121.1867181,
      "name": "逐浪海景咖啡",
      "decorType": "cafe",
      "decorName": "咖啡廳",
      "decorIcon": "☕"
    },
    {
      "id": "node-7090706685",
      "lat": 22.7688376,
      "lon": 121.1236157,
      "name": "東方雞排",
      "decorType": "restaurant",
      "decorName": "餐廳",
      "decorIcon": "🍽️"
    },
    {
      "id": "node-7094895085",
      "lat": 22.7688864,
      "lon": 121.1244294,
      "name": "LaMorning",
      "decorType": "restaurant",
      "decorName": "餐廳",
      "decorIcon": "🍽️"
    },
    {
      "id": "node-7127819485",
      "lat": 22.7548005,
      "lon": 121.1535662,
      "name": "路易莎咖啡",
      "decorType": "cafe",
      "decorName": "咖啡廳",
      "decorIcon": "☕"
    },
    {
      "id": "node-7127834586",
      "lat": 22.7540554,
      "lon": 121.153003,
      "name": "Obama Cake",
      "decorType": "sweetshop",
      "decorName": "甜點店",
      "decorIcon": "🍩"
    },
    {
      "id": "node-7238931986",
      "lat": 22.8725682,
      "lon": 121.227064,
      "name": "鄭記食為天",
      "decorType": "restaurant",
      "decorName": "餐廳",
      "decorIcon": "🍽️"
    },
    {
      "id": "node-7362267904",
      "lat": 22.7422236,
      "lon": 121.1380228,
      "name": "全聯福利中心",
      "decorType": "supermarket",
      "decorName": "超市",
      "decorIcon": "🛒"
    },
    {
      "id": "node-7384141787",
      "lat": 22.8741352,
      "lon": 121.2281129,
      "name": "上海湯包",
      "decorType": "restaurant",
      "decorName": "餐廳",
      "decorIcon": "🍽️"
    },
    {
      "id": "node-7614521785",
      "lat": 22.7557132,
      "lon": 121.1544477,
      "name": "中華早點",
      "decorType": "restaurant",
      "decorName": "餐廳",
      "decorIcon": "🍽️"
    },
    {
      "id": "node-7615583185",
      "lat": 22.7499346,
      "lon": 121.1501401,
      "name": "太麻里文創咖啡館",
      "decorType": "cafe",
      "decorName": "咖啡廳",
      "decorIcon": "☕"
    },
    {
      "id": "node-7656307885",
      "lat": 22.7544313,
      "lon": 121.1569016,
      "name": "傻師傅湯包",
      "decorType": "restaurant",
      "decorName": "餐廳",
      "decorIcon": "🍽️"
    },
    {
      "id": "node-7786127341",
      "lat": 22.756439,
      "lon": 121.1519273,
      "name": "王崑伊小兒科診所",
      "decorType": "hospital",
      "decorName": "醫院",
      "decorIcon": "🏥"
    },
    {
      "id": "node-7786127345",
      "lat": 22.757189,
      "lon": 121.1518298,
      "name": "李惠雄內科診所",
      "decorType": "hospital",
      "decorName": "醫院",
      "decorIcon": "🏥"
    },
    {
      "id": "node-7786127360",
      "lat": 22.7568269,
      "lon": 121.1518607,
      "name": "方眼科診所",
      "decorType": "hospital",
      "decorName": "醫院",
      "decorIcon": "🏥"
    },
    {
      "id": "node-7786127364",
      "lat": 22.7564894,
      "lon": 121.1515695,
      "name": "育生小兒科",
      "decorType": "hospital",
      "decorName": "醫院",
      "decorIcon": "🏥"
    },
    {
      "id": "node-7786127369",
      "lat": 22.7569925,
      "lon": 121.1520845,
      "name": "關強內科診所",
      "decorType": "hospital",
      "decorName": "醫院",
      "decorIcon": "🏥"
    },
    {
      "id": "node-7786127376",
      "lat": 22.7564032,
      "lon": 121.1518935,
      "name": "大慶家醫科診所",
      "decorType": "hospital",
      "decorName": "醫院",
      "decorIcon": "🏥"
    },
    {
      "id": "node-7786127381",
      "lat": 22.7571906,
      "lon": 121.1514325,
      "name": "鮮茶道",
      "decorType": "cafe",
      "decorName": "咖啡廳",
      "decorIcon": "☕"
    },
    {
      "id": "node-7786140695",
      "lat": 22.7573082,
      "lon": 121.1516851,
      "name": "精甚藥局",
      "decorType": "pharmacy",
      "decorName": "藥局",
      "decorIcon": "💊"
    },
    {
      "id": "node-7786140712",
      "lat": 22.7563602,
      "lon": 121.1518448,
      "name": "永盛藥局",
      "decorType": "pharmacy",
      "decorName": "藥局",
      "decorIcon": "💊"
    },
    {
      "id": "node-7786140717",
      "lat": 22.7571501,
      "lon": 121.1518741,
      "name": "晶采藥局",
      "decorType": "pharmacy",
      "decorName": "藥局",
      "decorIcon": "💊"
    },
    {
      "id": "node-7786140721",
      "lat": 22.7571435,
      "lon": 121.1522256,
      "name": "吳外婦產科診所",
      "decorType": "hospital",
      "decorName": "醫院",
      "decorIcon": "🏥"
    },
    {
      "id": "node-7786140728",
      "lat": 22.7572243,
      "lon": 121.1517909,
      "name": "陳東佑皮膚專科",
      "decorType": "hospital",
      "decorName": "醫院",
      "decorIcon": "🏥"
    },
    {
      "id": "node-7786140736",
      "lat": 22.7565476,
      "lon": 121.1522265,
      "name": "李文正內科診所",
      "decorType": "hospital",
      "decorName": "醫院",
      "decorIcon": "🏥"
    },
    {
      "id": "node-7786140744",
      "lat": 22.7565915,
      "lon": 121.1516697,
      "name": "大東藥局",
      "decorType": "pharmacy",
      "decorName": "藥局",
      "decorIcon": "💊"
    },
    {
      "id": "node-7786140748",
      "lat": 22.7570256,
      "lon": 121.1520315,
      "name": "東台藥局",
      "decorType": "pharmacy",
      "decorName": "藥局",
      "decorIcon": "💊"
    },
    {
      "id": "node-7786570879",
      "lat": 22.8370919,
      "lon": 121.1866028,
      "name": "可可娜咖啡",
      "decorType": "cafe",
      "decorName": "咖啡廳",
      "decorIcon": "☕"
    },
    {
      "id": "node-7786620408",
      "lat": 22.7563461,
      "lon": 121.152493,
      "name": "屋賀爺日式燒肉",
      "decorType": "restaurant",
      "decorName": "餐廳",
      "decorIcon": "🍽️"
    },
    {
      "id": "node-7786620433",
      "lat": 22.7560254,
      "lon": 121.152905,
      "name": "陳靜婉中醫診所",
      "decorType": "hospital",
      "decorName": "醫院",
      "decorIcon": "🏥"
    },
    {
      "id": "node-7786620460",
      "lat": 22.8378893,
      "lon": 121.1869114,
      "name": "小魚兒的家",
      "decorType": "restaurant",
      "decorName": "餐廳",
      "decorIcon": "🍽️"
    },
    {
      "id": "node-7787529928",
      "lat": 22.7543755,
      "lon": 121.1456664,
      "name": "6 Plate Brunch",
      "decorType": "restaurant",
      "decorName": "餐廳",
      "decorIcon": "🍽️"
    },
    {
      "id": "node-7836985471",
      "lat": 22.765479,
      "lon": 121.1450473,
      "name": "晨間廚房",
      "decorType": "restaurant",
      "decorName": "餐廳",
      "decorIcon": "🍽️"
    },
    {
      "id": "node-7836985472",
      "lat": 22.7665144,
      "lon": 121.1451649,
      "name": "藏私咖啡",
      "decorType": "cafe",
      "decorName": "咖啡廳",
      "decorIcon": "☕"
    },
    {
      "id": "node-7836985473",
      "lat": 22.7660515,
      "lon": 121.1454718,
      "name": "暖廚Warm Kitchen",
      "decorType": "bakery",
      "decorName": "麵包店",
      "decorIcon": "🥐"
    },
    {
      "id": "node-7836985474",
      "lat": 22.7668807,
      "lon": 121.1431735,
      "name": "台東玟妏壽司坊",
      "decorType": "restaurant",
      "decorName": "餐廳",
      "decorIcon": "🍽️"
    },
    {
      "id": "node-7836985475",
      "lat": 22.766837,
      "lon": 121.1437406,
      "name": "小舅廚房",
      "decorType": "restaurant",
      "decorName": "餐廳",
      "decorIcon": "🍽️"
    },
    {
      "id": "node-7836985476",
      "lat": 22.7674281,
      "lon": 121.1435481,
      "name": "未命名餐廳",
      "decorType": "restaurant",
      "decorName": "餐廳",
      "decorIcon": "🍽️"
    },
    {
      "id": "node-7836985477",
      "lat": 22.7674727,
      "lon": 121.1436106,
      "name": "未命名餐廳",
      "decorType": "restaurant",
      "decorName": "餐廳",
      "decorIcon": "🍽️"
    },
    {
      "id": "node-7836985478",
      "lat": 22.7681093,
      "lon": 121.1434105,
      "name": "葉媽媽早安廚房",
      "decorType": "restaurant",
      "decorName": "餐廳",
      "decorIcon": "🍽️"
    },
    {
      "id": "node-7836985479",
      "lat": 22.7678784,
      "lon": 121.1436552,
      "name": "佳廚食坊",
      "decorType": "restaurant",
      "decorName": "餐廳",
      "decorIcon": "🍽️"
    },
    {
      "id": "node-7836985480",
      "lat": 22.7678767,
      "lon": 121.1440914,
      "name": "夏安居草食堂",
      "decorType": "restaurant",
      "decorName": "餐廳",
      "decorIcon": "🍽️"
    },
    {
      "id": "node-7836985481",
      "lat": 22.7690676,
      "lon": 121.1437159,
      "name": "西門水餃皇",
      "decorType": "restaurant",
      "decorName": "餐廳",
      "decorIcon": "🍽️"
    },
    {
      "id": "node-7949521537",
      "lat": 22.767085,
      "lon": 121.1301084,
      "name": "樂活早午餐",
      "decorType": "burger",
      "decorName": "漢堡店",
      "decorIcon": "🍔"
    },
    {
      "id": "node-7995217885",
      "lat": 22.7936641,
      "lon": 121.1230561,
      "name": "全家便利商店",
      "decorType": "convenience-store",
      "decorName": "便利商店",
      "decorIcon": "🏪"
    },
    {
      "id": "node-8118011086",
      "lat": 22.7519387,
      "lon": 121.1522089,
      "name": "7-Eleven",
      "decorType": "convenience-store",
      "decorName": "便利商店",
      "decorIcon": "🏪"
    },
    {
      "id": "node-8385313269",
      "lat": 22.779914,
      "lon": 121.12347,
      "name": "八方雲集",
      "decorType": "burger",
      "decorName": "漢堡店",
      "decorIcon": "🍔"
    },
    {
      "id": "node-8385313333",
      "lat": 22.752001,
      "lon": 121.15079,
      "name": "八方雲集",
      "decorType": "burger",
      "decorName": "漢堡店",
      "decorIcon": "🍔"
    },
    {
      "id": "node-8408740117",
      "lat": 22.7592891,
      "lon": 121.1579991,
      "name": "阿牛冠軍牛肉麵",
      "decorType": "restaurant",
      "decorName": "餐廳",
      "decorIcon": "🍽️"
    },
    {
      "id": "node-8562665492",
      "lat": 22.9279089,
      "lon": 121.1256591,
      "name": "愛嬌姨茶餐廳",
      "decorType": "restaurant",
      "decorName": "餐廳",
      "decorIcon": "🍽️"
    },
    {
      "id": "node-9287653717",
      "lat": 22.9249473,
      "lon": 121.144002,
      "name": "鹿野大骨麵",
      "decorType": "restaurant",
      "decorName": "餐廳",
      "decorIcon": "🍽️"
    },
    {
      "id": "node-9412672304",
      "lat": 22.7819643,
      "lon": 121.1209117,
      "name": "東池池上飯包",
      "decorType": "restaurant",
      "decorName": "餐廳",
      "decorIcon": "🍽️"
    },
    {
      "id": "node-9491253466",
      "lat": 22.8415602,
      "lon": 121.1882818,
      "name": "杉原麵店",
      "decorType": "restaurant",
      "decorName": "餐廳",
      "decorIcon": "🍽️"
    },
    {
      "id": "node-9491253467",
      "lat": 22.7540208,
      "lon": 121.1452489,
      "name": "溫度釀製所",
      "decorType": "restaurant",
      "decorName": "餐廳",
      "decorIcon": "🍽️"
    },
    {
      "id": "node-9656191078",
      "lat": 22.7542165,
      "lon": 121.1491504,
      "name": "全聯福利中心",
      "decorType": "supermarket",
      "decorName": "超市",
      "decorIcon": "🛒"
    },
    {
      "id": "node-9656309016",
      "lat": 22.7474254,
      "lon": 121.1442098,
      "name": "找餐店",
      "decorType": "restaurant",
      "decorName": "餐廳",
      "decorIcon": "🍽️"
    },
    {
      "id": "node-9656314021",
      "lat": 22.7470037,
      "lon": 121.143904,
      "name": "晨間廚房",
      "decorType": "restaurant",
      "decorName": "餐廳",
      "decorIcon": "🍽️"
    },
    {
      "id": "node-9679504173",
      "lat": 22.7703726,
      "lon": 121.1228405,
      "name": "7-Eleven",
      "decorType": "convenience-store",
      "decorName": "便利商店",
      "decorIcon": "🏪"
    },
    {
      "id": "node-9837586730",
      "lat": 22.7636187,
      "lon": 121.1463872,
      "name": "7-Eleven",
      "decorType": "convenience-store",
      "decorName": "便利商店",
      "decorIcon": "🏪"
    },
    {
      "id": "node-9854733148",
      "lat": 22.7587317,
      "lon": 121.1369382,
      "name": "7-Eleven",
      "decorType": "convenience-store",
      "decorName": "便利商店",
      "decorIcon": "🏪"
    },
    {
      "id": "node-9859402366",
      "lat": 22.751257,
      "lon": 121.1407279,
      "name": "7-Eleven",
      "decorType": "convenience-store",
      "decorName": "便利商店",
      "decorIcon": "🏪"
    },
    {
      "id": "node-9966891109",
      "lat": 22.7564881,
      "lon": 121.1481297,
      "name": "錢都",
      "decorType": "restaurant",
      "decorName": "餐廳",
      "decorIcon": "🍽️"
    },
    {
      "id": "node-9966891110",
      "lat": 22.7567836,
      "lon": 121.1480606,
      "name": "李晉峰婦產科",
      "decorType": "hospital",
      "decorName": "醫院",
      "decorIcon": "🏥"
    },
    {
      "id": "node-9966891112",
      "lat": 22.7564239,
      "lon": 121.1477706,
      "name": "茶自點",
      "decorType": "restaurant",
      "decorName": "餐廳",
      "decorIcon": "🍽️"
    },
    {
      "id": "node-10061037409",
      "lat": 22.7931154,
      "lon": 121.1871125,
      "name": "美而美早餐店",
      "decorType": "restaurant",
      "decorName": "餐廳",
      "decorIcon": "🍽️"
    },
    {
      "id": "node-10064128601",
      "lat": 22.7936833,
      "lon": 121.1891996,
      "name": "龍港海鮮餐廳",
      "decorType": "restaurant",
      "decorName": "餐廳",
      "decorIcon": "🍽️"
    },
    {
      "id": "node-10065638799",
      "lat": 22.7572012,
      "lon": 121.1446154,
      "name": "珍口味自助餐",
      "decorType": "restaurant",
      "decorName": "餐廳",
      "decorIcon": "🍽️"
    },
    {
      "id": "node-10076653187",
      "lat": 22.7531956,
      "lon": 121.1335669,
      "name": "布魯蛋餅坊",
      "decorType": "restaurant",
      "decorName": "餐廳",
      "decorIcon": "🍽️"
    },
    {
      "id": "node-10076653188",
      "lat": 22.7536819,
      "lon": 121.1337828,
      "name": "黃記蔥油餅_仁和店",
      "decorType": "restaurant",
      "decorName": "餐廳",
      "decorIcon": "🍽️"
    },
    {
      "id": "node-10076653189",
      "lat": 22.7456176,
      "lon": 121.1411825,
      "name": "阿亮香雞排",
      "decorType": "restaurant",
      "decorName": "餐廳",
      "decorIcon": "🍽️"
    },
    {
      "id": "node-10076653190",
      "lat": 22.7452865,
      "lon": 121.1412202,
      "name": "大伯豆花",
      "decorType": "restaurant",
      "decorName": "餐廳",
      "decorIcon": "🍽️"
    },
    {
      "id": "node-10076653191",
      "lat": 22.7448698,
      "lon": 121.1396032,
      "name": "四海豆漿大王",
      "decorType": "restaurant",
      "decorName": "餐廳",
      "decorIcon": "🍽️"
    },
    {
      "id": "node-10076653192",
      "lat": 22.7428424,
      "lon": 121.1368445,
      "name": "漿餅屋",
      "decorType": "restaurant",
      "decorName": "餐廳",
      "decorIcon": "🍽️"
    },
    {
      "id": "node-10076653193",
      "lat": 22.7453538,
      "lon": 121.1400298,
      "name": "楊家手工越南麵",
      "decorType": "restaurant",
      "decorName": "餐廳",
      "decorIcon": "🍽️"
    },
    {
      "id": "node-10076653194",
      "lat": 22.7453441,
      "lon": 121.1404151,
      "name": "李家園刀削麵",
      "decorType": "restaurant",
      "decorName": "餐廳",
      "decorIcon": "🍽️"
    },
    {
      "id": "node-10076653195",
      "lat": 22.7455002,
      "lon": 121.1403404,
      "name": "鵝肉廖海產店",
      "decorType": "restaurant",
      "decorName": "餐廳",
      "decorIcon": "🍽️"
    },
    {
      "id": "node-10076712846",
      "lat": 22.7447584,
      "lon": 121.13932,
      "name": "賞味家早餐店 豐榮店",
      "decorType": "restaurant",
      "decorName": "餐廳",
      "decorIcon": "🍽️"
    },
    {
      "id": "node-10076764633",
      "lat": 22.7576562,
      "lon": 121.1423362,
      "name": "歆味麵食館",
      "decorType": "restaurant",
      "decorName": "餐廳",
      "decorIcon": "🍽️"
    },
    {
      "id": "node-10076764635",
      "lat": 22.7575929,
      "lon": 121.1424274,
      "name": "香雅鹹素雞",
      "decorType": "restaurant",
      "decorName": "餐廳",
      "decorIcon": "🍽️"
    },
    {
      "id": "node-10095346358",
      "lat": 22.7525692,
      "lon": 121.1492917,
      "name": "韓食趣",
      "decorType": "restaurant",
      "decorName": "餐廳",
      "decorIcon": "🍽️"
    },
    {
      "id": "node-10167853990",
      "lat": 22.9149511,
      "lon": 121.1216237,
      "name": "老王咖啡",
      "decorType": "cafe",
      "decorName": "咖啡廳",
      "decorIcon": "☕"
    },
    {
      "id": "node-10211406917",
      "lat": 22.7531855,
      "lon": 121.1486111,
      "name": "Real Food Village",
      "decorType": "restaurant",
      "decorName": "餐廳",
      "decorIcon": "🍽️"
    },
    {
      "id": "node-10213525917",
      "lat": 22.754696,
      "lon": 121.1453234,
      "name": "Gaya Cafe",
      "decorType": "cafe",
      "decorName": "咖啡廳",
      "decorIcon": "☕"
    },
    {
      "id": "node-10213806817",
      "lat": 22.7527961,
      "lon": 121.1469737,
      "name": "Sabra Andre",
      "decorType": "clothing-store",
      "decorName": "服飾店",
      "decorIcon": "👕"
    },
    {
      "id": "node-10213806917",
      "lat": 22.7527143,
      "lon": 121.1469098,
      "name": "米達艾",
      "decorType": "restaurant",
      "decorName": "餐廳",
      "decorIcon": "🍽️"
    },
    {
      "id": "node-10217085051",
      "lat": 22.7526647,
      "lon": 121.1493714,
      "name": "Princeken",
      "decorType": "cafe",
      "decorName": "咖啡廳",
      "decorIcon": "☕"
    },
    {
      "id": "node-10242008286",
      "lat": 22.7550619,
      "lon": 121.1488415,
      "name": "家樂福",
      "decorType": "supermarket",
      "decorName": "超市",
      "decorIcon": "🛒"
    },
    {
      "id": "node-10277013809",
      "lat": 22.7784873,
      "lon": 121.1354992,
      "name": "普羅賽斯花藝咖啡廳",
      "decorType": "cafe",
      "decorName": "咖啡廳",
      "decorIcon": "☕"
    },
    {
      "id": "node-10570207109",
      "lat": 22.754004,
      "lon": 121.1553606,
      "name": "素食",
      "decorType": "restaurant",
      "decorName": "餐廳",
      "decorIcon": "🍽️"
    },
    {
      "id": "node-10605459305",
      "lat": 22.7513852,
      "lon": 121.1484157,
      "name": "Buffet restaurant",
      "decorType": "restaurant",
      "decorName": "餐廳",
      "decorIcon": "🍽️"
    },
    {
      "id": "node-10617735105",
      "lat": 22.7600121,
      "lon": 121.1493087,
      "name": "Coffeeloft-咖啡工寓（2/8、2/9店休）",
      "decorType": "cafe",
      "decorName": "咖啡廳",
      "decorIcon": "☕"
    },
    {
      "id": "node-10821378971",
      "lat": 22.7547025,
      "lon": 121.1534332,
      "name": "漢堡王",
      "decorType": "burger",
      "decorName": "漢堡店",
      "decorIcon": "🍔"
    },
    {
      "id": "node-11061133606",
      "lat": 22.9124249,
      "lon": 121.1362632,
      "name": "福臨廚房",
      "decorType": "restaurant",
      "decorName": "餐廳",
      "decorIcon": "🍽️"
    },
    {
      "id": "node-11261803831",
      "lat": 22.7507983,
      "lon": 121.149043,
      "name": "Cama",
      "decorType": "cafe",
      "decorName": "咖啡廳",
      "decorIcon": "☕"
    },
    {
      "id": "node-11274580569",
      "lat": 22.875048,
      "lon": 121.2260745,
      "name": "哇哇哇大骨麵",
      "decorType": "restaurant",
      "decorName": "餐廳",
      "decorIcon": "🍽️"
    },
    {
      "id": "node-11323301148",
      "lat": 22.7525173,
      "lon": 121.1470307,
      "name": "Bart bistro",
      "decorType": "restaurant",
      "decorName": "餐廳",
      "decorIcon": "🍽️"
    },
    {
      "id": "node-11341539781",
      "lat": 22.7524987,
      "lon": 121.1589633,
      "name": "Uncle Pete's Pizza",
      "decorType": "restaurant",
      "decorName": "餐廳",
      "decorIcon": "🍽️"
    },
    {
      "id": "node-11341539782",
      "lat": 22.7552281,
      "lon": 121.1489372,
      "name": "Vegine",
      "decorType": "restaurant",
      "decorName": "餐廳",
      "decorIcon": "🍽️"
    },
    {
      "id": "node-11342673430",
      "lat": 22.8811705,
      "lon": 121.2410814,
      "name": "Rafa café",
      "decorType": "cafe",
      "decorName": "咖啡廳",
      "decorIcon": "☕"
    },
    {
      "id": "node-11363218408",
      "lat": 22.8390971,
      "lon": 121.1875818,
      "name": "未命名漢堡店",
      "decorType": "burger",
      "decorName": "漢堡店",
      "decorIcon": "🍔"
    },
    {
      "id": "node-11455390769",
      "lat": 22.7907836,
      "lon": 121.1258775,
      "name": "九格浪",
      "decorType": "restaurant",
      "decorName": "餐廳",
      "decorIcon": "🍽️"
    },
    {
      "id": "node-11462376147",
      "lat": 22.7530583,
      "lon": 121.1489526,
      "name": "Sam's Burger",
      "decorType": "restaurant",
      "decorName": "餐廳",
      "decorIcon": "🍽️"
    },
    {
      "id": "node-11472408969",
      "lat": 22.8726096,
      "lon": 121.2270067,
      "name": "叮哥茶飲",
      "decorType": "cafe",
      "decorName": "咖啡廳",
      "decorIcon": "☕"
    },
    {
      "id": "node-11536668663",
      "lat": 22.7620807,
      "lon": 121.1374511,
      "name": "二姐の麵店",
      "decorType": "restaurant",
      "decorName": "餐廳",
      "decorIcon": "🍽️"
    },
    {
      "id": "node-11536738632",
      "lat": 22.7621248,
      "lon": 121.137211,
      "name": "泰城泰式料理",
      "decorType": "restaurant",
      "decorName": "餐廳",
      "decorIcon": "🍽️"
    },
    {
      "id": "node-11536738633",
      "lat": 22.7625098,
      "lon": 121.1371228,
      "name": "強強廚房",
      "decorType": "restaurant",
      "decorName": "餐廳",
      "decorIcon": "🍽️"
    },
    {
      "id": "node-11536738635",
      "lat": 22.7629308,
      "lon": 121.1364032,
      "name": "叮哥茶飲",
      "decorType": "cafe",
      "decorName": "咖啡廳",
      "decorIcon": "☕"
    },
    {
      "id": "node-11536738636",
      "lat": 22.7640088,
      "lon": 121.135652,
      "name": "大塊牛排餐館",
      "decorType": "restaurant",
      "decorName": "餐廳",
      "decorIcon": "🍽️"
    },
    {
      "id": "node-11536738637",
      "lat": 22.7642802,
      "lon": 121.1354071,
      "name": "河腩味",
      "decorType": "restaurant",
      "decorName": "餐廳",
      "decorIcon": "🍽️"
    },
    {
      "id": "node-11869210598",
      "lat": 22.7501932,
      "lon": 121.1495234,
      "name": "Jenny's Bar & Grill",
      "decorType": "restaurant",
      "decorName": "餐廳",
      "decorIcon": "🍽️"
    },
    {
      "id": "node-12210107804",
      "lat": 22.8088047,
      "lon": 121.1233824,
      "name": "友蛇咖啡 Snake Cafe",
      "decorType": "cafe",
      "decorName": "咖啡廳",
      "decorIcon": "☕"
    },
    {
      "id": "node-12258751573",
      "lat": 22.7920997,
      "lon": 121.1910747,
      "name": "港口海產",
      "decorType": "restaurant",
      "decorName": "餐廳",
      "decorIcon": "🍽️"
    },
    {
      "id": "node-12475356613",
      "lat": 22.7599103,
      "lon": 121.1364233,
      "name": "漢中包子",
      "decorType": "restaurant",
      "decorName": "餐廳",
      "decorIcon": "🍽️"
    },
    {
      "id": "node-13108615321",
      "lat": 22.9105201,
      "lon": 121.1359099,
      "name": "鹿野郵局",
      "decorType": "post-office",
      "decorName": "郵局",
      "decorIcon": "📮"
    },
    {
      "id": "node-13108615323",
      "lat": 22.7641449,
      "lon": 121.1355459,
      "name": "臺東新生郵局",
      "decorType": "post-office",
      "decorName": "郵局",
      "decorIcon": "📮"
    },
    {
      "id": "node-13108615324",
      "lat": 22.7597672,
      "lon": 121.1513209,
      "name": "臺東博愛路郵局",
      "decorType": "post-office",
      "decorName": "郵局",
      "decorIcon": "📮"
    },
    {
      "id": "node-13108615325",
      "lat": 22.7769234,
      "lon": 121.1272629,
      "name": "臺東卑南郵局",
      "decorType": "post-office",
      "decorName": "郵局",
      "decorIcon": "📮"
    },
    {
      "id": "node-13108615327",
      "lat": 22.7689209,
      "lon": 121.1238972,
      "name": "臺東東方大鎮郵局",
      "decorType": "post-office",
      "decorName": "郵局",
      "decorIcon": "📮"
    },
    {
      "id": "node-13134835401",
      "lat": 22.760335,
      "lon": 121.1566,
      "name": "葉氏海鮮",
      "decorType": "restaurant",
      "decorName": "餐廳",
      "decorIcon": "🍽️"
    },
    {
      "id": "node-13226977544",
      "lat": 22.7921441,
      "lon": 121.1909526,
      "name": "鳳珠小吃部",
      "decorType": "restaurant",
      "decorName": "餐廳",
      "decorIcon": "🍽️"
    },
    {
      "id": "node-13251256301",
      "lat": 22.744815,
      "lon": 121.13889,
      "name": "麻里早午餐",
      "decorType": "restaurant",
      "decorName": "餐廳",
      "decorIcon": "🍽️"
    },
    {
      "id": "node-13287424961",
      "lat": 22.7622667,
      "lon": 121.1434468,
      "name": "目目咖啡",
      "decorType": "cafe",
      "decorName": "咖啡廳",
      "decorIcon": "☕"
    },
    {
      "id": "node-13294163952",
      "lat": 22.7926795,
      "lon": 121.1897481,
      "name": "早點來見面",
      "decorType": "restaurant",
      "decorName": "餐廳",
      "decorIcon": "🍽️"
    },
    {
      "id": "node-13294304808",
      "lat": 22.7551931,
      "lon": 121.1490476,
      "name": "朝晚‧有個伴",
      "decorType": "restaurant",
      "decorName": "餐廳",
      "decorIcon": "🍽️"
    },
    {
      "id": "node-13318583102",
      "lat": 22.751784,
      "lon": 121.1526825,
      "name": "外省麵",
      "decorType": "restaurant",
      "decorName": "餐廳",
      "decorIcon": "🍽️"
    },
    {
      "id": "node-13342087526",
      "lat": 22.7494797,
      "lon": 121.1560075,
      "name": "阿里岸原住民風味餐廳",
      "decorType": "restaurant",
      "decorName": "餐廳",
      "decorIcon": "🍽️"
    },
    {
      "id": "node-13406951828",
      "lat": 22.7898605,
      "lon": 121.1847032,
      "name": "Daluan",
      "decorType": "restaurant",
      "decorName": "餐廳",
      "decorIcon": "🍽️"
    },
    {
      "id": "node-13409778357",
      "lat": 22.7901058,
      "lon": 121.185184,
      "name": "未命名餐廳",
      "decorType": "restaurant",
      "decorName": "餐廳",
      "decorIcon": "🍽️"
    },
    {
      "id": "node-13427857518",
      "lat": 22.7528575,
      "lon": 121.1586597,
      "name": "未命名麵包店",
      "decorType": "bakery",
      "decorName": "麵包店",
      "decorIcon": "🥐"
    },
    {
      "id": "node-13428401925",
      "lat": 22.7560382,
      "lon": 121.1546055,
      "name": "7-Eleven",
      "decorType": "convenience-store",
      "decorName": "便利商店",
      "decorIcon": "🏪"
    },
    {
      "id": "node-13436843001",
      "lat": 22.8730126,
      "lon": 121.2142575,
      "name": "Sondeall",
      "decorType": "cafe",
      "decorName": "咖啡廳",
      "decorIcon": "☕"
    },
    {
      "id": "node-13441858601",
      "lat": 22.7940569,
      "lon": 121.1232323,
      "name": "Linjia dumplings",
      "decorType": "burger",
      "decorName": "漢堡店",
      "decorIcon": "🍔"
    },
    {
      "id": "way-29197006-1/22031331303013323",
      "lat": 22.77665998115096,
      "lon": 121.11196381773169,
      "name": "太平溪",
      "decorType": "waterside",
      "decorName": "水邊",
      "decorIcon": "💧"
    },
    {
      "id": "way-29197006-1/22031331303013330",
      "lat": 22.77650568170091,
      "lon": 121.11268005419254,
      "name": "太平溪",
      "decorType": "waterside",
      "decorName": "水邊",
      "decorIcon": "💧"
    },
    {
      "id": "way-29197006-1/22031331303013333",
      "lat": 22.7763513796299,
      "lon": 121.11339628636478,
      "name": "太平溪",
      "decorType": "waterside",
      "decorName": "水邊",
      "decorIcon": "💧"
    },
    {
      "id": "way-29197006-1/22031331303013332",
      "lat": 22.777018253221332,
      "lon": 121.11339628636478,
      "name": "太平溪",
      "decorType": "waterside",
      "decorName": "水邊",
      "decorIcon": "💧"
    },
    {
      "id": "way-29197006-1/22031331303002223",
      "lat": 22.776863945006216,
      "lon": 121.11411251424818,
      "name": "太平溪",
      "decorType": "waterside",
      "decorName": "水邊",
      "decorIcon": "💧"
    },
    {
      "id": "way-29197006-1/22031331303002220",
      "lat": 22.77670963417031,
      "lon": 121.11482873784246,
      "name": "太平溪",
      "decorType": "waterside",
      "decorName": "水邊",
      "decorIcon": "💧"
    },
    {
      "id": "way-29197006-1/22031331303002213",
      "lat": 22.77655532071375,
      "lon": 121.11554495714739,
      "name": "太平溪",
      "decorType": "waterside",
      "decorName": "水邊",
      "decorIcon": "💧"
    },
    {
      "id": "way-29197006-1/22031331303002210",
      "lat": 22.77640100463665,
      "lon": 121.11626117216258,
      "name": "太平溪",
      "decorType": "waterside",
      "decorName": "水邊",
      "decorIcon": "💧"
    },
    {
      "id": "way-29197006-1/22031331303002123",
      "lat": 22.77624668593915,
      "lon": 121.11697738288791,
      "name": "太平溪",
      "decorType": "waterside",
      "decorName": "水邊",
      "decorIcon": "💧"
    },
    {
      "id": "way-29197006-1/22031331303002120",
      "lat": 22.776092364621363,
      "lon": 121.11769358932293,
      "name": "太平溪",
      "decorType": "waterside",
      "decorName": "水邊",
      "decorIcon": "💧"
    },
    {
      "id": "way-29197006-1/22031331303002113",
      "lat": 22.775938040683425,
      "lon": 121.11840979146757,
      "name": "太平溪",
      "decorType": "waterside",
      "decorName": "水邊",
      "decorIcon": "💧"
    },
    {
      "id": "way-29197006-1/22031331303002110",
      "lat": 22.775783714125456,
      "lon": 121.11912598932133,
      "name": "太平溪",
      "decorType": "waterside",
      "decorName": "水邊",
      "decorIcon": "💧"
    },
    {
      "id": "way-29197006-1/22031331303002111",
      "lat": 22.77511686872245,
      "lon": 121.11912598932133,
      "name": "太平溪",
      "decorType": "waterside",
      "decorName": "水邊",
      "decorIcon": "💧"
    },
    {
      "id": "way-29197006-1/22031331303001222",
      "lat": 22.774962543068494,
      "lon": 121.1198421828841,
      "name": "太平溪",
      "decorType": "waterside",
      "decorName": "水邊",
      "decorIcon": "💧"
    },
    {
      "id": "way-29197006-1/22031331303001221",
      "lat": 22.774808214794835,
      "lon": 121.12055837215553,
      "name": "太平溪",
      "decorType": "waterside",
      "decorName": "水邊",
      "decorIcon": "💧"
    },
    {
      "id": "way-29197006-1/22031331303001212",
      "lat": 22.774653883901614,
      "lon": 121.1212745571354,
      "name": "太平溪",
      "decorType": "waterside",
      "decorName": "水邊",
      "decorIcon": "💧"
    },
    {
      "id": "way-29197006-1/22031331303001211",
      "lat": 22.774499550388946,
      "lon": 121.12199073782335,
      "name": "太平溪",
      "decorType": "waterside",
      "decorName": "水邊",
      "decorIcon": "💧"
    },
    {
      "id": "way-29197006-1/22031331303032122",
      "lat": 22.77383271903801,
      "lon": 121.12199073782335,
      "name": "太平溪",
      "decorType": "waterside",
      "decorName": "水邊",
      "decorIcon": "💧"
    },
    {
      "id": "way-29197006-1/22031331303032211",
      "lat": 22.773678386430333,
      "lon": 121.12270691421918,
      "name": "太平溪",
      "decorType": "waterside",
      "decorName": "水邊",
      "decorIcon": "💧"
    },
    {
      "id": "way-29197006-1/22031331303032212",
      "lat": 22.773524051203545,
      "lon": 121.12342308632265,
      "name": "太平溪",
      "decorType": "waterside",
      "decorName": "水邊",
      "decorIcon": "💧"
    },
    {
      "id": "way-29197006-1/22031331303032221",
      "lat": 22.773369713357773,
      "lon": 121.12413925413341,
      "name": "太平溪",
      "decorType": "waterside",
      "decorName": "水邊",
      "decorIcon": "💧"
    },
    {
      "id": "way-29197006-1/22031331303032222",
      "lat": 22.77321537289314,
      "lon": 121.12485541765119,
      "name": "太平溪",
      "decorType": "waterside",
      "decorName": "水邊",
      "decorIcon": "💧"
    },
    {
      "id": "way-29197006-1/22031331303032223",
      "lat": 22.772548555596487,
      "lon": 121.12485541765119,
      "name": "太平溪",
      "decorType": "waterside",
      "decorName": "水邊",
      "decorIcon": "💧"
    },
    {
      "id": "way-29197006-1/22031331302323330",
      "lat": 22.772394216037828,
      "lon": 121.12557157687576,
      "name": "太平溪",
      "decorType": "waterside",
      "decorName": "水邊",
      "decorIcon": "💧"
    },
    {
      "id": "way-29197006-1/22031331302323331",
      "lat": 22.77223987386065,
      "lon": 121.12628773180677,
      "name": "太平溪",
      "decorType": "waterside",
      "decorName": "水邊",
      "decorIcon": "💧"
    },
    {
      "id": "way-29197006-1/22031331302323302",
      "lat": 22.772085529065063,
      "lon": 121.12700388244406,
      "name": "太平溪",
      "decorType": "waterside",
      "decorName": "水邊",
      "decorIcon": "💧"
    },
    {
      "id": "way-29197006-1/22031331302323313",
      "lat": 22.77141872229987,
      "lon": 121.12700388244406,
      "name": "太平溪",
      "decorType": "waterside",
      "decorName": "水邊",
      "decorIcon": "💧"
    },
    {
      "id": "way-29197006-1/22031331302323310",
      "lat": 22.771264378411043,
      "lon": 121.12772002878728,
      "name": "太平溪",
      "decorType": "waterside",
      "decorName": "水邊",
      "decorIcon": "💧"
    },
    {
      "id": "way-29197006-1/22031331302323201",
      "lat": 22.771110031904147,
      "lon": 121.1284361708361,
      "name": "太平溪",
      "decorType": "waterside",
      "decorName": "水邊",
      "decorIcon": "💧"
    },
    {
      "id": "way-29197006-1/22031331302323202",
      "lat": 22.770955682779302,
      "lon": 121.12915230859039,
      "name": "太平溪",
      "decorType": "waterside",
      "decorName": "水邊",
      "decorIcon": "💧"
    },
    {
      "id": "way-29197006-1/22031331302323203",
      "lat": 22.77028888654707,
      "lon": 121.12915230859039,
      "name": "太平溪",
      "decorType": "waterside",
      "decorName": "水邊",
      "decorIcon": "💧"
    },
    {
      "id": "way-29197006-1/22031331302323210",
      "lat": 22.770134538329764,
      "lon": 121.12986844204977,
      "name": "太平溪",
      "decorType": "waterside",
      "decorName": "水邊",
      "decorIcon": "💧"
    },
    {
      "id": "way-29197006-1/22031331302323122",
      "lat": 22.76931339827146,
      "lon": 121.130584571214,
      "name": "太平溪",
      "decorType": "waterside",
      "decorName": "水邊",
      "decorIcon": "💧"
    },
    {
      "id": "way-29197006-1/22031331302320211",
      "lat": 22.769159048344655,
      "lon": 121.1313006960828,
      "name": "太平溪",
      "decorType": "waterside",
      "decorName": "水邊",
      "decorIcon": "💧"
    },
    {
      "id": "way-29197006-1/22031331302320212",
      "lat": 22.768492262605278,
      "lon": 121.1313006960828,
      "name": "太平溪",
      "decorType": "waterside",
      "decorName": "水邊",
      "decorIcon": "💧"
    },
    {
      "id": "way-29197006-1/22031331302320221",
      "lat": 22.767825476824598,
      "lon": 121.1313006960828,
      "name": "太平溪",
      "decorType": "waterside",
      "decorName": "水邊",
      "decorIcon": "💧"
    },
    {
      "id": "way-29197006-1/22031331302320220",
      "lat": 22.767671131332115,
      "lon": 121.13201681665589,
      "name": "太平溪",
      "decorType": "waterside",
      "decorName": "水邊",
      "decorIcon": "💧"
    },
    {
      "id": "way-29197006-1/22031331302320223",
      "lat": 22.767004349036327,
      "lon": 121.13201681665589,
      "name": "太平溪",
      "decorType": "waterside",
      "decorName": "水邊",
      "decorIcon": "💧"
    },
    {
      "id": "way-29197006-1/22031331302320230",
      "lat": 22.76685000445285,
      "lon": 121.13273293293304,
      "name": "太平溪",
      "decorType": "waterside",
      "decorName": "水邊",
      "decorIcon": "💧"
    },
    {
      "id": "way-29197006-1/22031331302321323",
      "lat": 22.76618322564248,
      "lon": 121.13273293293304,
      "name": "太平溪",
      "decorType": "waterside",
      "decorName": "水邊",
      "decorIcon": "💧"
    },
    {
      "id": "way-29197006-1/22031331302321320",
      "lat": 22.765516446791796,
      "lon": 121.13273293293304,
      "name": "太平溪",
      "decorType": "waterside",
      "decorName": "水邊",
      "decorIcon": "💧"
    },
    {
      "id": "way-29197006-1/22031331302321313",
      "lat": 22.764849667901075,
      "lon": 121.13273293293304,
      "name": "太平溪",
      "decorType": "waterside",
      "decorName": "水邊",
      "decorIcon": "💧"
    },
    {
      "id": "way-29197006-1/22031331302321312",
      "lat": 22.76469533127957,
      "lon": 121.1334490449139,
      "name": "太平溪",
      "decorType": "waterside",
      "decorName": "水邊",
      "decorIcon": "💧"
    },
    {
      "id": "way-29197006-1/22031331302321311",
      "lat": 22.764028555875502,
      "lon": 121.1334490449139,
      "name": "太平溪",
      "decorType": "waterside",
      "decorName": "水邊",
      "decorIcon": "💧"
    },
    {
      "id": "way-29197006-1/22031331302321200",
      "lat": 22.763361780432035,
      "lon": 121.1334490449139,
      "name": "太平溪",
      "decorType": "waterside",
      "decorName": "水邊",
      "decorIcon": "💧"
    },
    {
      "id": "way-29197006-1/22031331302321203",
      "lat": 22.762695004949435,
      "lon": 121.1334490449139,
      "name": "太平溪",
      "decorType": "waterside",
      "decorName": "水邊",
      "decorIcon": "💧"
    },
    {
      "id": "way-29197006-1/22031331302321210",
      "lat": 22.762028229427976,
      "lon": 121.1334490449139,
      "name": "太平溪",
      "decorType": "waterside",
      "decorName": "水邊",
      "decorIcon": "💧"
    },
    {
      "id": "way-29197006-1/22031331302321211",
      "lat": 22.76136145386794,
      "lon": 121.1334490449139,
      "name": "太平溪",
      "decorType": "waterside",
      "decorName": "水邊",
      "decorIcon": "💧"
    },
    {
      "id": "way-29197006-1/22031331302012122",
      "lat": 22.7606946782696,
      "lon": 121.1334490449139,
      "name": "太平溪",
      "decorType": "waterside",
      "decorName": "水邊",
      "decorIcon": "💧"
    },
    {
      "id": "way-29197006-1/22031331302012123",
      "lat": 22.76002790263323,
      "lon": 121.1334490449139,
      "name": "太平溪",
      "decorType": "waterside",
      "decorName": "水邊",
      "decorIcon": "💧"
    },
    {
      "id": "way-29197006-1/22031331302012130",
      "lat": 22.759361126959103,
      "lon": 121.1334490449139,
      "name": "太平溪",
      "decorType": "waterside",
      "decorName": "水邊",
      "decorIcon": "💧"
    },
    {
      "id": "way-29197006-1/22031331302012203",
      "lat": 22.759206815935507,
      "lon": 121.13416515259826,
      "name": "太平溪",
      "decorType": "waterside",
      "decorName": "水邊",
      "decorIcon": "💧"
    },
    {
      "id": "way-29197006-1/22031331302012200",
      "lat": 22.758540043751072,
      "lon": 121.13416515259826,
      "name": "太平溪",
      "decorType": "waterside",
      "decorName": "水邊",
      "decorIcon": "💧"
    },
    {
      "id": "way-29197006-1/22031331302012311",
      "lat": 22.757873271529505,
      "lon": 121.13416515259826,
      "name": "太平溪",
      "decorType": "waterside",
      "decorName": "水邊",
      "decorIcon": "💧"
    },
    {
      "id": "way-29197006-1/22031331302012313",
      "lat": 22.757052196213838,
      "lon": 121.13488125598582,
      "name": "太平溪",
      "decorType": "waterside",
      "decorName": "水邊",
      "decorIcon": "💧"
    },