{
  "bbox": {
    "south": 23.643333333333334,
    "north": 23.88,
    "west": 120.28,
    "east": 120.42
  },
  "pois": [
    {
      "id": "node-444670108",
      "lat": 23.7703238,
      "lon": 120.4135442,
      "name": "7-Eleven",
      "decorType": "convenience-store",
      "decorName": "便利商店",
      "decorIcon": "🏪"
    },
    {
      "id": "node-2618253761",
      "lat": 23.7966373,
      "lon": 120.416435,
      "name": "全家便利商店",
      "decorType": "convenience-store",
      "decorName": "便利商店",
      "decorIcon": "🏪"
    },
    {
      "id": "node-2618254032",
      "lat": 23.7950114,
      "lon": 120.3902523,
      "name": "7-Eleven",
      "decorType": "convenience-store",
      "decorName": "便利商店",
      "decorIcon": "🏪"
    },
    {
      "id": "node-2618259115",
      "lat": 23.7954092,
      "lon": 120.3844913,
      "name": "二崙油車郵局",
      "decorType": "post-office",
      "decorName": "郵局",
      "decorIcon": "📮"
    },
    {
      "id": "node-2618259851",
      "lat": 23.7951844,
      "lon": 120.3850641,
      "name": "文化生鮮超市",
      "decorType": "supermarket",
      "decorName": "超市",
      "decorIcon": "🛒"
    },
    {
      "id": "node-2727276435",
      "lat": 23.7702256,
      "lon": 120.4132927,
      "name": "省錢超市",
      "decorType": "supermarket",
      "decorName": "超市",
      "decorIcon": "🛒"
    },
    {
      "id": "node-3111099465",
      "lat": 23.8526263,
      "lon": 120.3211795,
      "name": "大城鄉立圖書館",
      "decorType": "library",
      "decorName": "圖書館",
      "decorIcon": "📚"
    },
    {
      "id": "node-3246106700",
      "lat": 23.6508663,
      "lon": 120.3131227,
      "name": "全家便利商店",
      "decorType": "convenience-store",
      "decorName": "便利商店",
      "decorIcon": "🏪"
    },
    {
      "id": "node-3246106701",
      "lat": 23.6496529,
      "lon": 120.3134738,
      "name": "八方雲集",
      "decorType": "burger",
      "decorName": "漢堡店",
      "decorIcon": "🍔"
    },
    {
      "id": "node-3246106725",
      "lat": 23.649715,
      "lon": 120.3137158,
      "name": "7-Eleven",
      "decorType": "convenience-store",
      "decorName": "便利商店",
      "decorIcon": "🏪"
    },
    {
      "id": "node-3246129124",
      "lat": 23.6463723,
      "lon": 120.3129276,
      "name": "省錢超市",
      "decorType": "supermarket",
      "decorName": "超市",
      "decorIcon": "🛒"
    },
    {
      "id": "node-3870631861",
      "lat": 23.7365203,
      "lon": 120.4161577,
      "name": "雲林",
      "decorType": "station",
      "decorName": "車站",
      "decorIcon": "🚉"
    },
    {
      "id": "node-4238853055",
      "lat": 23.6763587,
      "lon": 120.3908827,
      "name": "惟德堂藥房",
      "decorType": "pharmacy",
      "decorName": "藥局",
      "decorIcon": "💊"
    },
    {
      "id": "node-4347074093",
      "lat": 23.7608631,
      "lon": 120.3555411,
      "name": "東池池上飯包",
      "decorType": "restaurant",
      "decorName": "餐廳",
      "decorIcon": "🍽️"
    },
    {
      "id": "node-4408411694",
      "lat": 23.6761136,
      "lon": 120.3905582,
      "name": "怪人花枝鱔魚麵",
      "decorType": "restaurant",
      "decorName": "餐廳",
      "decorIcon": "🍽️"
    },
    {
      "id": "node-4553210299",
      "lat": 23.6926589,
      "lon": 120.3102326,
      "name": "永傳中醫診所",
      "decorType": "hospital",
      "decorName": "醫院",
      "decorIcon": "🏥"
    },
    {
      "id": "node-4586729151",
      "lat": 23.6789523,
      "lon": 120.3930822,
      "name": "85度C",
      "decorType": "cafe",
      "decorName": "咖啡廳",
      "decorIcon": "☕"
    },
    {
      "id": "node-4586729153",
      "lat": 23.6789338,
      "lon": 120.3931962,
      "name": "7-Eleven",
      "decorType": "convenience-store",
      "decorName": "便利商店",
      "decorIcon": "🏪"
    },
    {
      "id": "node-4586729154",
      "lat": 23.6790517,
      "lon": 120.3927107,
      "name": "萊爾富",
      "decorType": "convenience-store",
      "decorName": "便利商店",
      "decorIcon": "🏪"
    },
    {
      "id": "node-4586729155",
      "lat": 23.6794693,
      "lon": 120.3921394,
      "name": "全家便利商店",
      "decorType": "convenience-store",
      "decorName": "便利商店",
      "decorIcon": "🏪"
    },
    {
      "id": "node-4594384072",
      "lat": 23.6950155,
      "lon": 120.3133177,
      "name": "7-Eleven",
      "decorType": "convenience-store",
      "decorName": "便利商店",
      "decorIcon": "🏪"
    },
    {
      "id": "node-4594384224",
      "lat": 23.705553,
      "lon": 120.3567352,
      "name": "7-Eleven",
      "decorType": "convenience-store",
      "decorName": "便利商店",
      "decorIcon": "🏪"
    },
    {
      "id": "node-4594432309",
      "lat": 23.6487361,
      "lon": 120.3135886,
      "name": "統聯客運元長代售處",
      "decorType": "station",
      "decorName": "車站",
      "decorIcon": "🚉"
    },
    {
      "id": "node-4634230708",
      "lat": 23.8543323,
      "lon": 120.2905591,
      "name": "公館羊肉爐",
      "decorType": "restaurant",
      "decorName": "餐廳",
      "decorIcon": "🍽️"
    },
    {
      "id": "node-4663566789",
      "lat": 23.6720377,
      "lon": 120.3946863,
      "name": "源順麻油",
      "decorType": "art-gallery",
      "decorName": "美術館",
      "decorIcon": "🖼️"
    },
    {
      "id": "node-4745562786",
      "lat": 23.8535589,
      "lon": 120.3210062,
      "name": "7-Eleven",
      "decorType": "convenience-store",
      "decorName": "便利商店",
      "decorIcon": "🏪"
    },
    {
      "id": "node-4745562787",
      "lat": 23.8558795,
      "lon": 120.3214943,
      "name": "全家便利商店",
      "decorType": "convenience-store",
      "decorName": "便利商店",
      "decorIcon": "🏪"
    },
    {
      "id": "node-4745562791",
      "lat": 23.8548594,
      "lon": 120.321443,
      "name": "主婦生鮮",
      "decorType": "supermarket",
      "decorName": "超市",
      "decorIcon": "🛒"
    },
    {
      "id": "node-4935459523",
      "lat": 23.7799933,
      "lon": 120.35206,
      "name": "豆典庭園咖啡",
      "decorType": "restaurant",
      "decorName": "餐廳",
      "decorIcon": "🍽️"
    },
    {
      "id": "node-4992293123",
      "lat": 23.648231,
      "lon": 120.3134537,
      "name": "金妮手工饅頭",
      "decorType": "bakery",
      "decorName": "麵包店",
      "decorIcon": "🥐"
    },
    {
      "id": "node-5081626521",
      "lat": 23.7610592,
      "lon": 120.3503066,
      "name": "茗人泡沫紅茶亭",
      "decorType": "restaurant",
      "decorName": "餐廳",
      "decorIcon": "🍽️"
    },
    {
      "id": "node-5218575721",
      "lat": 23.7614766,
      "lon": 120.3481983,
      "name": "7-Eleven",
      "decorType": "convenience-store",
      "decorName": "便利商店",
      "decorIcon": "🏪"
    },
    {
      "id": "node-5218575722",
      "lat": 23.7616264,
      "lon": 120.3477928,
      "name": "松本生鮮超市",
      "decorType": "supermarket",
      "decorName": "超市",
      "decorIcon": "🛒"
    },
    {
      "id": "node-5218575723",
      "lat": 23.7594355,
      "lon": 120.3533116,
      "name": "阿榮肉圓",
      "decorType": "restaurant",
      "decorName": "餐廳",
      "decorIcon": "🍽️"
    },
    {
      "id": "node-5218575724",
      "lat": 23.7600196,
      "lon": 120.3536727,
      "name": "全家便利商店",
      "decorType": "convenience-store",
      "decorName": "便利商店",
      "decorIcon": "🏪"
    },
    {
      "id": "node-5218576021",
      "lat": 23.7606249,
      "lon": 120.353709,
      "name": "萊爾富",
      "decorType": "convenience-store",
      "decorName": "便利商店",
      "decorIcon": "🏪"
    },
    {
      "id": "node-5218576022",
      "lat": 23.7593859,
      "lon": 120.3532904,
      "name": "7-Eleven",
      "decorType": "convenience-store",
      "decorName": "便利商店",
      "decorIcon": "🏪"
    },
    {
      "id": "node-5218604121",
      "lat": 23.7600368,
      "lon": 120.3534318,
      "name": "阿火肉圓",
      "decorType": "restaurant",
      "decorName": "餐廳",
      "decorIcon": "🍽️"
    },
    {
      "id": "node-5218604321",
      "lat": 23.761335,
      "lon": 120.3568742,
      "name": "7-Eleven",
      "decorType": "convenience-store",
      "decorName": "便利商店",
      "decorIcon": "🏪"
    },
    {
      "id": "node-5271628722",
      "lat": 23.7595835,
      "lon": 120.354209,
      "name": "臭豆腐 麵線",
      "decorType": "restaurant",
      "decorName": "餐廳",
      "decorIcon": "🍽️"
    },
    {
      "id": "node-5560999521",
      "lat": 23.7610523,
      "lon": 120.3657786,
      "name": "千巧谷烘培工坊-牛樂園牧場",
      "decorType": "bakery",
      "decorName": "麵包店",
      "decorIcon": "🥐"
    },
    {
      "id": "node-5764869224",
      "lat": 23.67607,
      "lon": 120.3948947,
      "name": "土庫郵局",
      "decorType": "post-office",
      "decorName": "郵局",
      "decorIcon": "📮"
    },
    {
      "id": "node-5764877764",
      "lat": 23.6783238,
      "lon": 120.3927108,
      "name": "土庫衛生所",
      "decorType": "hospital",
      "decorName": "醫院",
      "decorIcon": "🏥"
    },
    {
      "id": "node-5780782754",
      "lat": 23.7594774,
      "lon": 120.3533336,
      "name": "三馬藥師藥局",
      "decorType": "pharmacy",
      "decorName": "藥局",
      "decorIcon": "💊"
    },
    {
      "id": "node-6069917490",
      "lat": 23.6466047,
      "lon": 120.3129773,
      "name": "世興超市",
      "decorType": "supermarket",
      "decorName": "超市",
      "decorIcon": "🛒"
    },
    {
      "id": "node-6069962587",
      "lat": 23.6495273,
      "lon": 120.3139086,
      "name": "元長郵局",
      "decorType": "post-office",
      "decorName": "郵局",
      "decorIcon": "📮"
    },
    {
      "id": "node-6136677217",
      "lat": 23.7699882,
      "lon": 120.4127525,
      "name": "全家便利商店",
      "decorType": "convenience-store",
      "decorName": "便利商店",
      "decorIcon": "🏪"
    },
    {
      "id": "node-6147714966",
      "lat": 23.7716735,
      "lon": 120.4155973,
      "name": "二崙郵局",
      "decorType": "post-office",
      "decorName": "郵局",
      "decorIcon": "📮"
    },
    {
      "id": "node-6147715093",
      "lat": 23.771462,
      "lon": 120.4128465,
      "name": "二崙鄉圖書館",
      "decorType": "library",
      "decorName": "圖書館",
      "decorIcon": "📚"
    },
    {
      "id": "node-6150958148",
      "lat": 23.7696251,
      "lon": 120.4104921,
      "name": "俗俗賣五金百貨大賣場",
      "decorType": "supermarket",
      "decorName": "超市",
      "decorIcon": "🛒"
    },
    {
      "id": "node-6152704244",
      "lat": 23.7711135,
      "lon": 120.4132998,
      "name": "素緣珍",
      "decorType": "restaurant",
      "decorName": "餐廳",
      "decorIcon": "🍽️"
    },
    {
      "id": "node-6258008048",
      "lat": 23.7609078,
      "lon": 120.3659159,
      "name": "魔法巧克力屋",
      "decorType": "sweetshop",
      "decorName": "甜點店",
      "decorIcon": "🍩"
    },
    {
      "id": "node-6395827282",
      "lat": 23.7596795,
      "lon": 120.3544458,
      "name": "千巧谷烘焙工場",
      "decorType": "bakery",
      "decorName": "麵包店",
      "decorIcon": "🥐"
    },
    {
      "id": "node-6456634185",
      "lat": 23.7703074,
      "lon": 120.4131419,
      "name": "二崙佳美伍仁餅",
      "decorType": "bakery",
      "decorName": "麵包店",
      "decorIcon": "🥐"
    },
    {
      "id": "node-6457062599",
      "lat": 23.7609776,
      "lon": 120.355228,
      "name": "85度C",
      "decorType": "cafe",
      "decorName": "咖啡廳",
      "decorIcon": "☕"
    },
    {
      "id": "node-6457062613",
      "lat": 23.7606737,
      "lon": 120.3560766,
      "name": "全聯福利中心",
      "decorType": "supermarket",
      "decorName": "超市",
      "decorIcon": "🛒"
    },
    {
      "id": "node-6458531416",
      "lat": 23.7588445,
      "lon": 120.3075054,
      "name": "萊爾富",
      "decorType": "convenience-store",
      "decorName": "便利商店",
      "decorIcon": "🏪"
    },
    {
      "id": "node-6885127852",
      "lat": 23.75958,
      "lon": 120.3528291,
      "name": "崙背郵局",
      "decorType": "post-office",
      "decorName": "郵局",
      "decorIcon": "📮"
    },
    {
      "id": "node-6885913734",
      "lat": 23.7588989,
      "lon": 120.3546061,
      "name": "崇愛藥局",
      "decorType": "pharmacy",
      "decorName": "藥局",
      "decorIcon": "💊"
    },
    {
      "id": "node-6887605312",
      "lat": 23.7616901,
      "lon": 120.3574935,
      "name": "阿松小吃",
      "decorType": "restaurant",
      "decorName": "餐廳",
      "decorIcon": "🍽️"
    },
    {
      "id": "node-6887605315",
      "lat": 23.7612159,
      "lon": 120.3552496,
      "name": "JSP呷尚寶",
      "decorType": "restaurant",
      "decorName": "餐廳",
      "decorIcon": "🍽️"
    },
    {
      "id": "node-6887605316",
      "lat": 23.7600461,
      "lon": 120.3543696,
      "name": "弘爺漢堡",
      "decorType": "restaurant",
      "decorName": "餐廳",
      "decorIcon": "🍽️"
    },
    {
      "id": "node-6887605318",
      "lat": 23.7592358,
      "lon": 120.3542079,
      "name": "李排骨酥",
      "decorType": "restaurant",
      "decorName": "餐廳",
      "decorIcon": "🍽️"
    },
    {
      "id": "node-6887605320",
      "lat": 23.7596787,
      "lon": 120.3513503,
      "name": "早安山丘",
      "decorType": "restaurant",
      "decorName": "餐廳",
      "decorIcon": "🍽️"
    },
    {
      "id": "node-7006076201",
      "lat": 23.7365522,
      "lon": 120.4163709,
      "name": "摩斯漢堡",
      "decorType": "burger",
      "decorName": "漢堡店",
      "decorIcon": "🍔"
    },
    {
      "id": "node-7006076202",
      "lat": 23.7363822,
      "lon": 120.4163098,
      "name": "高鐵便當",
      "decorType": "restaurant",
      "decorName": "餐廳",
      "decorIcon": "🍽️"
    },
    {
      "id": "node-7178804414",
      "lat": 23.8540907,
      "lon": 120.3210263,
      "name": "喜悅香餐館",
      "decorType": "restaurant",
      "decorName": "餐廳",
      "decorIcon": "🍽️"
    },
    {
      "id": "node-7178804419",
      "lat": 23.8561413,
      "lon": 120.3209406,
      "name": "城市漢堡",
      "decorType": "restaurant",
      "decorName": "餐廳",
      "decorIcon": "🍽️"
    },
    {
      "id": "node-7178804443",
      "lat": 23.8551852,
      "lon": 120.3214961,
      "name": "老客馥粥品專賣連鎖",
      "decorType": "restaurant",
      "decorName": "餐廳",
      "decorIcon": "🍽️"
    },
    {
      "id": "node-7178804450",
      "lat": 23.8546732,
      "lon": 120.3222106,
      "name": "大城羊肉嫂",
      "decorType": "restaurant",
      "decorName": "餐廳",
      "decorIcon": "🍽️"
    },
    {
      "id": "node-7178804455",
      "lat": 23.878531,
      "lon": 120.3086904,
      "name": "五間寮炸粿店",
      "decorType": "restaurant",
      "decorName": "餐廳",
      "decorIcon": "🍽️"
    },
    {
      "id": "node-7178804457",
      "lat": 23.8534705,
      "lon": 120.3185871,
      "name": "99快炒",
      "decorType": "restaurant",
      "decorName": "餐廳",
      "decorIcon": "🍽️"
    },
    {
      "id": "node-7178804482",
      "lat": 23.8559984,
      "lon": 120.3216083,
      "name": "大腸麵線臭豆腐",
      "decorType": "restaurant",
      "decorName": "餐廳",
      "decorIcon": "🍽️"
    },
    {
      "id": "node-7178804489",
      "lat": 23.8533721,
      "lon": 120.3209558,
      "name": "天天來活力早點",
      "decorType": "restaurant",
      "decorName": "餐廳",
      "decorIcon": "🍽️"
    },
    {
      "id": "node-7178804514",
      "lat": 23.8555538,
      "lon": 120.3214706,
      "name": "鄉味便當快餐",
      "decorType": "restaurant",
      "decorName": "餐廳",
      "decorIcon": "🍽️"
    },
    {
      "id": "node-7178804521",
      "lat": 23.8538424,
      "lon": 120.3210406,
      "name": "美而美早餐店",
      "decorType": "restaurant",
      "decorName": "餐廳",
      "decorIcon": "🍽️"
    },
    {
      "id": "node-7178804526",
      "lat": 23.8561315,
      "lon": 120.321468,
      "name": "胖老爹美式炸雞",
      "decorType": "burger",
      "decorName": "漢堡店",
      "decorIcon": "🍔"
    },
    {
      "id": "node-7178804529",
      "lat": 23.8534917,
      "lon": 120.3197972,
      "name": "阿義羊肉爐",
      "decorType": "restaurant",
      "decorName": "餐廳",
      "decorIcon": "🍽️"
    },
    {
      "id": "node-7178804555",
      "lat": 23.8560515,
      "lon": 120.3209033,
      "name": "大城焢肉飯",
      "decorType": "restaurant",
      "decorName": "餐廳",
      "decorIcon": "🍽️"
    },
    {
      "id": "node-7178804562",
      "lat": 23.8544346,
      "lon": 120.3213001,
      "name": "宏明海產店",
      "decorType": "restaurant",
      "decorName": "餐廳",
      "decorIcon": "🍽️"
    },
    {
      "id": "node-7178804566",
      "lat": 23.8623339,
      "lon": 120.3218659,
      "name": "阿南羊肉爐",
      "decorType": "restaurant",
      "decorName": "餐廳",
      "decorIcon": "🍽️"
    },
    {
      "id": "node-8118207101",
      "lat": 23.7954369,
      "lon": 120.2800798,
      "name": "7-Eleven",
      "decorType": "convenience-store",
      "decorName": "便利商店",
      "decorIcon": "🏪"
    },
    {
      "id": "node-8118272873",
      "lat": 23.6947123,
      "lon": 120.3124077,
      "name": "全家便利商店",
      "decorType": "convenience-store",
      "decorName": "便利商店",
      "decorIcon": "🏪"
    },
    {
      "id": "node-8345805622",
      "lat": 23.7581719,
      "lon": 120.3645453,
      "name": "7-Eleven",
      "decorType": "convenience-store",
      "decorName": "便利商店",
      "decorIcon": "🏪"
    },
    {
      "id": "node-8345848958",
      "lat": 23.6470844,
      "lon": 120.3129932,
      "name": "全聯福利中心",
      "decorType": "supermarket",
      "decorName": "超市",
      "decorIcon": "🛒"
    },
    {
      "id": "node-8345848959",
      "lat": 23.65133,
      "lon": 120.3134304,
      "name": "早安山丘",
      "decorType": "restaurant",
      "decorName": "餐廳",
      "decorIcon": "🍽️"
    },
    {
      "id": "node-8385313254",
      "lat": 23.675999,
      "lon": 120.390595,
      "name": "八方雲集",
      "decorType": "burger",
      "decorName": "漢堡店",
      "decorIcon": "🍔"
    },
    {
      "id": "node-8385313443",
      "lat": 23.759315,
      "lon": 120.354792,
      "name": "八方雲集",
      "decorType": "restaurant",
      "decorName": "餐廳",
      "decorIcon": "🍽️"
    },
    {
      "id": "node-8385313685",
      "lat": 23.646266,
      "lon": 120.31272,
      "name": "八方雲集",
      "decorType": "burger",
      "decorName": "漢堡店",
      "decorIcon": "🍔"
    },
    {
      "id": "node-8584728479",
      "lat": 23.7260652,
      "lon": 120.4093918,
      "name": "呷尚寶",
      "decorType": "burger",
      "decorName": "漢堡店",
      "decorIcon": "🍔"
    },
    {
      "id": "node-8781031664",
      "lat": 23.7594947,
      "lon": 120.3531405,
      "name": "茶的魔手",
      "decorType": "cafe",
      "decorName": "咖啡廳",
      "decorIcon": "☕"
    },
    {
      "id": "node-8812092203",
      "lat": 23.7591198,
      "lon": 120.3541853,
      "name": "拉亞漢堡",
      "decorType": "burger",
      "decorName": "漢堡店",
      "decorIcon": "🍔"
    },
    {
      "id": "node-8812092204",
      "lat": 23.7600045,
      "lon": 120.3546315,
      "name": "麥味登",
      "decorType": "restaurant",
      "decorName": "餐廳",
      "decorIcon": "🍽️"
    },
    {
      "id": "node-8813303874",
      "lat": 23.7865983,
      "lon": 120.3514008,
      "name": "品全超市",
      "decorType": "supermarket",
      "decorName": "超市",
      "decorIcon": "🛒"
    },
    {
      "id": "node-8865099532",
      "lat": 23.6765059,
      "lon": 120.3915459,
      "name": "10元麵包-金琴麵包店",
      "decorType": "bakery",
      "decorName": "麵包店",
      "decorIcon": "🥐"
    },
    {
      "id": "node-9110970157",
      "lat": 23.8557176,
      "lon": 120.3219058,
      "name": "7-Eleven",
      "decorType": "convenience-store",
      "decorName": "便利商店",
      "decorIcon": "🏪"
    },
    {
      "id": "node-9293558896",
      "lat": 23.7317807,
      "lon": 120.4171018,
      "name": "acá",
      "decorType": "clothing-store",
      "decorName": "服飾店",
      "decorIcon": "👕"
    },
    {
      "id": "node-9376572950",
      "lat": 23.72327,
      "lon": 120.4141368,
      "name": "全家便利商店",
      "decorType": "convenience-store",
      "decorName": "便利商店",
      "decorIcon": "🏪"
    },
    {
      "id": "node-11066144807",
      "lat": 23.7703844,
      "lon": 120.4137236,
      "name": "A-Bao 早午餐",
      "decorType": "restaurant",
      "decorName": "餐廳",
      "decorIcon": "🍽️"
    },
    {
      "id": "node-11066144808",
      "lat": 23.7702028,
      "lon": 120.4129136,
      "name": "麥味登",
      "decorType": "restaurant",
      "decorName": "餐廳",
      "decorIcon": "🍽️"
    },
    {
      "id": "node-11066144813",
      "lat": 23.7710865,
      "lon": 120.4110146,
      "name": "全聯福利中心",
      "decorType": "supermarket",
      "decorName": "超市",
      "decorIcon": "🛒"
    },
    {
      "id": "node-11629563044",
      "lat": 23.7221902,
      "lon": 120.3655787,
      "name": "繁殖場",
      "decorType": "station",
      "decorName": "車站",
      "decorIcon": "🚉"
    },
    {
      "id": "node-12498105574",
      "lat": 23.6927918,
      "lon": 120.3062854,
      "name": "大呼過癮",
      "decorType": "restaurant",
      "decorName": "餐廳",
      "decorIcon": "🍽️"
    },
    {
      "id": "node-12498105575",
      "lat": 23.6926561,
      "lon": 120.3060224,
      "name": "褒忠召安大藥局",
      "decorType": "pharmacy",
      "decorName": "藥局",
      "decorIcon": "💊"
    },
    {
      "id": "node-12541694796",
      "lat": 23.7365074,
      "lon": 120.4163776,
      "name": "星巴克",
      "decorType": "cafe",
      "decorName": "咖啡廳",
      "decorIcon": "☕"
    },
    {
      "id": "node-12712665345",
      "lat": 23.6966303,
      "lon": 120.3092562,
      "name": "全家便利商店",
      "decorType": "convenience-store",
      "decorName": "便利商店",
      "decorIcon": "🏪"
    },
    {
      "id": "node-12726123691",
      "lat": 23.7612943,
      "lon": 120.350488,
      "name": "全家便利商店",
      "decorType": "convenience-store",
      "decorName": "便利商店",
      "decorIcon": "🏪"
    },
    {
      "id": "node-12735724944",
      "lat": 23.6962321,
      "lon": 120.3712626,
      "name": "全家便利商店",
      "decorType": "convenience-store",
      "decorName": "便利商店",
      "decorIcon": "🏪"
    },
    {
      "id": "node-12735728243",
      "lat": 23.6737371,
      "lon": 120.3891343,
      "name": "OK超商",
      "decorType": "convenience-store",
      "decorName": "便利商店",
      "decorIcon": "🏪"
    },
    {
      "id": "node-12790985820",
      "lat": 23.6759897,
      "lon": 120.3903164,
      "name": "青島西點",
      "decorType": "bakery",
      "decorName": "麵包店",
      "decorIcon": "🥐"
    },
    {
      "id": "node-12791160205",
      "lat": 23.688984,
      "lon": 120.4138595,
      "name": "世界餐廳",
      "decorType": "restaurant",
      "decorName": "餐廳",
      "decorIcon": "🍽️"
    },
    {
      "id": "node-12791160232",
      "lat": 23.6744283,
      "lon": 120.3897581,
      "name": "和興囍餅名店",
      "decorType": "bakery",
      "decorName": "麵包店",
      "decorIcon": "🥐"
    },
    {
      "id": "node-12851171082",
      "lat": 23.6783213,
      "lon": 120.391872,
      "name": "7-Eleven",
      "decorType": "convenience-store",
      "decorName": "便利商店",
      "decorIcon": "🏪"
    },
    {
      "id": "node-12872406056",
      "lat": 23.7269539,
      "lon": 120.4093687,
      "name": "7-Eleven",
      "decorType": "convenience-store",
      "decorName": "便利商店",
      "decorIcon": "🏪"
    },
    {
      "id": "node-12896631766",
      "lat": 23.7051325,
      "lon": 120.3533261,
      "name": "土庫馬光郵局",
      "decorType": "post-office",
      "decorName": "郵局",
      "decorIcon": "📮"
    },
    {
      "id": "node-12896631768",
      "lat": 23.6934424,
      "lon": 120.3116565,
      "name": "褒忠郵局",
      "decorType": "post-office",
      "decorName": "郵局",
      "decorIcon": "📮"
    },
    {
      "id": "node-12981570407",
      "lat": 23.675603,
      "lon": 120.2877695,
      "name": "白水咖啡",
      "decorType": "cafe",
      "decorName": "咖啡廳",
      "decorIcon": "☕"
    },
    {
      "id": "node-12992387547",
      "lat": 23.6957074,
      "lon": 120.3148501,
      "name": "進德海鮮",
      "decorType": "restaurant",
      "decorName": "餐廳",
      "decorIcon": "🍽️"
    },
    {
      "id": "node-13059841333",
      "lat": 23.7597814,
      "lon": 120.3545086,
      "name": "蝦皮店到店",
      "decorType": "convenience-store",
      "decorName": "便利商店",
      "decorIcon": "🏪"
    },
    {
      "id": "node-13059841336",
      "lat": 23.6780604,
      "lon": 120.3931841,
      "name": "蝦皮店到店",
      "decorType": "convenience-store",
      "decorName": "便利商店",
      "decorIcon": "🏪"
    },
    {
      "id": "node-13059841354",
      "lat": 23.7055039,
      "lon": 120.3582275,
      "name": "蝦皮店到店",
      "decorType": "convenience-store",
      "decorName": "便利商店",
      "decorIcon": "🏪"
    },
    {
      "id": "node-13077773465",
      "lat": 23.651271,
      "lon": 120.3131285,
      "name": "蝦皮店到店",
      "decorType": "convenience-store",
      "decorName": "便利商店",
      "decorIcon": "🏪"
    },
    {
      "id": "node-13077773479",
      "lat": 23.6933188,
      "lon": 120.3113922,
      "name": "蝦皮店到店",
      "decorType": "convenience-store",
      "decorName": "便利商店",
      "decorIcon": "🏪"
    },
    {
      "id": "node-13077773495",
      "lat": 23.7695785,
      "lon": 120.4121782,
      "name": "蝦皮店到店",
      "decorType": "convenience-store",
      "decorName": "便利商店",
      "decorIcon": "🏪"
    },
    {
      "id": "node-13392872202",
      "lat": 23.6951307,
      "lon": 120.3097518,
      "name": "TEA'S 原味",
      "decorType": "cafe",
      "decorName": "咖啡廳",
      "decorIcon": "☕"
    },
    {
      "id": "node-13394433942",
      "lat": 23.6950521,
      "lon": 120.3134727,
      "name": "早安山丘",
      "decorType": "burger",
      "decorName": "漢堡店",
      "decorIcon": "🍔"
    },
    {
      "id": "node-13394433943",
      "lat": 23.695049,
      "lon": 120.3125279,
      "name": "成功超級市場",
      "decorType": "supermarket",
      "decorName": "超市",
      "decorIcon": "🛒"
    },
    {
      "id": "node-13484559143",
      "lat": 23.7617478,
      "lon": 120.3594335,
      "name": "雲林縣崙背鄉立圖書館",
      "decorType": "library",
      "decorName": "圖書館",
      "decorIcon": "📚"
    },
    {
      "id": "way-99524071-1/22031311230111011",
      "lat": 23.731458813414957,
      "lon": 120.52539082501596,
      "name": "虎尾溪",
      "decorType": "waterside",
      "decorName": "水邊",
      "decorIcon": "💧"
    },
    {
      "id": "way-99524071-1/22031311230111012",
      "lat": 23.73078943398066,
      "lon": 120.52539082501596,
      "name": "虎尾溪",
      "decorType": "waterside",
      "decorName": "水邊",
      "decorIcon": "💧"
    },
    {
      "id": "way-99524071-1/22031311230111321",
      "lat": 23.730945762951617,
      "lon": 120.52467117342246,
      "name": "虎尾溪",
      "decorType": "waterside",
      "decorName": "水邊",
      "decorIcon": "💧"
    },
    {
      "id": "way-99524071-1/22031311230111320",
      "lat": 23.7311020890994,
      "lon": 120.52395151776881,
      "name": "虎尾溪",
      "decorType": "waterside",
      "decorName": "水邊",
      "decorIcon": "💧"
    },
    {
      "id": "way-99524071-1/22031311230111331",
      "lat": 23.731258412423884,
      "lon": 120.52323185805534,
      "name": "虎尾溪",
      "decorType": "waterside",
      "decorName": "水邊",
      "decorIcon": "💧"
    },
    {
      "id": "way-99524071-1/22031311230111332",
      "lat": 23.731414732924943,
      "lon": 120.52251219428229,
      "name": "虎尾溪",
      "decorType": "waterside",
      "decorName": "水邊",
      "decorIcon": "💧"
    },
    {
      "id": "way-99524071-1/22031311230112001",
      "lat": 23.73157105060245,
      "lon": 120.52179252644999,
      "name": "虎尾溪",
      "decorType": "waterside",
      "decorName": "水邊",
      "decorIcon": "💧"
    },
    {
      "id": "way-99524071-1/22031311230112031",
      "lat": 23.731057965457577,
      "lon": 120.52107285455861,
      "name": "虎尾溪",
      "decorType": "waterside",
      "decorName": "水邊",
      "decorIcon": "💧"
    },
    {
      "id": "way-99524071-1/22031311230112020",
      "lat": 23.73121427413642,
      "lon": 120.52035317860862,
      "name": "虎尾溪",
      "decorType": "waterside",
      "decorName": "水邊",
      "decorIcon": "💧"
    },
    {
      "id": "way-99524071-1/22031311230112021",
      "lat": 23.731370579991417,
      "lon": 120.51963349860011,
      "name": "虎尾溪",
      "decorType": "waterside",
      "decorName": "水邊",
      "decorIcon": "💧"
    },
    {
      "id": "way-99524071-1/22031311230112312",
      "lat": 23.731526883022436,
      "lon": 120.51891381453345,
      "name": "虎尾溪",
      "decorType": "waterside",
      "decorName": "水邊",
      "decorIcon": "💧"
    },
    {
      "id": "way-99524071-1/22031311230112313",
      "lat": 23.73168318322936,
      "lon": 120.51819412640896,
      "name": "虎尾溪",
      "decorType": "waterside",
      "decorName": "水邊",
      "decorIcon": "💧"
    },
    {
      "id": "way-99524071-1/22031311230112302",
      "lat": 23.731839480612052,
      "lon": 120.51747443422687,
      "name": "虎尾溪",
      "decorType": "waterside",
      "decorName": "水邊",
      "decorIcon": "💧"
    },
    {
      "id": "way-99524071-1/22031311230112301",
      "lat": 23.7319957751704,
      "lon": 120.51675473798753,
      "name": "虎尾溪",
      "decorType": "waterside",
      "decorName": "水邊",
      "decorIcon": "💧"
    },
    {
      "id": "way-99524071-1/22031311230112300",
      "lat": 23.731326354609404,
      "lon": 120.51675473798753,
      "name": "虎尾溪",
      "decorType": "waterside",
      "decorName": "水邊",
      "decorIcon": "💧"
    },
    {
      "id": "way-99524071-1/22031311230121033",
      "lat": 23.731482642992482,
      "lon": 120.5160350376911,
      "name": "虎尾溪",
      "decorType": "waterside",
      "decorName": "水邊",
      "decorIcon": "💧"
    },
    {
      "id": "way-99524071-1/22031311230121030",
      "lat": 23.731638928551035,
      "lon": 120.51531533333804,
      "name": "虎尾溪",
      "decorType": "waterside",
      "decorName": "水邊",
      "decorIcon": "💧"
    },
    {
      "id": "way-99524071-1/22031311230121023",
      "lat": 23.73179521128494,
      "lon": 120.5145956249284,
      "name": "虎尾溪",
      "decorType": "waterside",
      "decorName": "水邊",
      "decorIcon": "💧"
    },
    {
      "id": "way-99524071-1/22031311230121022",
      "lat": 23.731951491194067,
      "lon": 120.51387591246271,
      "name": "虎尾溪",
      "decorType": "waterside",
      "decorName": "水邊",
      "decorIcon": "💧"
    },
    {
      "id": "way-99524071-1/22031311230121311",
      "lat": 23.732107768278297,
      "lon": 120.51315619594106,
      "name": "虎尾溪",
      "decorType": "waterside",
      "decorName": "水邊",
      "decorIcon": "💧"
    },
    {
      "id": "way-99524071-1/22031311230121310",
      "lat": 23.732264042537494,
      "lon": 120.51243647536387,
      "name": "虎尾溪",
      "decorType": "waterside",
      "decorName": "水邊",
      "decorIcon": "💧"
    },
    {
      "id": "way-99524071-1/22031311230121303",
      "lat": 23.73242031397154,
      "lon": 120.51171675073135,
      "name": "虎尾溪",
      "decorType": "waterside",
      "decorName": "水邊",
      "decorIcon": "💧"
    },
    {
      "id": "way-99524071-1/22031311230121232",
      "lat": 23.731750869499987,
      "lon": 120.51171675073135,
      "name": "虎尾溪",
      "decorType": "waterside",
      "decorName": "水邊",
      "decorIcon": "💧"
    },
    {
      "id": "way-99524071-1/22031311230121233",
      "lat": 23.731907134758444,
      "lon": 120.51099702204385,
      "name": "虎尾溪",
      "decorType": "waterside",
      "decorName": "水邊",
      "decorIcon": "💧"
    },
    {
      "id": "way-99524071-1/22031311230122100",
      "lat": 23.732063397191578,
      "lon": 120.51027728930148,
      "name": "虎尾溪",
      "decorType": "waterside",
      "decorName": "水邊",
      "decorIcon": "💧"
    },
    {
      "id": "way-99524071-1/22031311230122101",
      "lat": 23.73221965679926,
      "lon": 120.50955755250476,
      "name": "虎尾溪",
      "decorType": "waterside",
      "decorName": "水邊",
      "decorIcon": "💧"
    },
    {
      "id": "way-99524071-1/22031311230122132",
      "lat": 23.73237591358136,
      "lon": 120.50883781165385,
      "name": "虎尾溪",
      "decorType": "waterside",
      "decorName": "水邊",
      "decorIcon": "💧"
    },
    {
      "id": "way-99524071-1/22031311230122133",
      "lat": 23.73253216753777,
      "lon": 120.50811806674903,
      "name": "虎尾溪",
      "decorType": "waterside",
      "decorName": "水邊",
      "decorIcon": "💧"
    },
    {
      "id": "way-99524071-1/22031311230122130",
      "lat": 23.731862705858553,
      "lon": 120.50811806674903,
      "name": "虎尾溪",
      "decorType": "waterside",
      "decorName": "水邊",
      "decorIcon": "💧"
    },
    {
      "id": "way-99524071-1/22031311230122203",
      "lat": 23.73201895363913,
      "lon": 120.5073983177906,
      "name": "虎尾溪",
      "decorType": "waterside",
      "decorName": "水邊",
      "decorIcon": "💧"
    },
    {
      "id": "way-99524071-1/22031311230122202",
      "lat": 23.732175198593833,
      "lon": 120.50667856477878,
      "name": "虎尾溪",
      "decorType": "waterside",
      "decorName": "水邊",
      "decorIcon": "💧"
    },
    {
      "id": "way-99524071-1/22031311230122231",
      "lat": 23.732331440722543,
      "lon": 120.50595880771402,
      "name": "虎尾溪",
      "decorType": "waterside",
      "decorName": "水邊",
      "decorIcon": "💧"
    },
    {
      "id": "way-99524071-1/22031311230122220",
      "lat": 23.731661968536695,
      "lon": 120.50595880771402,
      "name": "虎尾溪",
      "decorType": "waterside",
      "decorName": "水邊",
      "decorIcon": "💧"
    },
    {
      "id": "way-99524071-1/22031311230122223",
      "lat": 23.73181820448943,
      "lon": 120.50523904659644,
      "name": "虎尾溪",
      "decorType": "waterside",
      "decorName": "水邊",
      "decorIcon": "💧"
    },
    {
      "id": "way-99524071-1/22031311230122222",
      "lat": 23.73114872849704,
      "lon": 120.50523904659644,
      "name": "虎尾溪",
      "decorType": "waterside",
      "decorName": "水邊",
      "decorIcon": "💧"
    },
    {
      "id": "way-99524071-1/22031311230211111",
      "lat": 23.731304958273753,
      "lon": 120.50451928142638,
      "name": "虎尾溪",
      "decorType": "waterside",
      "decorName": "水邊",
      "decorIcon": "💧"
    },
    {
      "id": "way-99524071-1/22031311233122222",
      "lat": 23.730635478475005,
      "lon": 120.50451928142638,
      "name": "虎尾溪",
      "decorType": "waterside",
      "decorName": "水邊",
      "decorIcon": "💧"
    },
    {
      "id": "way-99524071-1/22031311233122223",
      "lat": 23.72996599822002,
      "lon": 120.50451928142638,
      "name": "虎尾溪",
      "decorType": "waterside",
      "decorName": "水邊",
      "decorIcon": "💧"
    },
    {
      "id": "way-99524071-1/22031311233122220",
      "lat": 23.730122218470715,
      "lon": 120.50379951220418,
      "name": "虎尾溪",
      "decorType": "waterside",
      "decorName": "水邊",
      "decorIcon": "💧"
    },
    {
      "id": "way-99524071-1/22031311233122231",
      "lat": 23.729452734409744,
      "lon": 120.50379951220418,
      "name": "虎尾溪",
      "decorType": "waterside",
      "decorName": "水邊",
      "decorIcon": "💧"
    },
    {
      "id": "way-99524071-1/22031311233122232",
      "lat": 23.728783249892995,
      "lon": 120.50379951220418,
      "name": "虎尾溪",
      "decorType": "waterside",
      "decorName": "水邊",
      "decorIcon": "💧"
    },
    {
      "id": "way-99524071-1/22031311233122310",
      "lat": 23.72826997229514,
      "lon": 120.50307973893001,
      "name": "虎尾溪",
      "decorType": "waterside",
      "decorName": "水邊",
      "decorIcon": "💧"
    },
    {
      "id": "way-99524071-1/22031311233122313",
      "lat": 23.72760048351746,
      "lon": 120.50307973893001,
      "name": "虎尾溪",
      "decorType": "waterside",
      "decorName": "水邊",
      "decorIcon": "💧"
    },
    {
      "id": "way-99524071-1/22031311233122312",
      "lat": 23.727756684715647,
      "lon": 120.50235996160427,
      "name": "虎尾溪",
      "decorType": "waterside",
      "decorName": "水邊",
      "decorIcon": "💧"
    },
    {
      "id": "way-99524071-1/22031311233122321",
      "lat": 23.727087192132704,
      "lon": 120.50235996160427,
      "name": "虎尾溪",
      "decorType": "waterside",
      "decorName": "水邊",
      "decorIcon": "💧"
    },
    {
      "id": "way-99524071-1/22031311233122012",
      "lat": 23.727243387154644,
      "lon": 120.50164018022713,
      "name": "虎尾溪",
      "decorType": "waterside",
      "decorName": "水邊",
      "decorIcon": "💧"
    },
    {
      "id": "way-99524071-1/22031311233122011",
      "lat": 23.726573890766623,
      "lon": 120.50164018022713,
      "name": "虎尾溪",
      "decorType": "waterside",
      "decorName": "水邊",
      "decorIcon": "💧"
    },
    {
      "id": "way-99524071-1/22031311233123100",
      "lat": 23.72590439392394,
      "lon": 120.50164018022713,
      "name": "虎尾溪",
      "decorType": "waterside",
      "decorName": "水邊",
      "decorIcon": "💧"
    },
    {
      "id": "way-99524071-1/22031311233123103",
      "lat": 23.726060579419343,
      "lon": 120.50092039479898,
      "name": "虎尾溪",
      "decorType": "waterside",
      "decorName": "水邊",
      "decorIcon": "💧"
    },
    {
      "id": "way-99524071-1/22031311233123102",
      "lat": 23.725391078771946,
      "lon": 120.50092039479898,
      "name": "虎尾溪",
      "decorType": "waterside",
      "decorName": "水邊",
      "decorIcon": "💧"
    },
    {
      "id": "way-99524071-1/22031311233123113",
      "lat": 23.72554725809098,
      "lon": 120.50020060532,
      "name": "虎尾溪",
      "decorType": "waterside",
      "decorName": "水邊",
      "decorIcon": "💧"
    },
    {
      "id": "way-99524071-1/22031311233123120",
      "lat": 23.724877753639056,
      "lon": 120.50020060532,
      "name": "虎尾溪",
      "decorType": "waterside",
      "decorName": "水邊",
      "decorIcon": "💧"
    },
    {
      "id": "way-99524071-1/22031311233123121",
      "lat": 23.725033926781673,
      "lon": 120.49948081179059,
      "name": "虎尾溪",
      "decorType": "waterside",
      "decorName": "水邊",
      "decorIcon": "💧"
    },
    {
      "id": "way-99524071-1/22031311233123122",
      "lat": 23.7243644185254,
      "lon": 120.49948081179059,
      "name": "虎尾溪",
      "decorType": "waterside",
      "decorName": "水邊",
      "decorIcon": "💧"
    },
    {
      "id": "way-99524071-1/22031311233123211",
      "lat": 23.7236949098153,
      "lon": 120.49948081179059,
      "name": "虎尾溪",
      "decorType": "waterside",
      "decorName": "水邊",
      "decorIcon": "💧"
    },
    {
      "id": "way-99524071-1/22031311233123212",
      "lat": 23.72302540065165,
      "lon": 120.49948081179059,
      "name": "虎尾溪",
      "decorType": "waterside",
      "decorName": "水邊",
      "decorIcon": "💧"
    },
    {
      "id": "way-99524071-1/22031311233123221",
      "lat": 23.72235589103473,
      "lon": 120.49948081179059,
      "name": "虎尾溪",
      "decorType": "waterside",
      "decorName": "水邊",
      "decorIcon": "💧"
    },
    {
      "id": "way-99524071-1/22031311233120112",
      "lat": 23.722512047949582,
      "lon": 120.49876101421103,
      "name": "虎尾溪",
      "decorType": "waterside",
      "decorName": "水邊",
      "decorIcon": "💧"
    },
    {
      "id": "way-99524071-1/22031311233120111",
      "lat": 23.72184253452905,
      "lon": 120.49876101421103,
      "name": "虎尾溪",
      "decorType": "waterside",
      "decorName": "水邊",
      "decorIcon": "💧"
    },
    {
      "id": "way-99524071-1/22031311233131000",
      "lat": 23.7211730206557,
      "lon": 120.49876101421103,
      "name": "虎尾溪",
      "decorType": "waterside",
      "decorName": "水邊",
      "decorIcon": "💧"
    },
    {
      "id": "way-99524071-1/22031311233131001",
      "lat": 23.721329168043393,
      "lon": 120.49804121258148,
      "name": "虎尾溪",
      "decorType": "waterside",
      "decorName": "水邊",
      "decorIcon": "💧"
    },
    {
      "id": "way-99524071-1/22031311233131002",
      "lat": 23.720659650366805,
      "lon": 120.49804121258148,
      "name": "虎尾溪",
      "decorType": "waterside",
      "decorName": "水邊",
      "decorIcon": "💧"
    },
    {
      "id": "way-99524071-1/22031311233131013",
      "lat": 23.71999013223787,
      "lon": 120.49804121258148,
      "name": "虎尾溪",
      "decorType": "waterside",
      "decorName": "水邊",
      "decorIcon": "💧"
    },
    {
      "id": "way-99524071-1/22031311233131020",
      "lat": 23.720146270098244,
      "lon": 120.49732140690224,
      "name": "虎尾溪",
      "decorType": "waterside",
      "decorName": "水邊",
      "decorIcon": "💧"
    },
    {
      "id": "way-99524071-1/22031311233131021",
      "lat": 23.719476748166432,
      "lon": 120.49732140690224,
      "name": "虎尾溪",
      "decorType": "waterside",
      "decorName": "水邊",
      "decorIcon": "💧"
    },
    {
      "id": "way-99524071-1/22031311233131312",
      "lat": 23.718807225782733,
      "lon": 120.49732140690224,
      "name": "虎尾溪",
      "decorType": "waterside",
      "decorName": "水邊",
      "decorIcon": "💧"
    },
    {
      "id": "way-99524071-1/22031311233131311",
      "lat": 23.718963354115647,
      "lon": 120.49660159717371,
      "name": "虎尾溪",
      "decorType": "waterside",
      "decorName": "水邊",
      "decorIcon": "💧"
    },
    {
      "id": "way-99524071-1/22031311233131310",
      "lat": 23.71829382792944,
      "lon": 120.49660159717371,
      "name": "虎尾溪",
      "decorType": "waterside",
      "decorName": "水邊",
      "decorIcon": "💧"
    },
    {
      "id": "way-99524071-1/22031311233131232",
      "lat": 23.717780420097096,
      "lon": 120.49588178339616,
      "name": "虎尾溪",
      "decorType": "waterside",
      "decorName": "水邊",
      "decorIcon": "💧"
    },
    {
      "id": "way-99524071-1/22031311233131233",
      "lat": 23.717110889657324,
      "lon": 120.49588178339616,
      "name": "虎尾溪",
      "decorType": "waterside",
      "decorName": "水邊",
      "decorIcon": "💧"
    },
    {
      "id": "way-99524071-1/22031311233131230",
      "lat": 23.717267002285833,
      "lon": 120.49516196556971,
      "name": "虎尾溪",
      "decorType": "waterside",
      "decorName": "水邊",
      "decorIcon": "💧"
    },
    {
      "id": "way-99524071-1/22031311233132103",
      "lat": 23.716597468044103,
      "lon": 120.49516196556971,
      "name": "虎尾溪",
      "decorType": "waterside",
      "decorName": "水邊",
      "decorIcon": "💧"
    },
    {
      "id": "way-99524071-1/22031311233132102",
      "lat": 23.715927933351594,
      "lon": 120.49516196556971,
      "name": "虎尾溪",
      "decorType": "waterside",
      "decorName": "水邊",
      "decorIcon": "💧"
    },
    {
      "id": "way-99524071-1/22031311233132113",
      "lat": 23.71608403645228,
      "lon": 120.49444214369481,
      "name": "虎尾溪",
      "decorType": "waterside",
      "decorName": "水邊",
      "decorIcon": "💧"
    },
    {
      "id": "way-99524071-1/22031311233132120",
      "lat": 23.715414497958182,
      "lon": 120.49444214369481,
      "name": "虎尾溪",
      "decorType": "waterside",
      "decorName": "水邊",
      "decorIcon": "💧"
    },
    {
      "id": "way-99524071-1/22031311233132121",
      "lat": 23.715570594881967,
      "lon": 120.4937223177717,
      "name": "虎尾溪",
      "decorType": "waterside",
      "decorName": "水邊",
      "decorIcon": "💧"
    },
    {
      "id": "way-99524071-1/22031311233132122",
      "lat": 23.714901052586463,
      "lon": 120.4937223177717,
      "name": "虎尾溪",
      "decorType": "waterside",
      "decorName": "水邊",
      "decorIcon": "💧"
    },
    {
      "id": "way-99524071-1/22031311233101211",
      "lat": 23.715057143333308,
      "lon": 120.49300248780065,
      "name": "虎尾溪",
      "decorType": "waterside",
      "decorName": "水邊",
      "decorIcon": "💧"
    },
    {
      "id": "way-99524071-1/22031311233101122",
      "lat": 23.714387597236566,
      "lon": 120.49300248780065,
      "name": "虎尾溪",
      "decorType": "waterside",
      "decorName": "水邊",
      "decorIcon": "💧"
    },
    {
      "id": "way-99524071-1/22031311233101121",
      "lat": 23.713718050689888,
      "lon": 120.49300248780065,
      "name": "虎尾溪",
      "decorType": "waterside",
      "decorName": "水邊",
      "decorIcon": "💧"
    },
    {
      "id": "way-99524071-1/22031311233101120",
      "lat": 23.713874131908632,
      "lon": 120.49228265378196,
      "name": "虎尾溪",
      "decorType": "waterside",
      "decorName": "水邊",
      "decorIcon": "💧"
    },
    {
      "id": "way-99524071-1/22031311233101113",
      "lat": 23.71320458156109,
      "lon": 120.49228265378196,
      "name": "虎尾溪",
      "decorType": "waterside",
      "decorName": "水邊",
      "decorIcon": "💧"
    },
    {
      "id": "way-99524071-1/22031311233101102",
      "lat": 23.713360656602777,
      "lon": 120.4915628157159,
      "name": "虎尾溪",
      "decorType": "waterside",
      "decorName": "水邊",
      "decorIcon": "💧"
    },
    {
      "id": "way-99524071-1/22031311233101103",
      "lat": 23.712691102454553,
      "lon": 120.4915628157159,
      "name": "虎尾溪",
      "decorType": "waterside",
      "decorName": "水邊",
      "decorIcon": "💧"
    },
    {
      "id": "way-99524071-1/22031311233030033",
      "lat": 23.71217761337041,
      "lon": 120.49084297360275,
      "name": "虎尾溪",
      "decorType": "waterside",
      "decorName": "水邊",
      "decorIcon": "💧"
    },
    {
      "id": "way-99524071-1/22031311233030100",
      "lat": 23.712333676057835,
      "lon": 120.49012312744281,
      "name": "虎尾溪",
      "decorType": "waterside",
      "decorName": "水邊",
      "decorIcon": "💧"
    },
    {
      "id": "way-99524071-1/22031311233030103",
      "lat": 23.712489735919185,
      "lon": 120.48940327723636,
      "name": "虎尾溪",
      "decorType": "waterside",
      "decorName": "水邊",
      "decorIcon": "💧"
    },
    {
      "id": "way-99524071-1/22031311233030102",
      "lat": 23.711820170819,
      "lon": 120.48940327723636,
      "name": "虎尾溪",
      "decorType": "waterside",
      "decorName": "水邊",
      "decorIcon": "💧"
    },
    {
      "id": "way-99524071-1/22031311233030131",
      "lat": 23.71115060526981,
      "lon": 120.48940327723636,
      "name": "虎尾溪",
      "decorType": "waterside",
      "decorName": "水邊",
      "decorIcon": "💧"
    },
    {
      "id": "way-99524071-1/22031311233030123",
      "lat": 23.710637086253612,
      "lon": 120.48868342298368,
      "name": "虎尾溪",
      "decorType": "waterside",
      "decorName": "水邊",
      "decorIcon": "💧"
    },
    {
      "id": "way-99524071-1/22031311233030211",
      "lat": 23.710123557260317,
      "lon": 120.48796356468506,
      "name": "虎尾溪",
      "decorType": "waterside",
      "decorName": "水邊",
      "decorIcon": "💧"
    },
    {
      "id": "way-99524071-1/22031311233033122",
      "lat": 23.710279595238585,
      "lon": 120.48724370234078,
      "name": "虎尾溪",
      "decorType": "waterside",
      "decorName": "水邊",
      "decorIcon": "💧"
    },
    {
      "id": "way-99524071-1/22031311233033123",
      "lat": 23.7104356303906,
      "lon": 120.48652383595106,
      "name": "虎尾溪",
      "decorType": "waterside",
      "decorName": "水邊",
      "decorIcon": "💧"
    },
    {
      "id": "way-99524071-1/22031311233033120",
      "lat": 23.709766050090906,
      "lon": 120.48652383595106,
      "name": "虎尾溪",
      "decorType": "waterside",
      "decorName": "水邊",
      "decorIcon": "💧"
    },
    {
      "id": "way-99524071-1/22031311233033131",
      "lat": 23.709922079065457,
      "lon": 120.48580396551631,
      "name": "虎尾溪",
      "decorType": "waterside",
      "decorName": "水邊",
      "decorIcon": "💧"
    },
    {
      "id": "way-99524071-1/22031311233033132",
      "lat": 23.71007810521358,
      "lon": 120.48508409103681,
      "name": "虎尾溪",
      "decorType": "waterside",
      "decorName": "水邊",
      "decorIcon": "💧"
    },
    {
      "id": "way-99524071-1/22031311233033101",
      "lat": 23.70940851776337,
      "lon": 120.48508409103681,
      "name": "虎尾溪",
      "decorType": "waterside",
      "decorName": "水邊",
      "decorIcon": "💧"
    },
    {
      "id": "way-99524071-1/22031311233033030",
      "lat": 23.709564537733932,
      "lon": 120.48436421251267,
      "name": "虎尾溪",
      "decorType": "waterside",
      "decorName": "水邊",
      "decorIcon": "💧"
    },
    {
      "id": "way-99524071-1/22031311233033032",
      "lat": 23.70905096027742,
      "lon": 120.48364432994435,
      "name": "虎尾溪",
      "decorType": "waterside",
      "decorName": "水邊",
      "decorIcon": "💧"
    },
    {
      "id": "way-99524071-1/22031311233032323",
      "lat": 23.708381365228895,
      "lon": 120.48364432994435,
      "name": "虎尾溪",
      "decorType": "waterside",
      "decorName": "水邊",
      "decorIcon": "💧"
    },
    {
      "id": "way-99524071-1/22031311233032320",
      "lat": 23.707711769732583,
      "lon": 120.48364432994435,
      "name": "虎尾溪",
      "decorType": "waterside",
      "decorName": "水邊",
      "decorIcon": "💧"
    },
    {
      "id": "way-99524071-1/22031311233032331",
      "lat": 23.70786777399675,
      "lon": 120.48292444333202,
      "name": "虎尾溪",
      "decorType": "waterside",
      "decorName": "水邊",
      "decorIcon": "💧"
    },
    {
      "id": "way-99524071-1/22031311233032302",
      "lat": 23.70719817470174,
      "lon": 120.48292444333202,
      "name": "虎尾溪",
      "decorType": "waterside",
      "decorName": "水邊",
      "decorIcon": "💧"
    },
    {
      "id": "way-99524071-1/22031311233032303",
      "lat": 23.706528574959407,
      "lon": 120.48292444333202,
      "name": "虎尾溪",
      "decorType": "waterside",
      "decorName": "水邊",
      "decorIcon": "💧"
    },
    {
      "id": "way-99524071-1/22031311233032300",
      "lat": 23.706684569694648,
      "lon": 120.48220455267608,
      "name": "虎尾溪",
      "decorType": "waterside",
      "decorName": "水邊",
      "decorIcon": "💧"
    },
    {
      "id": "way-99524071-1/22031311232323322",
      "lat": 23.706170954711443,
      "lon": 120.4814846579767,
      "name": "虎尾溪",
      "decorType": "waterside",
      "decorName": "水邊",
      "decorIcon": "💧"
    },
    {
      "id": "way-99524071-1/22031311232323323",
      "lat": 23.70550134737262,
      "lon": 120.4814846579767,
      "name": "虎尾溪",
      "decorType": "waterside",
      "decorName": "水邊",
      "decorIcon": "💧"
    },
    {
      "id": "way-99524071-1/22031311232323320",
      "lat": 23.705657329752242,
      "lon": 120.48076475923426,
      "name": "虎尾溪",
      "decorType": "waterside",
      "decorName": "水邊",
      "decorIcon": "💧"
    },
    {
      "id": "way-99524071-1/22031311232323302",
      "lat": 23.70514369481718,
      "lon": 120.48004485644896,
      "name": "虎尾溪",
      "decorType": "waterside",
      "decorName": "水邊",
      "decorIcon": "💧"
    },
    {
      "id": "way-99524071-1/22031311232323300",
      "lat": 23.70463004990639,
      "lon": 120.47932494962112,
      "name": "虎尾溪",
      "decorType": "waterside",
      "decorName": "水邊",
      "decorIcon": "💧"
    },
    {
      "id": "way-99524071-1/22031311232330011",
      "lat": 23.703960431174192,
      "lon": 120.47932494962112,
      "name": "虎尾溪",
      "decorType": "waterside",
      "decorName": "水邊",
      "decorIcon": "💧"
    },
    {
      "id": "way-99524071-1/22031311232330322",
      "lat": 23.70411639501999,
      "lon": 120.47860503875108,
      "name": "虎尾溪",
      "decorType": "waterside",
      "decorName": "水邊",
      "decorIcon": "💧"
    },
    {
      "id": "way-99524071-1/22031311232330320",
      "lat": 23.70360273015812,
      "lon": 120.47788512383903,
      "name": "虎尾溪",
      "decorType": "waterside",
      "decorName": "水邊",
      "decorIcon": "💧"
    },
    {
      "id": "way-99524071-1/22031311232330331",
      "lat": 23.70375868499904,
      "lon": 120.4771652048853,
      "name": "虎尾溪",
      "decorType": "waterside",
      "decorName": "水邊",
      "decorIcon": "💧"
    },
    {
      "id": "way-99524071-1/22031311232330302",
      "lat": 23.703089055320902,
      "lon": 120.4771652048853,
      "name": "虎尾溪",
      "decorType": "waterside",
      "decorName": "水邊",
      "decorIcon": "💧"
    },
    {
      "id": "way-99524071-1/22031311232330301",
      "lat": 23.703245003983685,
      "lon": 120.47644528189016,
      "name": "虎尾溪",
      "decorType": "waterside",
      "decorName": "水邊",
      "decorIcon": "💧"
    },
    {
      "id": "way-99524071-1/22031311232331010",
      "lat": 23.70340094981945,
      "lon": 120.47572535485392,
      "name": "虎尾溪",
      "decorType": "waterside",
      "decorName": "水邊",
      "decorIcon": "💧"
    },
    {
      "id": "way-99524071-1/22031311232331013",
      "lat": 23.703556892828082,
      "lon": 120.47500542377685,
      "name": "虎尾溪",
      "decorType": "waterside",
      "decorName": "水邊",
      "decorIcon": "💧"
    },
    {
      "id": "way-99524071-1/22031311232331020",
      "lat": 23.70371283300945,
      "lon": 120.47428548865923,
      "name": "虎尾溪",
      "decorType": "waterside",
      "decorName": "水邊",
      "decorIcon": "💧"
    },
    {
      "id": "way-99524071-1/22031311232331023",
      "lat": 23.703868770363428,
      "lon": 120.47356554950136,
      "name": "虎尾溪",
      "decorType": "waterside",
      "decorName": "水邊",
      "decorIcon": "💧"
    },
    {
      "id": "way-99524071-1/22031311232331132",
      "lat": 23.704024704889896,
      "lon": 120.47284560630351,
      "name": "虎尾溪",
      "decorType": "waterside",
      "decorName": "水邊",
      "decorIcon": "💧"
    },
    {
      "id": "way-99524071-1/22031311232331130",
      "lat": 23.70351098300763,
      "lon": 120.47212565906597,
      "name": "虎尾溪",
      "decorType": "waterside",
      "decorName": "水邊",
      "decorIcon": "💧"
    },
    {
      "id": "way-99524071-1/22031311232331210",
      "lat": 23.702997251149966,
      "lon": 120.47140570778902,
      "name": "虎尾溪",
      "decorType": "waterside",
      "decorName": "水邊",
      "decorIcon": "💧"
    },
    {
      "id": "way-99524071-1/22031311232331212",
      "lat": 23.702483509317034,
      "lon": 120.47068575247289,
      "name": "虎尾溪",
      "decorType": "waterside",
      "decorName": "水邊",
      "decorIcon": "💧"
    },
    {
      "id": "way-99524071-1/22031311232302112",
      "lat": 23.70196975750896,
      "lon": 120.46996579311804,
      "name": "虎尾溪",
      "decorType": "waterside",
      "decorName": "水邊",
      "decorIcon": "💧"
    },
    {
      "id": "way-99524071-1/22031311232302111",
      "lat": 23.70130009209201,
      "lon": 120.46996579311804,
      "name": "虎尾溪",
      "decorType": "waterside",
      "decorName": "水邊",
      "decorIcon": "💧"
    },
    {
      "id": "way-99524071-1/22031311232302110",
      "lat": 23.70145599572587,
      "lon": 120.46924582972451,
      "name": "虎尾溪",
      "decorType": "waterside",
      "decorName": "水邊",
      "decorIcon": "💧"
    },
    {
      "id": "way-99524071-1/22031311232301223",
      "lat": 23.700786326512716,
      "lon": 120.46924582972451,
      "name": "虎尾溪",
      "decorType": "waterside",
      "decorName": "水邊",
      "decorIcon": "💧"
    },
    {
      "id": "way-99524071-1/22031311232301230",
      "lat": 23.700942223967896,
      "lon": 120.46852586229272,
      "name": "虎尾溪",
      "decorType": "waterside",
      "decorName": "水邊",
      "decorIcon": "💧"
    },
    {
      "id": "way-99524071-1/22031311232301231",
      "lat": 23.70027255095871,
      "lon": 120.46852586229272,
      "name": "虎尾溪",
      "decorType": "waterside",
      "decorName": "水邊",
      "decorIcon": "💧"
    },
    {
      "id": "way-99524071-1/22031311232301232",
      "lat": 23.70042844223517,
      "lon": 120.467805890823,
      "name": "虎尾溪",
      "decorType": "waterside",
      "decorName": "水邊",
      "decorIcon": "💧"
    },
    {
      "id": "way-99524071-1/22031311232301303",
      "lat": 23.700584330683668,
      "lon": 120.46708591531552,
      "name": "虎尾溪",
      "decorType": "waterside",
      "decorName": "水邊",
      "decorIcon": "💧"
    },
    {
      "id": "way-99524071-1/22031311232301310",
      "lat": 23.69991465052781,
      "lon": 120.46708591531552,
      "name": "虎尾溪",
      "decorType": "waterside",
      "decorName": "水邊",
      "decorIcon": "💧"
    },
    {
      "id": "way-99524071-1/22031311232301313",
      "lat": 23.700070532797493,
      "lon": 120.46636593577068,
      "name": "虎尾溪",
      "decorType": "waterside",
      "decorName": "水邊",
      "decorIcon": "💧"
    },
    {
      "id": "way-99524071-1/22031311232301320",
      "lat": 23.700226412239044,
      "lon": 120.46564595218865,
      "name": "虎尾溪",
      "decorType": "waterside",
      "decorName": "水邊",
      "decorIcon": "💧"
    },
    {
      "id": "way-99524071-1/22031311232301323",
      "lat": 23.700382288852346,
      "lon": 120.46492596456983,
      "name": "虎尾溪",
      "decorType": "waterside",
      "decorName": "水邊",
      "decorIcon": "💧"
    },
    {
      "id": "way-99524071-1/22031311232301322",
      "lat": 23.699712598199397,
      "lon": 120.46492596456983,
      "name": "虎尾溪",
      "decorType": "waterside",
      "decorName": "水邊",
      "decorIcon": "💧"
    },
    {
      "id": "way-99524071-1/22031311232300233",
      "lat": 23.699868468633728,
      "lon": 120.46420597291439,
      "name": "虎尾溪",
      "decorType": "waterside",
      "decorName": "水邊",
      "decorIcon": "💧"
    },
    {
      "id": "way-99524071-1/22031311232300232",
      "lat": 23.700024336239643,
      "lon": 120.46348597722266,
      "name": "虎尾溪",
      "decorType": "waterside",
      "decorName": "水邊",
      "decorIcon": "💧"
    },
    {
      "id": "way-99524071-1/22031311232300201",
      "lat": 23.700180201017012,
      "lon": 120.462765977495,
      "name": "虎尾溪",
      "decorType": "waterside",
      "decorName": "水邊",
      "decorIcon": "💧"
    },
    {
      "id": "way-99524071-1/22031311232300200",
      "lat": 23.700336062965707,
      "lon": 120.46204597373156,
      "name": "虎尾溪",
      "decorType": "waterside",
      "decorName": "水邊",
      "decorIcon": "💧"
    },
    {
      "id": "way-99524071-1/22031311232300133",
      "lat": 23.700491922085604,
      "lon": 120.4613259659327,
      "name": "虎尾溪",
      "decorType": "waterside",
      "decorName": "水邊",
      "decorIcon": "💧"
    },
    {
      "id": "way-99524071-1/22031311232300022",
      "lat": 23.699822214235244,
      "lon": 120.4613259659327,
      "name": "虎尾溪",
      "decorType": "waterside",
      "decorName": "水邊",
      "decorIcon": "💧"
    },
    {
      "id": "way-99524071-1/22031311232300023",
      "lat": 23.699978067175945,
      "lon": 120.46060595409875,
      "name": "虎尾溪",
      "decorType": "waterside",
      "decorName": "水邊",
      "decorIcon": "💧"
    },
    {
      "id": "way-99524071-1/22031311232300030",
      "lat": 23.700133917287676,
      "lon": 120.45988593822983,
      "name": "虎尾溪",
      "decorType": "waterside",
      "decorName": "水邊",
      "decorIcon": "💧"
    },
    {
      "id": "way-99524071-1/22031311232300031",
      "lat": 23.699464202291683,
      "lon": 120.45988593822983,
      "name": "虎尾溪",
      "decorType": "waterside",
      "decorName": "水邊",
      "decorIcon": "💧"
    },
    {
      "id": "way-99524071-1/22031311232300032",
      "lat": 23.69962004622412,
      "lon": 120.45916591832645,
      "name": "虎尾溪",
      "decorType": "waterside",
      "decorName": "水邊",
      "decorIcon": "💧"
    },
    {
      "id": "way-99524071-1/22031311232233323",
      "lat": 23.699775887327416,
      "lon": 120.45844589438877,
      "name": "虎尾溪",
      "decorType": "waterside",
      "decorName": "水邊",
      "decorIcon": "💧"
    },
    {
      "id": "way-99524071-1/22031311232233330",
      "lat": 23.699106165186045,
      "lon": 120.45844589438877,
      "name": "虎尾溪",
      "decorType": "waterside",
      "decorName": "水邊",
      "decorIcon": "💧"
    },
    {
      "id": "way-99524071-1/22031311232233331",
      "lat": 23.69926200010995,
      "lon": 120.45772586641704,
      "name": "虎尾溪",
      "decorType": "waterside",
      "decorName": "水邊",
      "decorIcon": "💧"
    },
    {
      "id": "way-99524071-1/22031311232233301",
      "lat": 23.698748102918035,
      "lon": 120.45700583441158,
      "name": "虎尾溪",
      "decorType": "waterside",
      "decorName": "水邊",
      "decorIcon": "💧"
    },
    {
      "id": "way-99524071-1/22031311232233300",
      "lat": 23.698903928833147,
      "lon": 120.45628579837268,
      "name": "虎尾溪",
      "decorType": "waterside",
      "decorName": "水邊",
      "decorIcon": "💧"
    },
    {
      "id": "way-99524071-1/22031311303300011",
      "lat": 23.698234195751805,
      "lon": 120.45628579837268,
      "name": "虎尾溪",
      "decorType": "waterside",
      "decorName": "水邊",
      "decorIcon": "💧"
    },
    {
      "id": "way-99524071-1/22031311303300322",
      "lat": 23.698390015487377,
      "lon": 120.45556575830062,
      "name": "虎尾溪",
      "decorType": "waterside",
      "decorName": "水邊",
      "decorIcon": "💧"
    },
    {
      "id": "way-99524071-1/22031311303300321",
      "lat": 23.697720278611392,
      "lon": 120.45556575830062,
      "name": "虎尾溪",
      "decorType": "waterside",
      "decorName": "水邊",
      "decorIcon": "💧"
    },
    {
      "id": "way-99524071-1/22031311303300320",
      "lat": 23.697876092167373,
      "lon": 120.4548457141957,
      "name": "虎尾溪",
      "decorType": "waterside",
      "decorName": "水邊",
      "decorIcon": "💧"
    },
    {
      "id": "way-99524071-1/22031311303300331",
      "lat": 23.69803190289378,
      "lon": 120.45412566605825,
      "name": "虎尾溪",
      "decorType": "waterside",
      "decorName": "水邊",
      "decorIcon": "💧"
    },
    {
      "id": "way-99524071-1/22031311303300332",
      "lat": 23.698187710790503,
      "lon": 120.45340561388844,
      "name": "虎尾溪",
      "decorType": "waterside",
      "decorName": "水邊",
      "decorIcon": "💧"
    },
    {
      "id": "way-99524071-1/22031311303301003",
      "lat": 23.698343515857395,
      "lon": 120.45268555768666,
      "name": "虎尾溪",
      "decorType": "waterside",
      "decorName": "水邊",
      "decorIcon": "💧"
    },
    {
      "id": "way-99524071-1/22031311303301002",
      "lat": 23.698499318094342,
      "lon": 120.4519654974531,
      "name": "虎尾溪",
      "decorType": "waterside",
      "decorName": "水邊",
      "decorIcon": "💧"
    },
    {
      "id": "way-99524071-1/22031311303301031",
      "lat": 23.698655117501225,
      "lon": 120.45124543318815,
      "name": "虎尾溪",
      "decorType": "waterside",
      "decorName": "水邊",
      "decorIcon": "💧"
    },
    {
      "id": "way-99524071-1/22031311303301030",
      "lat": 23.698810914077903,
      "lon": 120.45052536489197,
      "name": "虎尾溪",
      "decorType": "waterside",
      "decorName": "水邊",
      "decorIcon": "💧"
    },
    {
      "id": "way-99524071-1/22031311303301132",
      "lat": 23.698296943704996,
      "lon": 120.44980529256497,
      "name": "虎尾溪",
      "decorType": "waterside",
      "decorName": "水邊",
      "decorIcon": "💧"
    },
    {
      "id": "way-99524071-1/22031311303301131",
      "lat": 23.698452731271395,
      "lon": 120.44908521620732,
      "name": "虎尾溪",
      "decorType": "waterside",
      "decorName": "水邊",
      "decorIcon": "💧"
    },
    {
      "id": "way-99524071-1/22031311303301120",
      "lat": 23.69860851600731,
      "lon": 120.44836513581947,
      "name": "虎尾溪",
      "decorType": "waterside",
      "decorName": "水邊",
      "decorIcon": "💧"
    },
    {
      "id": "way-99524071-1/22031311303301121",
      "lat": 23.6987642979126,
      "lon": 120.44764505140148,
      "name": "虎尾溪",
      "decorType": "waterside",
      "decorName": "水邊",
      "decorIcon": "💧"
    },
    {
      "id": "way-99524071-1/22031311303332212",
      "lat": 23.698920076987147,
      "lon": 120.44692496295386,
      "name": "虎尾溪",
      "decorType": "waterside",
      "decorName": "水邊",
      "decorIcon": "💧"
    },
    {
      "id": "way-99524071-1/22031311303332210",
      "lat": 23.698406071919646,
      "lon": 120.44620487047666,
      "name": "虎尾溪",
      "decorType": "waterside",
      "decorName": "水邊",
      "decorIcon": "💧"
    },
    {
      "id": "way-99524071-1/22031311303332203",
      "lat": 23.698561841983143,
      "lon": 120.4454847739704,
      "name": "虎尾溪",
      "decorType": "waterside",
      "decorName": "水邊",
      "decorIcon": "💧"
    },
    {
      "id": "way-99524071-1/22031311303332200",
      "lat": 23.6987176092156,
      "lon": 120.4447646734352,
      "name": "虎尾溪",
      "decorType": "waterside",
      "decorName": "水邊",
      "decorIcon": "💧"
    },
    {
      "id": "way-99524071-1/22031311303332311",
      "lat": 23.698873373616888,
      "lon": 120.44404456887139,
      "name": "虎尾溪",
      "decorType": "waterside",
      "decorName": "水邊",
      "decorIcon": "💧"
    },
    {
      "id": "way-99524071-1/22031311303332312",
      "lat": 23.699029135186883,
      "lon": 120.44332446027931,
      "name": "虎尾溪",
      "decorType": "waterside",
      "decorName": "水邊",
      "decorIcon": "💧"
    },
    {
      "id": "way-99524071-1/22031311303332321",
      "lat": 23.699184893925466,
      "lon": 120.4426043476592,
      "name": "虎尾溪",
      "decorType": "waterside",
      "decorName": "水邊",
      "decorIcon": "💧"
    },
    {
      "id": "way-99524071-1/22031311303332011",
      "lat": 23.69867084798197,
      "lon": 120.44188423101133,
      "name": "虎尾溪",
      "decorType": "waterside",
      "decorName": "水邊",
      "decorIcon": "💧"
    },
    {
      "id": "way-99524071-1/22031311303333100",
      "lat": 23.698826597708543,
      "lon": 120.44116411033599,
      "name": "虎尾溪",
      "decorType": "waterside",
      "decorName": "水邊",
      "decorIcon": "💧"
    },
    {
      "id": "way-99524071-1/22031311303333101",
      "lat": 23.69898234460341,
      "lon": 120.44044398563346,
      "name": "虎尾溪",
      "decorType": "waterside",
      "decorName": "水邊",
      "decorIcon": "💧"
    },
    {
      "id": "way-99524071-1/22031311303333030",
      "lat": 23.699652153151465,
      "lon": 120.44044398563346,
      "name": "虎尾溪",
      "decorType": "waterside",
      "decorName": "水邊",
      "decorIcon": "💧"
    },
    {
      "id": "way-99524071-1/22031311303333023",
      "lat": 23.699807900563133,
      "lon": 120.43972385690404,
      "name": "虎尾溪",
      "decorType": "waterside",
      "decorName": "水邊",
      "decorIcon": "💧"
    },
    {
      "id": "way-99524071-1/22031311303333022",
      "lat": 23.699963645142752,
      "lon": 120.43900372414805,
      "name": "虎尾溪",
      "decorType": "waterside",
      "decorName": "水邊",
      "decorIcon": "💧"
    },
    {
      "id": "way-99524071-1/22031311303333311",
      "lat": 23.700119386890204,
      "lon": 120.43828358736573,
      "name": "虎尾溪",
      "decorType": "waterside",
      "decorName": "水邊",
      "decorIcon": "💧"
    },
    {
      "id": "way-99524071-1/22031311303333310",
      "lat": 23.700275125805366,
      "lon": 120.43756344655736,
      "name": "虎尾溪",
      "decorType": "waterside",
      "decorName": "水邊",
      "decorIcon": "💧"
    },
    {
      "id": "way-99524071-1/22031311303333303",
      "lat": 23.70043086188811,
      "lon": 120.43684330172323,
      "name": "虎尾溪",
      "decorType": "waterside",
      "decorName": "水邊",
      "decorIcon": "💧"
    },
    {
      "id": "way-99524071-1/22031311303333300",
      "lat": 23.700586595138308,
      "lon": 120.43612315286367,
      "name": "虎尾溪",
      "decorType": "waterside",
      "decorName": "水邊",
      "decorIcon": "💧"
    },
    {
      "id": "way-99524071-1/22031311310000011",
      "lat": 23.700742325555833,
      "lon": 120.43540299997892,
      "name": "虎尾溪",
      "decorType": "waterside",
      "decorName": "水邊",
      "decorIcon": "💧"
    },
    {
      "id": "way-99524071-1/22031311310000322",
      "lat": 23.700072493569035,
      "lon": 120.43540299997892,
      "name": "虎尾溪",
      "decorType": "waterside",
      "decorName": "水邊",
      "decorIcon": "💧"
    },
    {
      "id": "way-99524071-1/22031311310000321",
      "lat": 23.700228217805698,
      "lon": 120.43468284306925,
      "name": "虎尾溪",
      "decorType": "waterside",
      "decorName": "水邊",
      "decorIcon": "💧"
    },
    {
      "id": "way-99524071-1/22031311310000313",
      "lat": 23.69971410008056,
      "lon": 120.43396268213496,
      "name": "虎尾溪",
      "decorType": "waterside",
      "decorName": "水邊",
      "decorIcon": "💧"
    },
    {
      "id": "way-99524071-1/22031311310000310",
      "lat": 23.69986981530342,
      "lon": 120.43324251717638,
      "name": "虎尾溪",
      "decorType": "waterside",
      "decorName": "水邊",
      "decorIcon": "💧"
    },
    {
      "id": "way-99524071-1/22031311310000303",
      "lat": 23.699199972380534,
      "lon": 120.43324251717638,
      "name": "虎尾溪",
      "decorType": "waterside",
      "decorName": "水邊",
      "decorIcon": "💧"
    },
    {
      "id": "way-99524071-1/22031311310000232",
      "lat": 23.69935568142238,
      "lon": 120.43252234819374,
      "name": "虎尾溪",
      "decorType": "waterside",
      "decorName": "水邊",
      "decorIcon": "💧"
    },
    {
      "id": "way-99524071-1/22031311310000233",
      "lat": 23.698685834705767,
      "lon": 120.43252234819374,
      "name": "虎尾溪",
      "decorType": "waterside",
      "decorName": "水邊",
      "decorIcon": "💧"
    },
    {
      "id": "way-99524071-1/22031311310000230",
      "lat": 23.698841537566555,
      "lon": 120.43180217518733,
      "name": "虎尾溪",
      "decorType": "waterside",
      "decorName": "水邊",
      "decorIcon": "💧"
    },
    {
      "id": "way-99524071-1/22031311310001323",
      "lat": 23.698171687056384,
      "lon": 120.43180217518733,
      "name": "虎尾溪",
      "decorType": "waterside",
      "decorName": "水邊",
      "decorIcon": "💧"
    },
    {
      "id": "way-99524071-1/22031311310001330",
      "lat": 23.698327383736054,
      "lon": 120.43108199815748,
      "name": "虎尾溪",
      "decorType": "waterside",
      "decorName": "水邊",
      "decorIcon": "💧"
    },
    {
      "id": "way-99524071-1/22031311310001332",
      "lat": 23.69781321993101,
      "lon": 120.43036181710437,
      "name": "虎尾溪",
      "decorType": "waterside",
      "decorName": "水邊",
      "decorIcon": "💧"
    },
    {
      "id": "way-99524071-1/22031311310001301",
      "lat": 23.69714336183428,
      "lon": 120.43036181710437,
      "name": "虎尾溪",
      "decorType": "waterside",
      "decorName": "水邊",
      "decorIcon": "💧"
    },
    {
      "id": "way-99524071-1/22031311310002032",
      "lat": 23.697299046151567,
      "lon": 120.42964163202839,
      "name": "虎尾溪",
      "decorType": "waterside",
      "decorName": "水邊",
      "decorIcon": "💧"
    },
    {
      "id": "way-99524071-1/22031311310002033",
      "lat": 23.696629184261823,
      "lon": 120.42964163202839,
      "name": "虎尾溪",
      "decorType": "waterside",
      "decorName": "水邊",
      "decorIcon": "💧"
    },
    {
      "id": "way-99524071-1/22031311310002030",
      "lat": 23.696784862397838,
      "lon": 120.42892144292983,
      "name": "虎尾溪",
      "decorType": "waterside",
      "decorName": "水邊",
      "decorIcon": "💧"
    },
    {
      "id": "way-99524071-1/22031311310002101",
      "lat": 23.696114996715266,
      "lon": 120.42892144292983,
      "name": "虎尾溪",
      "decorType": "waterside",
      "decorName": "水邊",
      "decorIcon": "💧"
    },
    {
      "id": "way-99524071-1/22031311310002132",
      "lat": 23.696270668669964,
      "lon": 120.42820124980892,
      "name": "虎尾溪",
      "decorType": "waterside",
      "decorName": "水邊",
      "decorIcon": "💧"
    },
    {
      "id": "way-99524071-1/22031311310002131",
      "lat": 23.695600799194743,
      "lon": 120.42820124980892,
      "name": "虎尾溪",
      "decorType": "waterside",
      "decorName": "水邊",
      "decorIcon": "💧"
    },
    {
      "id": "way-99524071-1/22031311310002130",
      "lat": 23.69575646496807,
      "lon": 120.42748105266594,
      "name": "虎尾溪",
      "decorType": "waterside",
      "decorName": "水邊",
      "decorIcon": "💧"
    },
    {
      "id": "way-99524071-1/22031311310002123",
      "lat": 23.69508659170038,
      "lon": 120.42748105266594,
      "name": "虎尾溪",
      "decorType": "waterside",
      "decorName": "水邊",
      "decorIcon": "💧"
    },
    {
      "id": "way-99524071-1/22031311310002210",
      "lat": 23.695242251292292,
      "lon": 120.42676085150117,
      "name": "虎尾溪",
      "decorType": "waterside",
      "decorName": "水邊",
      "decorIcon": "💧"
    },
    {
      "id": "way-99524071-1/22031311310002211",
      "lat": 23.69457237423232,
      "lon": 120.42676085150117,
      "name": "虎尾溪",
      "decorType": "waterside",
      "decorName": "水邊",
      "decorIcon": "💧"
    },
    {
      "id": "way-99524071-1/22031311310002212",
      "lat": 23.69472802764275,
      "lon": 120.42604064631502,
      "name": "虎尾溪",
      "decorType": "waterside",
      "decorName": "水邊",
      "decorIcon": "💧"
    },
    {
      "id": "way-99524071-1/22031311310031121",
      "lat": 23.694058146790674,
      "lon": 120.42604064631502,
      "name": "虎尾溪",
      "decorType": "waterside",
      "decorName": "水邊",
      "decorIcon": "💧"
    },
    {
      "id": "way-99524071-1/22031311310031120",
      "lat": 23.693388265494836,
      "lon": 120.42604064631502,
      "name": "虎尾溪",
      "decorType": "waterside",
      "decorName": "水邊",
      "decorIcon": "💧"
    },
    {
      "id": "way-99524071-1/22031311310031113",
      "lat": 23.693543909375585,
      "lon": 120.42532043710759,
      "name": "虎尾溪",
      "decorType": "waterside",
      "decorName": "水邊",
      "decorIcon": "💧"
    },
    {
      "id": "way-99524071-1/22031311310031102",
      "lat": 23.69287402428801,
      "lon": 120.42532043710759,
      "name": "虎尾溪",
      "decorType": "waterside",
      "decorName": "水邊",
      "decorIcon": "💧"
    },
    {
      "id": "way-99524071-1/22031311310031100",
      "lat": 23.692359773108052,
      "lon": 120.42460022387928,
      "name": "虎尾溪",
      "decorType": "waterside",
      "decorName": "水邊",
      "decorIcon": "💧"
    },
    {
      "id": "way-99524071-1/22031311310031033",
      "lat": 23.691689883785806,
      "lon": 120.42460022387928,
      "name": "虎尾溪",
      "decorType": "waterside",
      "decorName": "水邊",
      "decorIcon": "💧"
    },
    {
      "id": "way-99524071-1/22031311310020103",
      "lat": 23.69117561884165,
      "lon": 120.42388000663038,
      "name": "虎尾溪",
      "decorType": "waterside",
      "decorName": "水邊",
      "decorIcon": "💧"
    },
    {
      "id": "way-99524071-1/22031311310020110",
      "lat": 23.690505725285576,
      "lon": 120.42388000663038,
      "name": "虎尾溪",
      "decorType": "waterside",
      "decorName": "水邊",
      "decorIcon": "💧"
    },
    {
      "id": "way-99524071-1/22031311310020111",
      "lat": 23.68983583128712,
      "lon": 120.42388000663038,
      "name": "虎尾溪",
      "decorType": "waterside",
      "decorName": "水邊",
      "decorIcon": "💧"
    },
    {
      "id": "way-99524071-1/22031311310020112",
      "lat": 23.68999144657792,
      "lon": 120.42315978536107,
      "name": "虎尾溪",
      "decorType": "waterside",
      "decorName": "水邊",
      "decorIcon": "💧"
    },
    {
      "id": "way-99524071-1/22031311310023221",
      "lat": 23.689321548788836,
      "lon": 120.42315978536107,
      "name": "虎尾溪",
      "decorType": "waterside",
      "decorName": "水邊",
      "decorIcon": "💧"
    },
    {
      "id": "way-99524071-1/22031311310023220",
      "lat": 23.688651650557844,
      "lon": 120.42315978536107,
      "name": "虎尾溪",
      "decorType": "waterside",
      "decorName": "水邊",
      "decorIcon": "💧"
    },
    {
      "id": "way-99524071-1/22031311310023213",
      "lat": 23.688807256318352,
      "lon": 120.42243956007178,
      "name": "虎尾溪",
      "decorType": "waterside",
      "decorName": "水邊",
      "decorIcon": "💧"
    },
    {
      "id": "way-99524071-1/22031311310023202",
      "lat": 23.6881373542971,
      "lon": 120.42243956007178,
      "name": "虎尾溪",
      "decorType": "waterside",
      "decorName": "水邊",
      "decorIcon": "💧"
    },
    {
      "id": "way-99524071-1/22031311310023201",
      "lat": 23.687467451834397,
      "lon": 120.42243956007178,
      "name": "虎尾溪",
      "decorType": "waterside",
      "decorName": "水邊",
      "decorIcon": "💧"
    },
    {
      "id": "way-99524071-1/22031311310023200",
      "lat": 23.68762304806447,
      "lon": 120.4217193307627,
      "name": "虎尾溪",
      "decorType": "waterside",
      "decorName": "水邊",
      "decorIcon": "💧"
    },
    {
      "id": "way-99524071-1/22031311310023311",
      "lat": 23.686953141811887,
      "lon": 120.4217193307627,
      "name": "虎尾溪",
      "decorType": "waterside",
      "decorName": "水邊",
      "decorIcon": "💧"
    },
    {
      "id": "way-99524071-1/22031311310023312",
      "lat": 23.686283235118314,
      "lon": 120.4217193307627,
      "name": "虎尾溪",
      "decorType": "waterside",
      "decorName": "水邊",
      "decorIcon": "💧"
    },
    {
      "id": "way-99524071-1/22031311310023021",
      "lat": 23.686438821817795,
      "lon": 120.4209990974341,
      "name": "虎尾溪",
      "decorType": "waterside",
      "decorName": "水邊",
      "decorIcon": "💧"
    },
    {
      "id": "way-99524071-1/22031311310023012",
      "lat": 23.6857689113347,
      "lon": 120.4209990974341,
      "name": "虎尾溪",
      "decorType": "waterside",
      "decorName": "水邊",
      "decorIcon": "💧"
    },
    {
      "id": "way-99524071-1/22031311310023011",
      "lat": 23.685099000411082,
      "lon": 120.4209990974341,
      "name": "虎尾溪",
      "decorType": "waterside",
      "decorName": "水邊",
      "decorIcon": "💧"
    },
    {
      "id": "way-99524071-1/22031311310023010",
      "lat": 23.685254577579826,
      "lon": 120.42027886008628,
      "name": "虎尾溪",
      "decorType": "waterside",
      "decorName": "水邊",
      "decorIcon": "💧"
    },
    {
      "id": "way-99524071-1/22031311310132301",
      "lat": 23.684584662867064,
      "lon": 120.42027886008628,
      "name": "虎尾溪",
      "decorType": "waterside",
      "decorName": "水邊",
      "decorIcon": "💧"
    },
    {
      "id": "way-99524071-1/22031311310132302",
      "lat": 23.683914747714237,
      "lon": 120.42027886008628,
      "name": "虎尾溪",
      "decorType": "waterside",
      "decorName": "水邊",
      "decorIcon": "💧"
    },
    {
      "id": "way-99524071-1/22031311310132320",
      "lat": 23.683400396410487,
      "lon": 120.41955861871963,
      "name": "虎尾溪",
      "decorType": "waterside",
      "decorName": "水邊",
      "decorIcon": "💧"
    },
    {
      "id": "way-99524071-1/22031311310132321",
      "lat": 23.68273047702929,
      "lon": 120.41955861871963,
      "name": "虎尾溪",
      "decorType": "waterside",
      "decorName": "水邊",
      "decorIcon": "💧"
    },
    {
      "id": "way-99524071-1/22031311310132012",
      "lat": 23.682060557208764,
      "lon": 120.41955861871963,
      "name": "虎尾溪",
      "decorType": "waterside",
      "decorName": "水邊",
      "decorIcon": "💧"
    },
    {
      "id": "way-99524071-1/22031311310132011",
      "lat": 23.682216111966483,
      "lon": 120.41883837333432,
      "name": "虎尾溪",
      "decorType": "waterside",
      "decorName": "水邊",
      "decorIcon": "💧"
    },
    {
      "id": "way-99524071-1/22031311310132010",
      "lat": 23.681546188357746,
      "lon": 120.41883837333432,
      "name": "虎尾溪",
      "decorType": "waterside",
      "decorName": "水邊",
      "decorIcon": "💧"
    },
    {
      "id": "way-99524071-1/22031311310132003",
      "lat": 23.68087626431015,
      "lon": 120.41883837333432,
      "name": "虎尾溪",
      "decorType": "waterside",
      "decorName": "水邊",
      "decorIcon": "💧"
    },
    {
      "id": "way-99524071-1/22031311310132000",
      "lat": 23.68020633982397,
      "lon": 120.41883837333432,
      "name": "虎尾溪",
      "decorType": "waterside",
      "decorName": "水邊",
      "decorIcon": "💧"
    },
    {
      "id": "way-99524071-1/22031311310133111",
      "lat": 23.680361881701128,
      "lon": 120.41811812393064,
      "name": "虎尾溪",
      "decorType": "waterside",
      "decorName": "水邊",
      "decorIcon": "💧"
    },
    {
      "id": "way-99524071-1/22031311310130222",
      "lat": 23.679691953427287,
      "lon": 120.41811812393064,
      "name": "虎尾溪",
      "decorType": "waterside",
      "decorName": "水邊",
      "decorIcon": "💧"
    },
    {
      "id": "way-99524071-1/22031311310130223",
      "lat": 23.67902202471533,
      "lon": 120.41811812393064,
      "name": "虎尾溪",
      "decorType": "waterside",
      "decorName": "水邊",
      "decorIcon": "💧"
    },
    {
      "id": "way-99524071-1/22031311310130230",
      "lat": 23.678352095565522,
      "lon": 120.41811812393064,
      "name": "虎尾溪",
      "decorType": "waterside",
      "decorName": "水邊",
      "decorIcon": "💧"
    },
    {
      "id": "way-99524071-1/22031311310131323",
      "lat": 23.678196563736694,
      "lon": 120.41883837333432,
      "name": "虎尾溪",
      "decorType": "waterside",
      "decorName": "水邊",
      "decorIcon": "💧"
    },
    {
      "id": "way-99524071-1/22031311310130233",
      "lat": 23.677682165978155,
      "lon": 120.41811812393064,
      "name": "虎尾溪",
      "decorType": "waterside",
      "decorName": "水邊",
      "decorIcon": "💧"
    },
    {
      "id": "way-99524071-1/22031311310130300",
      "lat": 23.67701223595349,
      "lon": 120.41811812393064,
      "name": "虎尾溪",
      "decorType": "waterside",
      "decorName": "水邊",
      "decorIcon": "💧"
    },
    {
      "id": "way-99524071-1/22031311310130301",
      "lat": 23.676342305491808,
      "lon": 120.41811812393064,
      "name": "虎尾溪",
      "decorType": "waterside",
      "decorName": "水邊",
      "decorIcon": "💧"
    },
    {
      "id": "way-99524071-1/22031311310130302",
      "lat": 23.676497824439107,
      "lon": 120.41739787050892,
      "name": "虎尾溪",
      "decorType": "waterside",
      "decorName": "水邊",
      "decorIcon": "💧"
    },
    {
      "id": "way-99524071-1/22031311310130331",
      "lat": 23.675827890190888,
      "lon": 120.41739787050892,
      "name": "虎尾溪",
      "decorType": "waterside",
      "decorName": "水邊",
      "decorIcon": "💧"
    },
    {
      "id": "way-99524071-1/22031311310130330",
      "lat": 23.675157955506116,
      "lon": 120.41739787050892,
      "name": "虎尾溪",
      "decorType": "waterside",
      "decorName": "水邊",
      "decorIcon": "💧"
    },
    {
      "id": "way-99524071-1/22031311310123230",
      "lat": 23.67464352645041,
      "lon": 120.4166776130694,
      "name": "虎尾溪",
      "decorType": "waterside",
      "decorName": "水邊",
      "decorIcon": "💧"
    },
    {
      "id": "way-99524071-1/22031311310123231",
      "lat": 23.673973587543376,
      "lon": 120.4166776130694,
      "name": "虎尾溪",
      "decorType": "waterside",
      "decorName": "水邊",
      "decorIcon": "💧"
    },
    {
      "id": "way-99524071-1/22031311310123232",
      "lat": 23.674129087426405,
      "lon": 120.4159573516124,
      "name": "虎尾溪",
      "decorType": "waterside",
      "decorName": "水邊",
      "decorIcon": "💧"
    },
    {
      "id": "way-99524071-1/22031311310123201",
      "lat": 23.67345914473357,
      "lon": 120.4159573516124,
      "name": "虎尾溪",
      "decorType": "waterside",
      "decorName": "水邊",
      "decorIcon": "💧"
    },
    {
      "id": "way-99524071-1/22031311310123310",
      "lat": 23.673614638434234,
      "lon": 120.41523708613829,
      "name": "虎尾溪",
      "decorType": "waterside",
      "decorName": "水邊",
      "decorIcon": "💧"
    },
    {
      "id": "way-99524071-1/22031311310123311",
      "lat": 23.672944691955777,
      "lon": 120.41523708613829,
      "name": "虎尾溪",
      "decorType": "waterside",
      "decorName": "水邊",
      "decorIcon": "💧"
    },
    {
      "id": "way-99524071-1/22031311310123312",
      "lat": 23.67310017947401,
      "lon": 120.41451681664716,
      "name": "虎尾溪",
      "decorType": "waterside",
      "decorName": "水邊",
      "decorIcon": "💧"
    },
    {
      "id": "way-99524071-1/22031311310123021",
      "lat": 23.672430229210125,
      "lon": 120.41451681664716,
      "name": "虎尾溪",
      "decorType": "waterside",
      "decorName": "水邊",
      "decorIcon": "💧"
    },
    {
      "id": "way-99524071-1/22031311310123012",
      "lat": 23.67258571054589,
      "lon": 120.41379654313943,
      "name": "虎尾溪",
      "decorType": "waterside",
      "decorName": "水邊",
      "decorIcon": "💧"
    },
    {
      "id": "way-99524071-1/22031311310123013",
      "lat": 23.671915756496745,
      "lon": 120.41379654313943,
      "name": "虎尾溪",
      "decorType": "waterside",
      "decorName": "水邊",
      "decorIcon": "💧"
    },
    {
      "id": "way-99524071-1/22031311310123010",
      "lat": 23.672071231649984,
      "lon": 120.41307626561536,
      "name": "虎尾溪",
      "decorType": "waterside",
      "decorName": "水邊",
      "decorIcon": "💧"
    },
    {
      "id": "way-99524071-1/22031311310123003",
      "lat": 23.67140127381576,
      "lon": 120.41307626561536,
      "name": "虎尾溪",
      "decorType": "waterside",
      "decorName": "水邊",
      "decorIcon": "💧"
    },
    {
      "id": "way-99524071-1/22031311310210330",
      "lat": 23.67155674278643,
      "lon": 120.41235598407519,
      "name": "虎尾溪",
      "decorType": "waterside",
      "decorName": "水邊",
      "decorIcon": "💧"
    },
    {
      "id": "way-99524071-1/22031311310210333",
      "lat": 23.670886781167322,
      "lon": 120.41235598407519,
      "name": "虎尾溪",
      "decorType": "waterside",
      "decorName": "水邊",
      "decorIcon": "💧"
    },
    {
      "id": "way-99524071-1/22031311310211003",
      "lat": 23.670372278551543,
      "lon": 120.41163569851926,
      "name": "虎尾溪",
      "decorType": "waterside",
      "decorName": "水邊",
      "decorIcon": "💧"
    },
    {
      "id": "way-99524071-1/22031311310211013",
      "lat": 23.669857765968565,
      "lon": 120.41091540894786,
      "name": "虎尾溪",
      "decorType": "waterside",
      "decorName": "水邊",
      "decorIcon": "💧"
    },
    {
      "id": "way-99524071-1/22031311310211021",
      "lat": 23.66934324341851,
      "lon": 120.41019511536126,
      "name": "虎尾溪",
      "decorType": "waterside",
      "decorName": "水邊",
      "decorIcon": "💧"
    },
    {
      "id": "way-99524071-1/22031311310211312",
      "lat": 23.66949868765837,
      "lon": 120.40947481775976,
      "name": "虎尾溪",
      "decorType": "waterside",
      "decorName": "水邊",
      "decorIcon": "💧"
    },
    {
      "id": "way-99524071-1/22031311310211311",
      "lat": 23.668828710901508,
      "lon": 120.40947481775976,
      "name": "虎尾溪",
      "decorType": "waterside",
      "decorName": "水邊",
      "decorIcon": "💧"
    },
    {
      "id": "way-99524071-1/22031311310211310",
      "lat": 23.668984148958543,
      "lon": 120.40875451614357,
      "name": "虎尾溪",
      "decorType": "waterside",
      "decorName": "水邊",
      "decorIcon": "💧"
    },
    {
      "id": "way-99524071-1/22031311310211201",
      "lat": 23.668314168417705,
      "lon": 120.40875451614357,
      "name": "虎尾溪",
      "decorType": "waterside",
      "decorName": "水邊",
      "decorIcon": "💧"
    },
    {
      "id": "way-99524071-1/22031311310211232",
      "lat": 23.668469600291857,
      "lon": 120.40803421051305,
      "name": "虎尾溪",
      "decorType": "waterside",
      "decorName": "水邊",
      "decorIcon": "💧"
    },
    {
      "id": "way-99524071-1/22031311310211231",
      "lat": 23.66779961596722,
      "lon": 120.40803421051305,
      "name": "虎尾溪",
      "decorType": "waterside",
      "decorName": "水邊",
      "decorIcon": "💧"
    },
    {
      "id": "way-99524071-1/22031311310211230",
      "lat": 23.66795504165844,
      "lon": 120.40731390086847,
      "name": "虎尾溪",
      "decorType": "waterside",
      "decorName": "水邊",
      "decorIcon": "💧"
    },
    {
      "id": "way-99524071-1/22031311310211223",
      "lat": 23.667285053550177,
      "lon": 120.40731390086847,
      "name": "虎尾溪",
      "decorType": "waterside",
      "decorName": "水邊",
      "decorIcon": "💧"
    },
    {
      "id": "way-99524071-1/22031311310212110",
      "lat": 23.667440473058424,
      "lon": 120.40659358721007,
      "name": "虎尾溪",
      "decorType": "waterside",
      "decorName": "水邊",
      "decorIcon": "💧"
    },
    {
      "id": "way-99524071-1/22031311310212111",
      "lat": 23.66677048116673,
      "lon": 120.40659358721007,
      "name": "虎尾溪",
      "decorType": "waterside",
      "decorName": "水邊",
      "decorIcon": "💧"
    },
    {
      "id": "way-99524071-1/22031311310212112",
      "lat": 23.666925894491936,
      "lon": 120.40587326953823,
      "name": "虎尾溪",
      "decorType": "waterside",
      "decorName": "水邊",
      "decorIcon": "💧"
    },
    {
      "id": "way-99524071-1/22031311313121221",
      "lat": 23.666255898816992,
      "lon": 120.40587326953823,
      "name": "虎尾溪",
      "decorType": "waterside",
      "decorName": "水邊",
      "decorIcon": "💧"
    },
    {
      "id": "way-99524071-1/22031311313121212",
      "lat": 23.666411305959116,
      "lon": 120.40515294785314,
      "name": "虎尾溪",
      "decorType": "waterside",
      "decorName": "水邊",
      "decorIcon": "💧"
    },
    {
      "id": "way-99524071-1/22031311313121213",
      "lat": 23.665741306501097,
      "lon": 120.40515294785314,
      "name": "虎尾溪",
      "decorType": "waterside",
      "decorName": "水邊",
      "decorIcon": "💧"
    },
    {
      "id": "way-99524071-1/22031311313121210",
      "lat": 23.665896707460092,
      "lon": 120.40443262215513,
      "name": "虎尾溪",
      "decorType": "waterside",
      "decorName": "水邊",
      "decorIcon": "💧"
    },
    {
      "id": "way-99524071-1/22031311313121203",
      "lat": 23.665226704219176,
      "lon": 120.40443262215513,
      "name": "虎尾溪",
      "decorType": "waterside",
      "decorName": "水邊",
      "decorIcon": "💧"
    },
    {
      "id": "way-99524071-1/22031311313121130",
      "lat": 23.665382098994986,
      "lon": 120.40371229244454,
      "name": "虎尾溪",
      "decorType": "waterside",
      "decorName": "水邊",
      "decorIcon": "💧"
    },
    {
      "id": "way-99524071-1/22031311313121133",
      "lat": 23.664712091971367,
      "lon": 120.40371229244454,
      "name": "虎尾溪",
      "decorType": "waterside",
      "decorName": "水邊",
      "decorIcon": "💧"
    },
    {
      "id": "way-99524071-1/22031311313121132",
      "lat": 23.664867480563945,
      "lon": 120.40299195872149,
      "name": "虎尾溪",
      "decorType": "waterside",
      "decorName": "水邊",
      "decorIcon": "💧"
    },
    {
      "id": "way-99524071-1/22031311313121030",
      "lat": 23.664352852167085,
      "lon": 120.40227162098643,
      "name": "虎尾溪",
      "decorType": "waterside",
      "decorName": "水邊",
      "decorIcon": "💧"
    },
    {
      "id": "way-99524071-1/22031311313121033",
      "lat": 23.664508231743067,
      "lon": 120.40155127923958,
      "name": "虎尾溪",
      "decorType": "waterside",
      "decorName": "水邊",
      "decorIcon": "💧"
    },
    {
      "id": "way-99524071-1/22031311313121032",
      "lat": 23.663838213804546,
      "lon": 120.40155127923958,
      "name": "虎尾溪",
      "decorType": "waterside",
      "decorName": "水邊",
      "decorIcon": "💧"
    },
    {
      "id": "way-99524071-1/22031311313112301",
      "lat": 23.66399358719714,
      "lon": 120.40083093348125,
      "name": "虎尾溪",
      "decorType": "waterside",
      "decorName": "水邊",
      "decorIcon": "💧"
    },
    {
      "id": "way-99524071-1/22031311313112331",
      "lat": 23.66347893268562,
      "lon": 120.4001105837117,
      "name": "虎尾溪",
      "decorType": "waterside",
      "decorName": "水邊",
      "decorIcon": "💧"
    },
    {
      "id": "way-99524071-1/22031311313112320",
      "lat": 23.66363429706127,
      "lon": 120.39939022993127,
      "name": "虎尾溪",
      "decorType": "waterside",
      "decorName": "水邊",
      "decorIcon": "💧"
    },
    {
      "id": "way-99524071-1/22031311313112323",
      "lat": 23.66296426820864,
      "lon": 120.39939022993127,
      "name": "虎尾溪",
      "decorType": "waterside",
      "decorName": "水邊",
      "decorIcon": "💧"
    },
    {
      "id": "way-99524071-1/22031311313112322",
      "lat": 23.66311962640076,
      "lon": 120.39866987214015,
      "name": "虎尾溪",
      "decorType": "waterside",
      "decorName": "水邊",
      "decorIcon": "💧"
    },
    {
      "id": "way-99524071-1/22031311313112011",
      "lat": 23.663274981759184,
      "lon": 120.39794951033866,
      "name": "虎尾溪",
      "decorType": "waterside",
      "decorName": "水邊",
      "decorIcon": "💧"
    },
    {
      "id": "way-99524071-1/22031311313113100",
      "lat": 23.662604945774852,
      "lon": 120.39794951033866,
      "name": "虎尾溪",
      "decorType": "waterside",
      "decorName": "水邊",
      "decorIcon": "💧"
    },
    {
      "id": "way-99524071-1/22031311313113102",
      "lat": 23.662090255183696,
      "lon": 120.3972291445271,
      "name": "虎尾溪",
      "decorType": "waterside",
      "decorName": "水邊",
      "decorIcon": "💧"
    },
    {
      "id": "way-99524071-1/22031311313113131",
      "lat": 23.661420214986173,
      "lon": 120.3972291445271,
      "name": "虎尾溪",
      "decorType": "waterside",
      "decorName": "水邊",
      "decorIcon": "💧"
    },
    {
      "id": "way-99524071-1/22031311313113120",
      "lat": 23.66157555462741,
      "lon": 120.39650877470581,
      "name": "虎尾溪",
      "decorType": "waterside",
      "decorName": "水邊",
      "decorIcon": "💧"
    },
    {
      "id": "way-99524071-1/22031311313113123",
      "lat": 23.66090551064862,
      "lon": 120.39650877470581,
      "name": "虎尾溪",
      "decorType": "waterside",
      "decorName": "水邊",
      "decorIcon": "💧"
    },
    {
      "id": "way-99524071-1/22031311313113210",
      "lat": 23.660235466238746,
      "lon": 120.39650877470581,
      "name": "虎尾溪",
      "decorType": "waterside",
      "decorName": "水邊",
      "decorIcon": "💧"
    },
    {
      "id": "way-99524071-1/22031311313113211",
      "lat": 23.660390796346263,
      "lon": 120.39578840087495,
      "name": "虎尾溪",
      "decorType": "waterside",
      "decorName": "水邊",
      "decorIcon": "💧"
    },
    {
      "id": "way-99524071-1/22031311313113212",
      "lat": 23.65972074815549,
      "lon": 120.39578840087495,
      "name": "虎尾溪",
      "decorType": "waterside",
      "decorName": "水邊",
      "decorIcon": "💧"
    },
    {
      "id": "way-99524071-1/22031311313113221",
      "lat": 23.659050699534085,
      "lon": 120.39578840087495,
      "name": "虎尾溪",
      "decorType": "waterside",
      "decorName": "水邊",
      "decorIcon": "💧"
    },
    {
      "id": "way-99524071-1/22031311313110112",
      "lat": 23.65920602010774,
      "lon": 120.39506802303492,
      "name": "虎尾溪",
      "decorType": "waterside",
      "decorName": "水邊",
      "decorIcon": "💧"
    },
    {
      "id": "way-99524071-1/22031311313110111",
      "lat": 23.658535967705813,
      "lon": 120.39506802303492,
      "name": "虎尾溪",
      "decorType": "waterside",
      "decorName": "水邊",
      "decorIcon": "💧"
    },
    {
      "id": "way-99524071-1/22031311313103000",
      "lat": 23.65786591487372,
      "lon": 120.39506802303492,
      "name": "虎尾溪",
      "decorType": "waterside",
      "decorName": "水邊",
      "decorIcon": "💧"
    },
    {
      "id": "way-99524071-1/22031311313103003",
      "lat": 23.65802122591335,
      "lon": 120.39434764118596,
      "name": "虎尾溪",
      "decorType": "waterside",
      "decorName": "水邊",
      "decorIcon": "💧"
    },
    {
      "id": "way-99524071-1/22031311313103002",
      "lat": 23.65735116930111,
      "lon": 120.39434764118596,
      "name": "虎尾溪",
      "decorType": "waterside",
      "decorName": "水邊",
      "decorIcon": "💧"
    },
    {
      "id": "way-99524071-1/22031311313103020",
      "lat": 23.656836413764623,
      "lon": 120.39362725532834,
      "name": "虎尾溪",
      "decorType": "waterside",
      "decorName": "水邊",
      "decorIcon": "💧"
    },
    {
      "id": "way-99524071-1/22031311313103023",
      "lat": 23.656166352942897,
      "lon": 120.39362725532834,
      "name": "虎尾溪",
      "decorType": "waterside",
      "decorName": "水邊",
      "decorIcon": "💧"
    },
    {
      "id": "way-99524071-1/22031311313103133",
      "lat": 23.655651583663072,
      "lon": 120.39290686546235,
      "name": "虎尾溪",
      "decorType": "waterside",
      "decorName": "水邊",
      "decorIcon": "💧"
    },
    {
      "id": "way-99524071-1/22031311313103130",
      "lat": 23.6549815186327,
      "lon": 120.39290686546235,
      "name": "虎尾溪",
      "decorType": "waterside",
      "decorName": "水邊",
      "decorIcon": "💧"
    },
    {
      "id": "way-99524071-1/22031311313103210",
      "lat": 23.654466735610225,
      "lon": 120.39218647158827,
      "name": "虎尾溪",
      "decorType": "waterside",
      "decorName": "水邊",
      "decorIcon": "💧"
    },
    {
      "id": "way-99524071-1/22031311313103211",
      "lat": 23.653796666372035,
      "lon": 120.39218647158827,
      "name": "虎尾溪",
      "decorType": "waterside",
      "decorName": "水邊",
      "decorIcon": "💧"
    },
    {
      "id": "way-99524071-1/22031311313100121",
      "lat": 23.653281869607593,
      "lon": 120.39146607370645,
      "name": "虎尾溪",
      "decorType": "waterside",
      "decorName": "水邊",
      "decorIcon": "💧"
    },
    {
      "id": "way-99524071-1/22031311313100120",
      "lat": 23.652611796162425,
      "lon": 120.39146607370645,
      "name": "虎尾溪",
      "decorType": "waterside",
      "decorName": "水邊",
      "decorIcon": "💧"
    },
    {
      "id": "way-99524071-1/22031311313100113",
      "lat": 23.65276706288035,
      "lon": 120.39074567181711,
      "name": "虎尾溪",
      "decorType": "waterside",
      "decorName": "水邊",
      "decorIcon": "💧"
    },
    {
      "id": "way-99524071-1/22031311313100102",
      "lat": 23.65209698565669,
      "lon": 120.39074567181711,
      "name": "虎尾溪",
      "decorType": "waterside",
      "decorName": "水邊",
      "decorIcon": "💧"
    },
    {
      "id": "way-99524071-1/22031311313100103",
      "lat": 23.65225224619044,
      "lon": 120.39002526592054,
      "name": "虎尾溪",
      "decorType": "waterside",
      "decorName": "水邊",
      "decorIcon": "💧"
    },
    {
      "id": "way-99524071-1/22031311313100100",
      "lat": 23.65158216518848,
      "lon": 120.39002526592054,
      "name": "虎尾溪",
      "decorType": "waterside",
      "decorName": "水邊",
      "decorIcon": "💧"
    },
    {
      "id": "way-99524071-1/22031311312011033",
      "lat": 23.651737419537998,
      "lon": 120.38930485601708,
      "name": "虎尾溪",
      "decorType": "waterside",
      "decorName": "水邊",
      "decorIcon": "💧"
    },
    {
      "id": "way-99524071-1/22031311312011100",
      "lat": 23.651067334757915,
      "lon": 120.38930485601708,
      "name": "虎尾溪",
      "decorType": "waterside",
      "decorName": "水邊",
      "decorIcon": "💧"
    },
    {
      "id": "way-99524071-1/22031311312011102",
      "lat": 23.650552494365133,
      "lon": 120.38858444210695,
      "name": "虎尾溪",
      "decorType": "waterside",
      "decorName": "水邊",
      "decorIcon": "💧"
    },
    {
      "id": "way-99524071-1/22031311312011113",
      "lat": 23.649882405380023,
      "lon": 120.38858444210695,
      "name": "虎尾溪",
      "decorType": "waterside",
      "decorName": "水邊",
      "decorIcon": "💧"
    },
    {
      "id": "way-99524071-1/22031311312011120",
      "lat": 23.65003764401026,
      "lon": 120.38786402419043,
      "name": "虎尾溪",
      "decorType": "waterside",
      "decorName": "水邊",
      "decorIcon": "💧"
    },