{
  "bbox": {
    "south": 25.063333333333333,
    "north": 25.3,
    "west": 121.11999999999999,
    "east": 121.25999999999999
  },
  "pois": [
    {
      "id": "node-3281712639",
      "lat": 25.114903,
      "lon": 121.2401417,
      "name": "航空港360度景觀旋轉餐廳",
      "decorType": "restaurant",
      "decorName": "餐廳",
      "decorIcon": "🍽️"
    },
    {
      "id": "node-3373205250",
      "lat": 25.0668483,
      "lon": 121.1983752,
      "name": "全家便利商店",
      "decorType": "convenience-store",
      "decorName": "便利商店",
      "decorIcon": "🏪"
    },
    {
      "id": "node-3494808296",
      "lat": 25.0776697,
      "lon": 121.231331,
      "name": "臺灣桃園國際機場郵局",
      "decorType": "post-office",
      "decorName": "郵局",
      "decorIcon": "📮"
    },
    {
      "id": "node-3495049296",
      "lat": 25.0808122,
      "lon": 121.2367861,
      "name": "桃園機場第一航廈",
      "decorType": "station",
      "decorName": "車站",
      "decorIcon": "🚉"
    },
    {
      "id": "node-3984004251",
      "lat": 25.0767499,
      "lon": 121.2315018,
      "name": "統一超商美食廣場",
      "decorType": "restaurant",
      "decorName": "餐廳",
      "decorIcon": "🍽️"
    },
    {
      "id": "node-3984004252",
      "lat": 25.0766836,
      "lon": 121.2320806,
      "name": "麥當勞",
      "decorType": "burger",
      "decorName": "漢堡店",
      "decorIcon": "🍔"
    },
    {
      "id": "node-4130642616",
      "lat": 25.1139326,
      "lon": 121.25761,
      "name": "萊爾富",
      "decorType": "convenience-store",
      "decorName": "便利商店",
      "decorIcon": "🏪"
    },
    {
      "id": "node-4143917292",
      "lat": 25.0742239,
      "lon": 121.2596953,
      "name": "OK超商",
      "decorType": "convenience-store",
      "decorName": "便利商店",
      "decorIcon": "🏪"
    },
    {
      "id": "node-4143918989",
      "lat": 25.0744629,
      "lon": 121.2592146,
      "name": "全家便利商店",
      "decorType": "convenience-store",
      "decorName": "便利商店",
      "decorIcon": "🏪"
    },
    {
      "id": "node-4143965917",
      "lat": 25.0757935,
      "lon": 121.2581891,
      "name": "7-Eleven",
      "decorType": "convenience-store",
      "decorName": "便利商店",
      "decorIcon": "🏪"
    },
    {
      "id": "node-4144734018",
      "lat": 25.0759487,
      "lon": 121.2579425,
      "name": "大園菓林郵局",
      "decorType": "post-office",
      "decorName": "郵局",
      "decorIcon": "📮"
    },
    {
      "id": "node-4147166319",
      "lat": 25.1118089,
      "lon": 121.2545617,
      "name": "7-Eleven",
      "decorType": "convenience-store",
      "decorName": "便利商店",
      "decorIcon": "🏪"
    },
    {
      "id": "node-4189045741",
      "lat": 25.1092515,
      "lon": 121.2496175,
      "name": "萊爾富",
      "decorType": "convenience-store",
      "decorName": "便利商店",
      "decorIcon": "🏪"
    },
    {
      "id": "node-4280453633",
      "lat": 25.1079571,
      "lon": 121.2418929,
      "name": "萊爾富",
      "decorType": "convenience-store",
      "decorName": "便利商店",
      "decorIcon": "🏪"
    },
    {
      "id": "node-4285776658",
      "lat": 25.094798,
      "lon": 121.2496402,
      "name": "復興航棧幸福烘焙屋",
      "decorType": "bakery",
      "decorName": "麵包店",
      "decorIcon": "🥐"
    },
    {
      "id": "node-4363106060",
      "lat": 25.1054942,
      "lon": 121.2582267,
      "name": "萊爾富",
      "decorType": "convenience-store",
      "decorName": "便利商店",
      "decorIcon": "🏪"
    },
    {
      "id": "node-4524863559",
      "lat": 25.0752158,
      "lon": 121.2325299,
      "name": "丹尼斯小廚",
      "decorType": "restaurant",
      "decorName": "餐廳",
      "decorIcon": "🍽️"
    },
    {
      "id": "node-4524863938",
      "lat": 25.0752456,
      "lon": 121.2325805,
      "name": "米拉咖啡",
      "decorType": "cafe",
      "decorName": "咖啡廳",
      "decorIcon": "☕"
    },
    {
      "id": "node-4524863950",
      "lat": 25.077086,
      "lon": 121.2330325,
      "name": "星巴克",
      "decorType": "cafe",
      "decorName": "咖啡廳",
      "decorIcon": "☕"
    },
    {
      "id": "node-4524863951",
      "lat": 25.0771433,
      "lon": 121.2329376,
      "name": "南洋小廚",
      "decorType": "restaurant",
      "decorName": "餐廳",
      "decorIcon": "🍽️"
    },
    {
      "id": "node-4524863952",
      "lat": 25.0772177,
      "lon": 121.2328738,
      "name": "池記",
      "decorType": "restaurant",
      "decorName": "餐廳",
      "decorIcon": "🍽️"
    },
    {
      "id": "node-4524863953",
      "lat": 25.0772907,
      "lon": 121.2328037,
      "name": "中一食堂",
      "decorType": "restaurant",
      "decorName": "餐廳",
      "decorIcon": "🍽️"
    },
    {
      "id": "node-4524863954",
      "lat": 25.0773426,
      "lon": 121.2327564,
      "name": "漢堡王",
      "decorType": "burger",
      "decorName": "漢堡店",
      "decorIcon": "🍔"
    },
    {
      "id": "node-4524863959",
      "lat": 25.077754,
      "lon": 121.2324426,
      "name": "青葉食堂",
      "decorType": "restaurant",
      "decorName": "餐廳",
      "decorIcon": "🍽️"
    },
    {
      "id": "node-4524863960",
      "lat": 25.0778112,
      "lon": 121.2323923,
      "name": "義美點心世界",
      "decorType": "restaurant",
      "decorName": "餐廳",
      "decorIcon": "🍽️"
    },
    {
      "id": "node-4524863961",
      "lat": 25.0777333,
      "lon": 121.232298,
      "name": "GODIVA",
      "decorType": "cafe",
      "decorName": "咖啡廳",
      "decorIcon": "☕"
    },
    {
      "id": "node-4524863962",
      "lat": 25.0778695,
      "lon": 121.2323489,
      "name": "摩斯漢堡",
      "decorType": "burger",
      "decorName": "漢堡店",
      "decorIcon": "🍔"
    },
    {
      "id": "node-4607638098",
      "lat": 25.0812127,
      "lon": 121.2379671,
      "name": "一之軒",
      "decorType": "bakery",
      "decorName": "麵包店",
      "decorIcon": "🥐"
    },
    {
      "id": "node-4607640994",
      "lat": 25.0816464,
      "lon": 121.2375283,
      "name": "Staff",
      "decorType": "burger",
      "decorName": "漢堡店",
      "decorIcon": "🍔"
    },
    {
      "id": "node-4607640997",
      "lat": 25.0822918,
      "lon": 121.2374262,
      "name": "Pharmacy and Health Care",
      "decorType": "pharmacy",
      "decorName": "藥局",
      "decorIcon": "💊"
    },
    {
      "id": "node-4607641001",
      "lat": 25.0819022,
      "lon": 121.2369354,
      "name": "華航貴賓室",
      "decorType": "restaurant",
      "decorName": "餐廳",
      "decorIcon": "🍽️"
    },
    {
      "id": "node-4607666093",
      "lat": 25.0814071,
      "lon": 121.2379714,
      "name": "漢堡王",
      "decorType": "burger",
      "decorName": "漢堡店",
      "decorIcon": "🍔"
    },
    {
      "id": "node-4607666094",
      "lat": 25.0813399,
      "lon": 121.2378258,
      "name": "Li Pin",
      "decorType": "burger",
      "decorName": "漢堡店",
      "decorIcon": "🍔"
    },
    {
      "id": "node-4607695994",
      "lat": 25.0818535,
      "lon": 121.2373827,
      "name": "Barista Premium",
      "decorType": "restaurant",
      "decorName": "餐廳",
      "decorIcon": "🍽️"
    },
    {
      "id": "node-4607695995",
      "lat": 25.0821616,
      "lon": 121.237338,
      "name": "Medical Center",
      "decorType": "hospital",
      "decorName": "醫院",
      "decorIcon": "🏥"
    },
    {
      "id": "node-4607705198",
      "lat": 25.0814023,
      "lon": 121.2377637,
      "name": "South Asia Cuisine",
      "decorType": "burger",
      "decorName": "漢堡店",
      "decorIcon": "🍔"
    },
    {
      "id": "node-4607705393",
      "lat": 25.0815221,
      "lon": 121.2376504,
      "name": "Bar",
      "decorType": "burger",
      "decorName": "漢堡店",
      "decorIcon": "🍔"
    },
    {
      "id": "node-4607705892",
      "lat": 25.0812816,
      "lon": 121.2378893,
      "name": "Hai Rei Meatballs",
      "decorType": "burger",
      "decorName": "漢堡店",
      "decorIcon": "🍔"
    },
    {
      "id": "node-4607705993",
      "lat": 25.081791,
      "lon": 121.2374417,
      "name": "Middle East Halal Kitchen",
      "decorType": "burger",
      "decorName": "漢堡店",
      "decorIcon": "🍔"
    },
    {
      "id": "node-4607706890",
      "lat": 25.0814654,
      "lon": 121.2377035,
      "name": "Ramen House",
      "decorType": "burger",
      "decorName": "漢堡店",
      "decorIcon": "🍔"
    },
    {
      "id": "node-4607706989",
      "lat": 25.081586,
      "lon": 121.2375843,
      "name": "Mai's",
      "decorType": "burger",
      "decorName": "漢堡店",
      "decorIcon": "🍔"
    },
    {
      "id": "node-4653352235",
      "lat": 25.0691793,
      "lon": 121.2206257,
      "name": "機場旅館",
      "decorType": "station",
      "decorName": "車站",
      "decorIcon": "🚉"
    },
    {
      "id": "node-4653352237",
      "lat": 25.0772273,
      "lon": 121.2322564,
      "name": "機場第二航廈",
      "decorType": "station",
      "decorName": "車站",
      "decorIcon": "🚉"
    },
    {
      "id": "node-4653352238",
      "lat": 25.080498,
      "lon": 121.2383976,
      "name": "機場第一航廈",
      "decorType": "station",
      "decorName": "車站",
      "decorIcon": "🚉"
    },
    {
      "id": "node-5267326137",
      "lat": 25.093461,
      "lon": 121.196719,
      "name": "圳頭軍史公園",
      "decorType": "park",
      "decorName": "公園",
      "decorIcon": "🌳"
    },
    {
      "id": "node-5516219719",
      "lat": 25.0638132,
      "lon": 121.1989312,
      "name": "家樂福超市",
      "decorType": "supermarket",
      "decorName": "超市",
      "decorIcon": "🛒"
    },
    {
      "id": "node-5518665405",
      "lat": 25.0638048,
      "lon": 121.20262,
      "name": "7-Eleven",
      "decorType": "convenience-store",
      "decorName": "便利商店",
      "decorIcon": "🏪"
    },
    {
      "id": "node-6215492916",
      "lat": 25.0689747,
      "lon": 121.1947292,
      "name": "萊爾富",
      "decorType": "convenience-store",
      "decorName": "便利商店",
      "decorIcon": "🏪"
    },
    {
      "id": "node-6215492917",
      "lat": 25.066323,
      "lon": 121.1967721,
      "name": "萊爾富",
      "decorType": "convenience-store",
      "decorName": "便利商店",
      "decorIcon": "🏪"
    },
    {
      "id": "node-6215492918",
      "lat": 25.0657137,
      "lon": 121.1971686,
      "name": "八方雲集",
      "decorType": "burger",
      "decorName": "漢堡店",
      "decorIcon": "🍔"
    },
    {
      "id": "node-6215492921",
      "lat": 25.0648614,
      "lon": 121.1969528,
      "name": "全家便利商店",
      "decorType": "convenience-store",
      "decorName": "便利商店",
      "decorIcon": "🏪"
    },
    {
      "id": "node-6215492922",
      "lat": 25.0650169,
      "lon": 121.1942303,
      "name": "台北永和豆漿大王",
      "decorType": "restaurant",
      "decorName": "餐廳",
      "decorIcon": "🍽️"
    },
    {
      "id": "node-6215492923",
      "lat": 25.0634474,
      "lon": 121.1945441,
      "name": "7-Eleven",
      "decorType": "convenience-store",
      "decorName": "便利商店",
      "decorIcon": "🏪"
    },
    {
      "id": "node-6315689266",
      "lat": 25.0678363,
      "lon": 121.19989,
      "name": "萊爾富",
      "decorType": "convenience-store",
      "decorName": "便利商店",
      "decorIcon": "🏪"
    },
    {
      "id": "node-6764503400",
      "lat": 25.075317,
      "lon": 121.2584946,
      "name": "全聯福利中心",
      "decorType": "supermarket",
      "decorName": "超市",
      "decorIcon": "🛒"
    },
    {
      "id": "node-6764504532",
      "lat": 25.078009,
      "lon": 121.257531,
      "name": "OK超商",
      "decorType": "convenience-store",
      "decorName": "便利商店",
      "decorIcon": "🏪"
    },
    {
      "id": "node-6769690111",
      "lat": 25.0638215,
      "lon": 121.1970842,
      "name": "萊爾富",
      "decorType": "convenience-store",
      "decorName": "便利商店",
      "decorIcon": "🏪"
    },
    {
      "id": "node-6769690112",
      "lat": 25.0639236,
      "lon": 121.1972451,
      "name": "85度C",
      "decorType": "cafe",
      "decorName": "咖啡廳",
      "decorIcon": "☕"
    },
    {
      "id": "node-6863892147",
      "lat": 25.0765062,
      "lon": 121.2317097,
      "name": "小南門",
      "decorType": "restaurant",
      "decorName": "餐廳",
      "decorIcon": "🍽️"
    },
    {
      "id": "node-6863892148",
      "lat": 25.0764345,
      "lon": 121.2317016,
      "name": "老媽拌麵",
      "decorType": "restaurant",
      "decorName": "餐廳",
      "decorIcon": "🍽️"
    },
    {
      "id": "node-6863892149",
      "lat": 25.0764491,
      "lon": 121.2316332,
      "name": "牛丁次郎坊",
      "decorType": "restaurant",
      "decorName": "餐廳",
      "decorIcon": "🍽️"
    },
    {
      "id": "node-6863892150",
      "lat": 25.0765912,
      "lon": 121.2316037,
      "name": "了凡油雞飯.麵",
      "decorType": "restaurant",
      "decorName": "餐廳",
      "decorIcon": "🍽️"
    },
    {
      "id": "node-6863892151",
      "lat": 25.0766532,
      "lon": 121.2314803,
      "name": "95鐵板雙燒",
      "decorType": "restaurant",
      "decorName": "餐廳",
      "decorIcon": "🍽️"
    },
    {
      "id": "node-6863892152",
      "lat": 25.0766665,
      "lon": 121.2314361,
      "name": "六寶雲吞麵食",
      "decorType": "restaurant",
      "decorName": "餐廳",
      "decorIcon": "🍽️"
    },
    {
      "id": "node-6863892153",
      "lat": 25.0766289,
      "lon": 121.23142,
      "name": "這味泰泰",
      "decorType": "restaurant",
      "decorName": "餐廳",
      "decorIcon": "🍽️"
    },
    {
      "id": "node-6863892154",
      "lat": 25.0766119,
      "lon": 121.2314736,
      "name": "皇家傳承牛肉麵",
      "decorType": "restaurant",
      "decorName": "餐廳",
      "decorIcon": "🍽️"
    },
    {
      "id": "node-6863892155",
      "lat": 25.07659,
      "lon": 121.2314428,
      "name": "富山黑拉麵",
      "decorType": "restaurant",
      "decorName": "餐廳",
      "decorIcon": "🍽️"
    },
    {
      "id": "node-6863892156",
      "lat": 25.0764831,
      "lon": 121.2313663,
      "name": "義美見學餐廳",
      "decorType": "restaurant",
      "decorName": "餐廳",
      "decorIcon": "🍽️"
    },
    {
      "id": "node-6863892157",
      "lat": 25.0764297,
      "lon": 121.2314227,
      "name": "米哥烘焙坊",
      "decorType": "bakery",
      "decorName": "麵包店",
      "decorIcon": "🥐"
    },
    {
      "id": "node-6863892158",
      "lat": 25.0763677,
      "lon": 121.2314616,
      "name": "韓姜熙의小廚房",
      "decorType": "restaurant",
      "decorName": "餐廳",
      "decorIcon": "🍽️"
    },
    {
      "id": "node-6863892159",
      "lat": 25.0763131,
      "lon": 121.2315098,
      "name": "富山黑拉麵",
      "decorType": "restaurant",
      "decorName": "餐廳",
      "decorIcon": "🍽️"
    },
    {
      "id": "node-6863892160",
      "lat": 25.0762742,
      "lon": 121.2315836,
      "name": "鬍鬚張",
      "decorType": "restaurant",
      "decorName": "餐廳",
      "decorIcon": "🍽️"
    },
    {
      "id": "node-6863892161",
      "lat": 25.0762195,
      "lon": 121.231656,
      "name": "呷七碗",
      "decorType": "restaurant",
      "decorName": "餐廳",
      "decorIcon": "🍽️"
    },
    {
      "id": "node-6863892162",
      "lat": 25.0770731,
      "lon": 121.2317067,
      "name": "全家便利商店",
      "decorType": "convenience-store",
      "decorName": "便利商店",
      "decorIcon": "🏪"
    },
    {
      "id": "node-6863892163",
      "lat": 25.0775649,
      "lon": 121.2325776,
      "name": "林東芳牛肉麵",
      "decorType": "restaurant",
      "decorName": "餐廳",
      "decorIcon": "🍽️"
    },
    {
      "id": "node-7066680985",
      "lat": 25.0686581,
      "lon": 121.2214888,
      "name": "味坊中餐廳",
      "decorType": "restaurant",
      "decorName": "餐廳",
      "decorIcon": "🍽️"
    },
    {
      "id": "node-7097167029",
      "lat": 25.1098225,
      "lon": 121.2327587,
      "name": "未命名公園",
      "decorType": "park",
      "decorName": "公園",
      "decorIcon": "🌳"
    },
    {
      "id": "node-7217108220",
      "lat": 25.0774726,
      "lon": 121.232681,
      "name": "大心",
      "decorType": "restaurant",
      "decorName": "餐廳",
      "decorIcon": "🍽️"
    },
    {
      "id": "node-7448819027",
      "lat": 25.0650582,
      "lon": 121.183252,
      "name": "7-Eleven",
      "decorType": "convenience-store",
      "decorName": "便利商店",
      "decorIcon": "🏪"
    },
    {
      "id": "node-7448841539",
      "lat": 25.064339,
      "lon": 121.1929107,
      "name": "全聯福利中心",
      "decorType": "supermarket",
      "decorName": "超市",
      "decorIcon": "🛒"
    },
    {
      "id": "node-7576995772",
      "lat": 25.074035,
      "lon": 121.2597473,
      "name": "大麥專業烘焙坊",
      "decorType": "bakery",
      "decorName": "麵包店",
      "decorIcon": "🥐"
    },
    {
      "id": "node-7579831585",
      "lat": 25.078372,
      "lon": 121.2313017,
      "name": "客意比薩",
      "decorType": "restaurant",
      "decorName": "餐廳",
      "decorIcon": "🍽️"
    },
    {
      "id": "node-7940571393",
      "lat": 25.0907773,
      "lon": 121.2296596,
      "name": "7-Eleven",
      "decorType": "convenience-store",
      "decorName": "便利商店",
      "decorIcon": "🏪"
    },
    {
      "id": "node-7988949665",
      "lat": 25.0660337,
      "lon": 121.1977525,
      "name": "大園郵局",
      "decorType": "post-office",
      "decorName": "郵局",
      "decorIcon": "📮"
    },
    {
      "id": "node-7988949666",
      "lat": 25.0645662,
      "lon": 121.1969648,
      "name": "迷客夏",
      "decorType": "cafe",
      "decorName": "咖啡廳",
      "decorIcon": "☕"
    },
    {
      "id": "node-7988949667",
      "lat": 25.0646063,
      "lon": 121.1969742,
      "name": "CoCo都可",
      "decorType": "cafe",
      "decorName": "咖啡廳",
      "decorIcon": "☕"
    },
    {
      "id": "node-7988994259",
      "lat": 25.0637243,
      "lon": 121.2019524,
      "name": "萊爾富",
      "decorType": "convenience-store",
      "decorName": "便利商店",
      "decorIcon": "🏪"
    },
    {
      "id": "node-8088279216",
      "lat": 25.0744753,
      "lon": 121.2587538,
      "name": "醇滷味菓林店",
      "decorType": "restaurant",
      "decorName": "餐廳",
      "decorIcon": "🍽️"
    },
    {
      "id": "node-8088280217",
      "lat": 25.0744617,
      "lon": 121.2589856,
      "name": "富林早餐店",
      "decorType": "restaurant",
      "decorName": "餐廳",
      "decorIcon": "🍽️"
    },
    {
      "id": "node-8088280218",
      "lat": 25.0747261,
      "lon": 121.2589528,
      "name": "清心福全",
      "decorType": "cafe",
      "decorName": "咖啡廳",
      "decorIcon": "☕"
    },
    {
      "id": "node-8088280219",
      "lat": 25.0746877,
      "lon": 121.2592404,
      "name": "CoCo都可",
      "decorType": "cafe",
      "decorName": "咖啡廳",
      "decorIcon": "☕"
    },
    {
      "id": "node-8088280220",
      "lat": 25.0749089,
      "lon": 121.2590626,
      "name": "麥味登精緻早午餐",
      "decorType": "restaurant",
      "decorName": "餐廳",
      "decorIcon": "🍽️"
    },
    {
      "id": "node-8088280221",
      "lat": 25.0752102,
      "lon": 121.2587653,
      "name": "協和大藥局",
      "decorType": "pharmacy",
      "decorName": "藥局",
      "decorIcon": "💊"
    },
    {
      "id": "node-8088280222",
      "lat": 25.0753561,
      "lon": 121.2586644,
      "name": "菓林村藥師藥局",
      "decorType": "pharmacy",
      "decorName": "藥局",
      "decorIcon": "💊"
    },
    {
      "id": "node-8088280223",
      "lat": 25.0731101,
      "lon": 121.2582171,
      "name": "桃園市立圖書館三和分館",
      "decorType": "library",
      "decorName": "圖書館",
      "decorIcon": "📚"
    },
    {
      "id": "node-8118272899",
      "lat": 25.0909095,
      "lon": 121.2463831,
      "name": "全家便利商店",
      "decorType": "convenience-store",
      "decorName": "便利商店",
      "decorIcon": "🏪"
    },
    {
      "id": "node-8385313754",
      "lat": 25.0774597,
      "lon": 121.2576676,
      "name": "八方雲集",
      "decorType": "burger",
      "decorName": "漢堡店",
      "decorIcon": "🍔"
    },
    {
      "id": "node-9076653183",
      "lat": 25.0636817,
      "lon": 121.1955188,
      "name": "桃園市立圖書館大園分館",
      "decorType": "library",
      "decorName": "圖書館",
      "decorIcon": "📚"
    },
    {
      "id": "node-9717382221",
      "lat": 25.0769621,
      "lon": 121.2577153,
      "name": "蝦皮店到店",
      "decorType": "convenience-store",
      "decorName": "便利商店",
      "decorIcon": "🏪"
    },
    {
      "id": "node-10050165000",
      "lat": 25.0681518,
      "lon": 121.1899063,
      "name": "7-Eleven",
      "decorType": "convenience-store",
      "decorName": "便利商店",
      "decorIcon": "🏪"
    },
    {
      "id": "node-10708222648",
      "lat": 25.0645837,
      "lon": 121.1972087,
      "name": "可不可熟成紅茶",
      "decorType": "cafe",
      "decorName": "咖啡廳",
      "decorIcon": "☕"
    },
    {
      "id": "node-10708222649",
      "lat": 25.0638917,
      "lon": 121.1969908,
      "name": "全家便利商店",
      "decorType": "convenience-store",
      "decorName": "便利商店",
      "decorIcon": "🏪"
    },
    {
      "id": "node-10711328585",
      "lat": 25.0810713,
      "lon": 121.1839098,
      "name": "7-Eleven",
      "decorType": "convenience-store",
      "decorName": "便利商店",
      "decorIcon": "🏪"
    },
    {
      "id": "node-10711328586",
      "lat": 25.0810836,
      "lon": 121.1844244,
      "name": "萊爾富",
      "decorType": "convenience-store",
      "decorName": "便利商店",
      "decorIcon": "🏪"
    },
    {
      "id": "node-11445398978",
      "lat": 25.0773596,
      "lon": 121.2352098,
      "name": "VWI Coffee Bar",
      "decorType": "cafe",
      "decorName": "咖啡廳",
      "decorIcon": "☕"
    },
    {
      "id": "node-11445398979",
      "lat": 25.0772829,
      "lon": 121.2351319,
      "name": "Vege Creek 蔬河",
      "decorType": "restaurant",
      "decorName": "餐廳",
      "decorIcon": "🍽️"
    },
    {
      "id": "node-11445398980",
      "lat": 25.0772062,
      "lon": 121.2350404,
      "name": "Wang's Broth",
      "decorType": "burger",
      "decorName": "漢堡店",
      "decorIcon": "🍔"
    },
    {
      "id": "node-11445398981",
      "lat": 25.0771448,
      "lon": 121.234976,
      "name": "好好吃大餛飩",
      "decorType": "restaurant",
      "decorName": "餐廳",
      "decorIcon": "🍽️"
    },
    {
      "id": "node-11445400344",
      "lat": 25.0796021,
      "lon": 121.2380666,
      "name": "espressameme",
      "decorType": "cafe",
      "decorName": "咖啡廳",
      "decorIcon": "☕"
    },
    {
      "id": "node-11445504462",
      "lat": 25.0784221,
      "lon": 121.236408,
      "name": "Kung Fu Tea",
      "decorType": "cafe",
      "decorName": "咖啡廳",
      "decorIcon": "☕"
    },
    {
      "id": "node-11445504465",
      "lat": 25.0770809,
      "lon": 121.234906,
      "name": "Le Mout",
      "decorType": "sweetshop",
      "decorName": "甜點店",
      "decorIcon": "🍩"
    },
    {
      "id": "node-11768036568",
      "lat": 25.0780099,
      "lon": 121.2308241,
      "name": "Starbucks Reserve",
      "decorType": "cafe",
      "decorName": "咖啡廳",
      "decorIcon": "☕"
    },
    {
      "id": "node-11774498020",
      "lat": 25.0768627,
      "lon": 121.2330103,
      "name": "未命名醫院",
      "decorType": "hospital",
      "decorName": "醫院",
      "decorIcon": "🏥"
    },
    {
      "id": "node-11951414763",
      "lat": 25.0798462,
      "lon": 121.2380095,
      "name": "第一航廈",
      "decorType": "station",
      "decorName": "車站",
      "decorIcon": "🚉"
    },
    {
      "id": "node-11951446996",
      "lat": 25.0764579,
      "lon": 121.233632,
      "name": "第二航廈",
      "decorType": "station",
      "decorName": "車站",
      "decorIcon": "🚉"
    },
    {
      "id": "node-11959576655",
      "lat": 25.0817507,
      "lon": 121.237397,
      "name": "臻好食客棧",
      "decorType": "restaurant",
      "decorName": "餐廳",
      "decorIcon": "🍽️"
    },
    {
      "id": "node-12096484360",
      "lat": 25.0805731,
      "lon": 121.2389988,
      "name": "BOSS",
      "decorType": "clothing-store",
      "decorName": "服飾店",
      "decorIcon": "👕"
    },
    {
      "id": "node-12096484366",
      "lat": 25.0807273,
      "lon": 121.2395038,
      "name": "良響厨房",
      "decorType": "restaurant",
      "decorName": "餐廳",
      "decorIcon": "🍽️"
    },
    {
      "id": "node-12096484367",
      "lat": 25.0808295,
      "lon": 121.239475,
      "name": "Bistro:D",
      "decorType": "restaurant",
      "decorName": "餐廳",
      "decorIcon": "🍽️"
    },
    {
      "id": "node-12192165383",
      "lat": 25.0820183,
      "lon": 121.2379328,
      "name": "桃園機場第一航廈",
      "decorType": "station",
      "decorName": "車站",
      "decorIcon": "🚉"
    },
    {
      "id": "node-12353172839",
      "lat": 25.0657483,
      "lon": 121.1970031,
      "name": "7-Eleven",
      "decorType": "convenience-store",
      "decorName": "便利商店",
      "decorIcon": "🏪"
    },
    {
      "id": "node-12578373584",
      "lat": 25.0865449,
      "lon": 121.2546745,
      "name": "OK超商",
      "decorType": "convenience-store",
      "decorName": "便利商店",
      "decorIcon": "🏪"
    },
    {
      "id": "node-12578373585",
      "lat": 25.0865458,
      "lon": 121.2543832,
      "name": "7-Eleven",
      "decorType": "convenience-store",
      "decorName": "便利商店",
      "decorIcon": "🏪"
    },
    {
      "id": "node-13064775820",
      "lat": 25.0801622,
      "lon": 121.2387246,
      "name": "Burberry",
      "decorType": "clothing-store",
      "decorName": "服飾店",
      "decorIcon": "👕"
    },
    {
      "id": "node-13064775821",
      "lat": 25.080099,
      "lon": 121.2386492,
      "name": "Saint Laurent",
      "decorType": "clothing-store",
      "decorName": "服飾店",
      "decorIcon": "👕"
    },
    {
      "id": "node-13064788431",
      "lat": 25.0807917,
      "lon": 121.2396901,
      "name": "GUIJI",
      "decorType": "cafe",
      "decorName": "咖啡廳",
      "decorIcon": "☕"
    },
    {
      "id": "node-13064788432",
      "lat": 25.080748,
      "lon": 121.2395871,
      "name": "home/RiCE",
      "decorType": "burger",
      "decorName": "漢堡店",
      "decorIcon": "🍔"
    },
    {
      "id": "node-13064788433",
      "lat": 25.0808882,
      "lon": 121.2397876,
      "name": "漢堡王",
      "decorType": "burger",
      "decorName": "漢堡店",
      "decorIcon": "🍔"
    },
    {
      "id": "node-13306482103",
      "lat": 25.0771931,
      "lon": 121.1807844,
      "name": "萊爾富",
      "decorType": "convenience-store",
      "decorName": "便利商店",
      "decorIcon": "🏪"
    },
    {
      "id": "node-13306482106",
      "lat": 25.0664236,
      "lon": 121.1813135,
      "name": "萊爾富",
      "decorType": "convenience-store",
      "decorName": "便利商店",
      "decorIcon": "🏪"
    },
    {
      "id": "node-13569267644",
      "lat": 25.0810738,
      "lon": 121.2375161,
      "name": "L.E.A.F CAFE",
      "decorType": "cafe",
      "decorName": "咖啡廳",
      "decorIcon": "☕"
    },
    {
      "id": "way-9407571-1/22020110330133031",
      "lat": 25.08706847227947,
      "lon": 121.19573431011537,
      "name": "未命名水邊",
      "decorType": "waterside",
      "decorName": "水邊",
      "decorIcon": "💧"
    },
    {
      "id": "way-9407571-1/22020110330133020",
      "lat": 25.08773315417712,
      "lon": 121.19573431011537,
      "name": "未命名水邊",
      "decorType": "waterside",
      "decorName": "水邊",
      "decorIcon": "💧"
    },
    {
      "id": "way-9407571-1/22020110330133023",
      "lat": 25.087566728296625,
      "lon": 121.19645004295455,
      "name": "未命名水邊",
      "decorType": "waterside",
      "decorName": "水邊",
      "decorIcon": "💧"
    },
    {
      "id": "way-9407571-1/22020110330133022",
      "lat": 25.088231405994094,
      "lon": 121.19645004295455,
      "name": "未命名水邊",
      "decorType": "waterside",
      "decorName": "水邊",
      "decorIcon": "💧"
    },
    {
      "id": "way-9407571-1/22020110330133133",
      "lat": 25.0880649740123,
      "lon": 121.19716577147312,
      "name": "未命名水邊",
      "decorType": "waterside",
      "decorName": "水邊",
      "decorIcon": "💧"
    },
    {
      "id": "way-9407571-1/22020110330133200",
      "lat": 25.088729647509435,
      "lon": 121.19716577147312,
      "name": "未命名水邊",
      "decorType": "waterside",
      "decorName": "水邊",
      "decorIcon": "💧"
    },
    {
      "id": "way-9407571-1/22020110330133201",
      "lat": 25.089394320025985,
      "lon": 121.19716577147312,
      "name": "未命名水邊",
      "decorType": "waterside",
      "decorName": "水邊",
      "decorIcon": "💧"
    },
    {
      "id": "way-9407571-1/22020110330133232",
      "lat": 25.09005899156169,
      "lon": 121.19716577147312,
      "name": "未命名水邊",
      "decorType": "waterside",
      "decorName": "水邊",
      "decorIcon": "💧"
    },
    {
      "id": "way-9407571-1/22020110330133233",
      "lat": 25.090723662116286,
      "lon": 121.19716577147312,
      "name": "未命名水邊",
      "decorType": "waterside",
      "decorName": "水邊",
      "decorIcon": "💧"
    },
    {
      "id": "way-9407571-1/22020110330133300",
      "lat": 25.090890106977216,
      "lon": 121.19645004295455,
      "name": "未命名水邊",
      "decorType": "waterside",
      "decorName": "水邊",
      "decorIcon": "💧"
    },
    {
      "id": "way-9407571-1/22020110330200033",
      "lat": 25.09155477976998,
      "lon": 121.19645004295455,
      "name": "未命名水邊",
      "decorType": "waterside",
      "decorName": "水邊",
      "decorIcon": "💧"
    },
    {
      "id": "way-9407571-1/22020110330200030",
      "lat": 25.09221945158102,
      "lon": 121.19645004295455,
      "name": "未命名水邊",
      "decorType": "waterside",
      "decorName": "水邊",
      "decorIcon": "💧"
    },
    {
      "id": "way-9407571-1/22020110330200023",
      "lat": 25.09288412241005,
      "lon": 121.19645004295455,
      "name": "未命名水邊",
      "decorType": "waterside",
      "decorName": "水邊",
      "decorIcon": "💧"
    },
    {
      "id": "way-9407571-1/22020110330200022",
      "lat": 25.093548792256826,
      "lon": 121.19645004295455,
      "name": "未命名水邊",
      "decorType": "waterside",
      "decorName": "水邊",
      "decorIcon": "💧"
    },
    {
      "id": "way-9407571-1/22020110330311223",
      "lat": 25.094050225650204,
      "lon": 121.1885767441513,
      "name": "未命名水邊",
      "decorType": "waterside",
      "decorName": "水邊",
      "decorIcon": "💧"
    },
    {
      "id": "way-9407571-1/22020110330200311",
      "lat": 25.09421346112107,
      "lon": 121.19645004295455,
      "name": "未命名水邊",
      "decorType": "waterside",
      "decorName": "水邊",
      "decorIcon": "💧"
    },
    {
      "id": "way-9407571-1/22020110330311220",
      "lat": 25.09388380605772,
      "lon": 121.18929252018143,
      "name": "未命名水邊",
      "decorType": "waterside",
      "decorName": "水邊",
      "decorIcon": "💧"
    },
    {
      "id": "way-9407571-1/22020110330311231",
      "lat": 25.094548509076038,
      "lon": 121.18929252018143,
      "name": "未命名水邊",
      "decorType": "waterside",
      "decorName": "水邊",
      "decorIcon": "💧"
    },
    {
      "id": "way-9407571-1/22020110330311202",
      "lat": 25.094382083381817,
      "lon": 121.1900082918936,
      "name": "未命名水邊",
      "decorType": "waterside",
      "decorName": "水邊",
      "decorIcon": "💧"
    },
    {
      "id": "way-9407571-1/22020110330311203",
      "lat": 25.094215654804486,
      "lon": 121.19072405928762,
      "name": "未命名水邊",
      "decorType": "waterside",
      "decorName": "水邊",
      "decorIcon": "💧"
    },
    {
      "id": "way-9407571-1/22020110330311200",
      "lat": 25.094880350402555,
      "lon": 121.19072405928762,
      "name": "未命名水邊",
      "decorType": "waterside",
      "decorName": "水邊",
      "decorIcon": "💧"
    },
    {
      "id": "way-9407571-1/22020110330311133",
      "lat": 25.094713915723617,
      "lon": 121.1914398223633,
      "name": "未命名水邊",
      "decorType": "waterside",
      "decorName": "水邊",
      "decorIcon": "💧"
    },
    {
      "id": "way-9407571-1/22020110330311201",
      "lat": 25.095046782198445,
      "lon": 121.1900082918936,
      "name": "未命名水邊",
      "decorType": "waterside",
      "decorName": "水邊",
      "decorIcon": "💧"
    },
    {
      "id": "way-9407571-1/22020110330200310",
      "lat": 25.09487812900252,
      "lon": 121.19645004295455,
      "name": "未命名水邊",
      "decorType": "waterside",
      "decorName": "水邊",
      "decorIcon": "💧"
    },
    {
      "id": "way-9407571-1/22020110330311232",
      "lat": 25.09521321111115,
      "lon": 121.18929252018143,
      "name": "未命名水邊",
      "decorType": "waterside",
      "decorName": "水邊",
      "decorIcon": "💧"
    },
    {
      "id": "way-9407571-1/22020110330311132",
      "lat": 25.094547478161765,
      "lon": 121.19215558112023,
      "name": "未命名水邊",
      "decorType": "waterside",
      "decorName": "水邊",
      "decorIcon": "💧"
    },
    {
      "id": "way-9407571-1/22020110330200313",
      "lat": 25.095044590297178,
      "lon": 121.19573431011537,
      "name": "未命名水邊",
      "decorType": "waterside",
      "decorName": "水邊",
      "decorIcon": "💧"
    },
    {
      "id": "way-9407571-1/22020110330311022",
      "lat": 25.095378607119866,
      "lon": 121.1914398223633,
      "name": "未命名水邊",
      "decorType": "waterside",
      "decorName": "水邊",
      "decorIcon": "💧"
    },
    {
      "id": "way-9407571-1/22020110330311023",
      "lat": 25.09521216633939,
      "lon": 121.19215558112023,
      "name": "未命名水邊",
      "decorType": "waterside",
      "decorName": "水邊",
      "decorIcon": "💧"
    },
    {
      "id": "way-9407571-1/22020110330311030",
      "lat": 25.09504572267605,
      "lon": 121.19287133555832,
      "name": "未命名水邊",
      "decorType": "waterside",
      "decorName": "水邊",
      "decorIcon": "💧"
    },
    {
      "id": "way-9407571-1/22020110330311020",
      "lat": 25.095876853533653,
      "lon": 121.19215558112023,
      "name": "未命名水邊",
      "decorType": "waterside",
      "decorName": "水邊",
      "decorIcon": "💧"
    },
    {
      "id": "way-9407571-1/22020110330311031",
      "lat": 25.09571040665171,
      "lon": 121.19287133555832,
      "name": "未命名水邊",
      "decorType": "waterside",
      "decorName": "水邊",
      "decorIcon": "💧"
    },
    {
      "id": "way-9407571-1/22020110330200302",
      "lat": 25.095709260414473,
      "lon": 121.19573431011537,
      "name": "未命名水邊",
      "decorType": "waterside",
      "decorName": "水邊",
      "decorIcon": "💧"
    },
    {
      "id": "way-9407571-1/22020110330311032",
      "lat": 25.095543956886953,
      "lon": 121.19358708567705,
      "name": "未命名水邊",
      "decorType": "waterside",
      "decorName": "水邊",
      "decorIcon": "💧"
    },
    {
      "id": "way-9407571-1/22020110330200331",
      "lat": 25.095875722045676,
      "lon": 121.19501857295592,
      "name": "未命名水邊",
      "decorType": "waterside",
      "decorName": "水邊",
      "decorIcon": "💧"
    },
    {
      "id": "way-9407571-1/22020110330311001",
      "lat": 25.096208636660492,
      "lon": 121.19358708567705,
      "name": "未命名水邊",
      "decorType": "waterside",
      "decorName": "水邊",
      "decorIcon": "💧"
    },
    {
      "id": "way-9407571-1/22020110330200330",
      "lat": 25.096042180794395,
      "lon": 121.19430283147642,
      "name": "未命名水邊",
      "decorType": "waterside",
      "decorName": "水邊",
      "decorIcon": "💧"
    },
    {
      "id": "way-9407571-1/22020110330311310",
      "lat": 25.095711480031703,
      "lon": 121.1900082918936,
      "name": "未命名水邊",
      "decorType": "waterside",
      "decorName": "水邊",
      "decorIcon": "💧"
    },
    {
      "id": "way-9407571-1/22020110330200303",
      "lat": 25.095542795900915,
      "lon": 121.19645004295455,
      "name": "未命名水邊",
      "decorType": "waterside",
      "decorName": "水邊",
      "decorIcon": "💧"
    },
    {
      "id": "way-9407571-1/22020110330133311",
      "lat": 25.088896082711152,
      "lon": 121.19645004295455,
      "name": "未命名水邊",
      "decorType": "waterside",
      "decorName": "水邊",
      "decorIcon": "💧"
    },
    {
      "id": "way-9407571-1/22020110330133310",
      "lat": 25.089560758447533,
      "lon": 121.19645004295455,
      "name": "未命名水邊",
      "decorType": "waterside",
      "decorName": "水邊",
      "decorIcon": "💧"
    },
    {
      "id": "way-9407571-1/22020110330133303",
      "lat": 25.090225433202978,
      "lon": 121.19645004295455,
      "name": "未命名水邊",
      "decorType": "waterside",
      "decorName": "水邊",
      "decorIcon": "💧"
    },
    {
      "id": "way-9407571-1/22020110330200312",
      "lat": 25.09437991919673,
      "lon": 121.19573431011537,
      "name": "未命名水邊",
      "decorType": "waterside",
      "decorName": "水邊",
      "decorIcon": "💧"
    },
    {
      "id": "way-9407571-1/22020110330200323",
      "lat": 25.09537750423953,
      "lon": 121.19430283147642,
      "name": "未命名水邊",
      "decorType": "waterside",
      "decorName": "水邊",
      "decorIcon": "💧"
    },
    {
      "id": "way-9847872-1/22020110333202013",
      "lat": 25.076583687246355,
      "lon": 121.2322311704753,
      "name": "第二航廈",
      "decorType": "airport",
      "decorName": "機場",
      "decorIcon": "✈️"
    },
    {
      "id": "way-9847872-1/22020110333202012",
      "lat": 25.076750244131986,
      "lon": 121.23151565399996,
      "name": "第二航廈",
      "decorType": "airport",
      "decorName": "機場",
      "decorIcon": "✈️"
    },
    {
      "id": "way-9847872-1/22020110333202002",
      "lat": 25.0764171274864,
      "lon": 121.23294668261644,
      "name": "第二航廈",
      "decorType": "airport",
      "decorName": "機場",
      "decorIcon": "✈️"
    },
    {
      "id": "way-9847872-1/22020110333202003",
      "lat": 25.077081644763005,
      "lon": 121.23294668261644,
      "name": "第二航廈",
      "decorType": "airport",
      "decorName": "機場",
      "decorIcon": "✈️"
    },
    {
      "id": "way-9847872-1/22020110333202011",
      "lat": 25.077414767857114,
      "lon": 121.23151565399996,
      "name": "第二航廈",
      "decorType": "airport",
      "decorName": "機場",
      "decorIcon": "✈️"
    },
    {
      "id": "way-9847872-1/22020110333202010",
      "lat": 25.077248207747257,
      "lon": 121.2322311704753,
      "name": "第二航廈",
      "decorType": "airport",
      "decorName": "機場",
      "decorIcon": "✈️"
    },
    {
      "id": "way-9847872-1/22020110333203110",
      "lat": 25.07774616106506,
      "lon": 121.23294668261644,
      "name": "第二航廈",
      "decorType": "airport",
      "decorName": "機場",
      "decorIcon": "✈️"
    },
    {
      "id": "way-9847872-1/22020110333203103",
      "lat": 25.07791272727353,
      "lon": 121.2322311704753,
      "name": "第二航廈",
      "decorType": "airport",
      "decorName": "機場",
      "decorIcon": "✈️"
    },
    {
      "id": "way-9847872-1/22020110333203100",
      "lat": 25.07807929060752,
      "lon": 121.23151565399996,
      "name": "第二航廈",
      "decorType": "airport",
      "decorName": "機場",
      "decorIcon": "✈️"
    },
    {
      "id": "way-9847872-1/22020110333203102",
      "lat": 25.078577245824903,
      "lon": 121.2322311704753,
      "name": "第二航廈",
      "decorType": "airport",
      "decorName": "機場",
      "decorIcon": "✈️"
    },
    {
      "id": "way-9847872-1/22020110333202322",
      "lat": 25.07758132509243,
      "lon": 121.23080013319066,
      "name": "第二航廈",
      "decorType": "airport",
      "decorName": "機場",
      "decorIcon": "✈️"
    },
    {
      "id": "way-9847872-1/22020110333202020",
      "lat": 25.07591916577108,
      "lon": 121.2322311704753,
      "name": "第二航廈",
      "decorType": "airport",
      "decorName": "機場",
      "decorIcon": "✈️"
    },
    {
      "id": "way-9847872-1/22020110333202000",
      "lat": 25.076915078904467,
      "lon": 121.2336621904231,
      "name": "第二航廈",
      "decorType": "airport",
      "decorName": "機場",
      "decorIcon": "✈️"
    },
    {
      "id": "way-9847873-1/22020110333200030",
      "lat": 25.08073366472022,
      "lon": 121.23723966442924,
      "name": "第一航廈",
      "decorType": "airport",
      "decorName": "機場",
      "decorIcon": "✈️"
    },
    {
      "id": "way-9847873-1/22020110333200031",
      "lat": 25.080567059047524,
      "lon": 121.23795514622316,
      "name": "第一航廈",
      "decorType": "airport",
      "decorName": "機場",
      "decorIcon": "✈️"
    },
    {
      "id": "way-9847873-1/22020110333200033",
      "lat": 25.08139815485015,
      "lon": 121.23723966442924,
      "name": "第一航廈",
      "decorType": "airport",
      "decorName": "機場",
      "decorIcon": "✈️"
    },
    {
      "id": "way-9847873-1/22020110333200032",
      "lat": 25.08123154595336,
      "lon": 121.23795514622316,
      "name": "第一航廈",
      "decorType": "airport",
      "decorName": "機場",
      "decorIcon": "✈️"
    },
    {
      "id": "way-9847873-1/22020110333200001",
      "lat": 25.081064934182606,
      "lon": 121.2386706236806,
      "name": "第一航廈",
      "decorType": "airport",
      "decorName": "機場",
      "decorIcon": "✈️"
    },
    {
      "id": "way-9847873-1/22020110333200100",
      "lat": 25.081564760872844,
      "lon": 121.23652417829919,
      "name": "第一航廈",
      "decorType": "airport",
      "decorName": "機場",
      "decorIcon": "✈️"
    },
    {
      "id": "way-9847873-1/22020110333133301",
      "lat": 25.081896031883204,
      "lon": 121.23795514622316,
      "name": "第一航廈",
      "decorType": "airport",
      "decorName": "機場",
      "decorIcon": "✈️"
    },
    {
      "id": "way-9847873-1/22020110333133300",
      "lat": 25.082062644003994,
      "lon": 121.23723966442924,
      "name": "第一航廈",
      "decorType": "airport",
      "decorName": "機場",
      "decorIcon": "✈️"
    },
    {
      "id": "way-9847873-1/22020110333133233",
      "lat": 25.082229253250606,
      "lon": 121.23652417829919,
      "name": "第一航廈",
      "decorType": "airport",
      "decorName": "機場",
      "decorIcon": "✈️"
    },
    {
      "id": "way-9847873-1/22020110333133303",
      "lat": 25.082727132181486,
      "lon": 121.23723966442924,
      "name": "第一航廈",
      "decorType": "airport",
      "decorName": "機場",
      "decorIcon": "✈️"
    },
    {
      "id": "way-9847873-1/22020110333200103",
      "lat": 25.081731364021294,
      "lon": 121.23580868783324,
      "name": "第一航廈",
      "decorType": "airport",
      "decorName": "機場",
      "decorIcon": "✈️"
    },
    {
      "id": "way-9847873-1/22020110333200101",
      "lat": 25.080900267518892,
      "lon": 121.23652417829919,
      "name": "第一航廈",
      "decorType": "airport",
      "decorName": "機場",
      "decorIcon": "✈️"
    },
    {
      "id": "way-9847873-1/22020110333200023",
      "lat": 25.080069173614454,
      "lon": 121.23723966442924,
      "name": "第一航廈",
      "decorType": "airport",
      "decorName": "機場",
      "decorIcon": "✈️"
    },
    {
      "id": "way-27696475-1/22020110330102011",
      "lat": 25.074271315485735,
      "lon": 121.20217575010355,
      "name": "湖底埤",
      "decorType": "waterside",
      "decorName": "水邊",
      "decorIcon": "💧"
    },
    {
      "id": "way-27696475-1/22020110330102012",
      "lat": 25.07493598500943,
      "lon": 121.20217575010355,
      "name": "湖底埤",
      "decorType": "waterside",
      "decorName": "水邊",
      "decorIcon": "💧"
    },
    {
      "id": "way-27696475-1/22020110330102321",
      "lat": 25.07476958796755,
      "lon": 121.20289144404751,
      "name": "湖底埤",
      "decorType": "waterside",
      "decorName": "水邊",
      "decorIcon": "💧"
    },
    {
      "id": "way-27696475-1/22020110330102013",
      "lat": 25.075102379172414,
      "lon": 121.20146005183676,
      "name": "湖底埤",
      "decorType": "waterside",
      "decorName": "水邊",
      "decorIcon": "💧"
    },
    {
      "id": "way-27696475-1/22020110330102320",
      "lat": 25.07460318804691,
      "lon": 121.20360713366853,
      "name": "湖底埤",
      "decorType": "waterside",
      "decorName": "水邊",
      "decorIcon": "💧"
    },
    {
      "id": "way-27696475-1/22020110330102313",
      "lat": 25.07526785015114,
      "lon": 121.20360713366853,
      "name": "湖底埤",
      "decorType": "waterside",
      "decorName": "水邊",
      "decorIcon": "💧"
    },
    {
      "id": "way-27696475-1/22020110330102021",
      "lat": 25.07560065355823,
      "lon": 121.20217575010355,
      "name": "湖底埤",
      "decorType": "waterside",
      "decorName": "水邊",
      "decorIcon": "💧"
    },
    {
      "id": "way-27696475-1/22020110330102312",
      "lat": 25.0754342532941,
      "lon": 121.20289144404751,
      "name": "湖底埤",
      "decorType": "waterside",
      "decorName": "水邊",
      "decorIcon": "💧"
    },
    {
      "id": "way-27696475-1/22020110330102020",
      "lat": 25.075767050943384,
      "lon": 121.20146005183676,
      "name": "湖底埤",
      "decorType": "waterside",
      "decorName": "水邊",
      "decorIcon": "💧"
    },
    {
      "id": "way-27696475-1/22020110330102310",
      "lat": 25.075932511280392,
      "lon": 121.20360713366853,
      "name": "湖底埤",
      "decorType": "waterside",
      "decorName": "水邊",
      "decorIcon": "💧"
    },
    {
      "id": "way-27696475-1/22020110330102311",
      "lat": 25.076098917645588,
      "lon": 121.20289144404751,
      "name": "湖底埤",
      "decorType": "waterside",
      "decorName": "水邊",
      "decorIcon": "💧"
    },
    {
      "id": "way-27696475-1/22020110330102022",
      "lat": 25.07626532113187,
      "lon": 121.20217575010355,
      "name": "湖底埤",
      "decorType": "waterside",
      "decorName": "水邊",
      "decorIcon": "💧"
    },
    {
      "id": "way-27696475-1/22020110330102023",
      "lat": 25.0764317217391,
      "lon": 121.20146005183676,
      "name": "湖底埤",
      "decorType": "waterside",
      "decorName": "水邊",
      "decorIcon": "💧"
    },
    {
      "id": "way-27696475-1/22020110330102200",
      "lat": 25.07676358102175,
      "lon": 121.20289144404751,
      "name": "湖底埤",
      "decorType": "waterside",
      "decorName": "水邊",
      "decorIcon": "💧"
    },
    {
      "id": "way-27696475-1/22020110330102201",
      "lat": 25.07659717143442,
      "lon": 121.20360713366853,
      "name": "湖底埤",
      "decorType": "waterside",
      "decorName": "水邊",
      "decorIcon": "💧"
    },
    {
      "id": "way-27696475-1/22020110330102133",
      "lat": 25.07692998773009,
      "lon": 121.20217575010355,
      "name": "湖底埤",
      "decorType": "waterside",
      "decorName": "水邊",
      "decorIcon": "💧"
    },
    {
      "id": "way-27696475-1/22020110330102132",
      "lat": 25.077096391559298,
      "lon": 121.20146005183676,
      "name": "湖底埤",
      "decorType": "waterside",
      "decorName": "水邊",
      "decorIcon": "💧"
    },
    {
      "id": "way-27696475-1/22020110330102130",
      "lat": 25.077594653352623,
      "lon": 121.20217575010355,
      "name": "湖底埤",
      "decorType": "waterside",
      "decorName": "水邊",
      "decorIcon": "💧"
    },
    {
      "id": "way-27696475-1/22020110330102203",
      "lat": 25.077428243422318,
      "lon": 121.20289144404751,
      "name": "湖底埤",
      "decorType": "waterside",
      "decorName": "水邊",
      "decorIcon": "💧"
    },
    {
      "id": "way-27696475-1/22020110330102131",
      "lat": 25.07776106040372,
      "lon": 121.20146005183676,
      "name": "湖底埤",
      "decorType": "waterside",
      "decorName": "水邊",
      "decorIcon": "💧"
    },
    {
      "id": "way-27696475-1/22020110330102123",
      "lat": 25.078259317999205,
      "lon": 121.20217575010355,
      "name": "湖底埤",
      "decorType": "waterside",
      "decorName": "水邊",
      "decorIcon": "💧"
    },
    {
      "id": "way-27696475-1/22020110330102101",
      "lat": 25.077262792509256,
      "lon": 121.20074434924749,
      "name": "湖底埤",
      "decorType": "waterside",
      "decorName": "水邊",
      "decorIcon": "💧"
    },
    {
      "id": "way-27696475-1/22020110330102322",
      "lat": 25.074104921666194,
      "lon": 121.20289144404751,
      "name": "湖底埤",
      "decorType": "waterside",
      "decorName": "水邊",
      "decorIcon": "💧"
    },
    {
      "id": "way-27696475-1/22020110330102031",
      "lat": 25.075933445449436,
      "lon": 121.20074434924749,
      "name": "湖底埤",
      "decorType": "waterside",
      "decorName": "水邊",
      "decorIcon": "💧"
    },
    {
      "id": "way-27696475-1/22020110330102030",
      "lat": 25.07659811946715,
      "lon": 121.20074434924749,
      "name": "湖底埤",
      "decorType": "waterside",
      "decorName": "水邊",
      "decorIcon": "💧"
    },
    {
      "id": "way-27696476-1/22020110330033333",
      "lat": 25.07095011614393,
      "lon": 121.19358708567705,
      "name": "大庄埤",
      "decorType": "waterside",
      "decorName": "水邊",
      "decorIcon": "💧"
    },
    {
      "id": "way-27696476-1/22020110330100000",
      "lat": 25.070783782653553,
      "lon": 121.19430283147642,
      "name": "大庄埤",
      "decorType": "waterside",
      "decorName": "水邊",
      "decorIcon": "💧"
    },
    {
      "id": "way-27696476-1/22020110330100001",
      "lat": 25.070617446283524,
      "lon": 121.19501857295592,
      "name": "大庄埤",
      "decorType": "waterside",
      "decorName": "水邊",
      "decorIcon": "💧"
    },
    {
      "id": "way-27696476-1/22020110330100002",
      "lat": 25.0712821558235,
      "lon": 121.19501857295592,
      "name": "大庄埤",
      "decorType": "waterside",
      "decorName": "水邊",
      "decorIcon": "💧"
    },
    {
      "id": "way-27696476-1/22020110330100031",
      "lat": 25.07111581335165,
      "lon": 121.19573431011537,
      "name": "大庄埤",
      "decorType": "waterside",
      "decorName": "水邊",
      "decorIcon": "💧"
    },
    {
      "id": "way-27696476-1/22020110330100003",
      "lat": 25.07144849541577,
      "lon": 121.19430283147642,
      "name": "大庄埤",
      "decorType": "waterside",
      "decorName": "水邊",
      "decorIcon": "💧"
    },
    {
      "id": "way-27696476-1/22020110330033331",
      "lat": 25.071781165960978,
      "lon": 121.19287133555832,
      "name": "大庄埤",
      "decorType": "waterside",
      "decorName": "水邊",
      "decorIcon": "💧"
    },
    {
      "id": "way-27696476-1/22020110330033332",
      "lat": 25.0716148321283,
      "lon": 121.19358708567705,
      "name": "大庄埤",
      "decorType": "waterside",
      "decorName": "水邊",
      "decorIcon": "💧"
    },
    {
      "id": "way-27696476-1/22020110330100013",
      "lat": 25.071946864389762,
      "lon": 121.19501857295592,
      "name": "大庄埤",
      "decorType": "waterside",
      "decorName": "水邊",
      "decorIcon": "💧"
    },
    {
      "id": "way-27696476-1/22020110330100020",
      "lat": 25.071780518695686,
      "lon": 121.19573431011537,
      "name": "大庄埤",
      "decorType": "waterside",
      "decorName": "水邊",
      "decorIcon": "💧"
    },
    {
      "id": "way-27696476-1/22020110330100010",
      "lat": 25.07211320720417,
      "lon": 121.19430283147642,
      "name": "大庄埤",
      "decorType": "waterside",
      "decorName": "水邊",
      "decorIcon": "💧"
    },
    {
      "id": "way-27696476-1/22020110330033301",
      "lat": 25.072279547138763,
      "lon": 121.19358708567705,
      "name": "大庄埤",
      "decorType": "waterside",
      "decorName": "水邊",
      "decorIcon": "💧"
    },
    {
      "id": "way-27696476-1/22020110330033302",
      "lat": 25.072445884193428,
      "lon": 121.19287133555832,
      "name": "大庄埤",
      "decorType": "waterside",
      "decorName": "水邊",
      "decorIcon": "💧"
    },
    {
      "id": "way-27696476-1/22020110330033313",
      "lat": 25.07261221836802,
      "lon": 121.19215558112023,
      "name": "大庄埤",
      "decorType": "waterside",
      "decorName": "水邊",
      "decorIcon": "💧"
    },
    {
      "id": "way-27696476-1/22020110330100011",
      "lat": 25.072777918018495,
      "lon": 121.19430283147642,
      "name": "大庄埤",
      "decorType": "waterside",
      "decorName": "水邊",
      "decorIcon": "💧"
    },
    {
      "id": "way-27696476-1/22020110330033300",
      "lat": 25.07294426117506,
      "lon": 121.19358708567705,
      "name": "大庄埤",
      "decorType": "waterside",
      "decorName": "水邊",
      "decorIcon": "💧"
    },
    {
      "id": "way-27696476-1/22020110330033303",
      "lat": 25.073110601451614,
      "lon": 121.19287133555832,
      "name": "大庄埤",
      "decorType": "waterside",
      "decorName": "水邊",
      "decorIcon": "💧"
    },
    {
      "id": "way-27696476-1/22020110330033310",
      "lat": 25.073276938848018,
      "lon": 121.19215558112023,
      "name": "大庄埤",
      "decorType": "waterside",
      "decorName": "水邊",
      "decorIcon": "💧"
    },
    {
      "id": "way-27696476-1/22020110330033232",
      "lat": 25.07377531773527,
      "lon": 121.19287133555832,
      "name": "大庄埤",
      "decorType": "waterside",
      "decorName": "水邊",
      "decorIcon": "💧"
    },
    {
      "id": "way-27696476-1/22020110330033233",
      "lat": 25.07360897423692,
      "lon": 121.19358708567705,
      "name": "大庄埤",
      "decorType": "waterside",
      "decorName": "水邊",
      "decorIcon": "💧"
    },
    {
      "id": "way-27696476-1/22020110330100012",
      "lat": 25.072611571982037,
      "lon": 121.19501857295592,
      "name": "大庄埤",
      "decorType": "waterside",
      "decorName": "水邊",
      "decorIcon": "💧"
    },
    {
      "id": "way-27696476-1/22031001001033333",
      "lat": 25.07011906891779,
      "lon": 121.19430283147642,
      "name": "大庄埤",
      "decorType": "waterside",
      "decorName": "水邊",
      "decorIcon": "💧"
    },
    {
      "id": "way-27696476-1/22031001001100000",
      "lat": 25.070285399185913,
      "lon": 121.19358708567705,
      "name": "大庄埤",
      "decorType": "waterside",
      "decorName": "水邊",
      "decorIcon": "💧"
    },
    {
      "id": "way-27696476-1/22020110330033330",
      "lat": 25.071116446754523,
      "lon": 121.19287133555832,
      "name": "大庄埤",
      "decorType": "waterside",
      "decorName": "水邊",
      "decorIcon": "💧"
    },
    {
      "id": "way-27696476-1/22020110330033320",
      "lat": 25.07194749691366,
      "lon": 121.19215558112023,
      "name": "大庄埤",
      "decorType": "waterside",
      "decorName": "水邊",
      "decorIcon": "💧"
    },
    {
      "id": "way-27696477-1/22020110330031021",
      "lat": 25.080590206659316,
      "lon": 121.18642939015672,
      "name": "海湖埤",
      "decorType": "waterside",
      "decorName": "水邊",
      "decorIcon": "💧"
    },
    {
      "id": "way-27696477-1/22020110330031022",
      "lat": 25.080756547114145,
      "lon": 121.18571359685791,
      "name": "海湖埤",
      "decorType": "waterside",
      "decorName": "水邊",
      "decorIcon": "💧"
    },
    {
      "id": "way-27696477-1/22020110330031020",
      "lat": 25.0812549431453,
      "lon": 121.18642939015672,
      "name": "海湖埤",
      "decorType": "waterside",
      "decorName": "水邊",
      "decorIcon": "💧"
    },
    {
      "id": "way-27696477-1/22020110330031133",
      "lat": 25.0809228846868,
      "lon": 121.18499779924264,
      "name": "海湖埤",
      "decorType": "waterside",
      "decorName": "水邊",
      "decorIcon": "💧"
    },
    {
      "id": "way-27696477-1/22020110330031023",
      "lat": 25.081421286820298,
      "lon": 121.18571359685791,
      "name": "海湖埤",
      "decorType": "waterside",
      "decorName": "水邊",
      "decorIcon": "💧"
    },
    {
      "id": "way-27696477-1/22020110330031013",
      "lat": 25.081088596588174,
      "lon": 121.18714517913872,
      "name": "海湖埤",
      "decorType": "waterside",
      "decorName": "水邊",
      "decorIcon": "💧"
    },
    {
      "id": "way-27696477-1/22020110330031132",
      "lat": 25.08158762761304,
      "lon": 121.18499779924264,
      "name": "海湖埤",
      "decorType": "waterside",
      "decorName": "水邊",
      "decorIcon": "💧"
    },
    {
      "id": "way-27696477-1/22020110330031031",
      "lat": 25.081919678653257,
      "lon": 121.18642939015672,
      "name": "海湖埤",
      "decorType": "waterside",
      "decorName": "水邊",
      "decorIcon": "💧"
    },
    {
      "id": "way-27696477-1/22020110330031002",
      "lat": 25.08175332887598,
      "lon": 121.18714517913872,
      "name": "海湖埤",
      "decorType": "waterside",
      "decorName": "水邊",
      "decorIcon": "💧"
    },
    {
      "id": "way-27696477-1/22020110330031030",
      "lat": 25.082086025548325,
      "lon": 121.18571359685791,
      "name": "海湖埤",
      "decorType": "waterside",
      "decorName": "水邊",
      "decorIcon": "💧"
    },
    {
      "id": "way-27696477-1/22020110330031003",
      "lat": 25.08158697621663,
      "lon": 121.1878609638037,
      "name": "海湖埤",
      "decorType": "waterside",
      "decorName": "水邊",
      "decorIcon": "💧"
    },
    {
      "id": "way-27696477-1/22020110330031001",
      "lat": 25.08241806018559,
      "lon": 121.18714517913872,
      "name": "海湖埤",
      "decorType": "waterside",
      "decorName": "水邊",
      "decorIcon": "💧"
    },
    {
      "id": "way-27696477-1/22020110330031032",
      "lat": 25.082584413182925,
      "lon": 121.18642939015672,
      "name": "海湖埤",
      "decorType": "waterside",
      "decorName": "水邊",
      "decorIcon": "💧"
    },
    {
      "id": "way-27696478-1/22031001001101203",
      "lat": 25.062309114943538,
      "lon": 121.19072405928762,
      "name": "麻油埤",
      "decorType": "waterside",
      "decorName": "水邊",
      "decorIcon": "💧"
    },
    {
      "id": "way-27696478-1/22031001001101130",
      "lat": 25.06214283808882,
      "lon": 121.1914398223633,
      "name": "麻油埤",
      "decorType": "waterside",
      "decorName": "水邊",
      "decorIcon": "💧"
    },
    {
      "id": "way-27696478-1/22031001001101131",
      "lat": 25.061976558355017,
      "lon": 121.19215558112023,
      "name": "麻油埤",
      "decorType": "waterside",
      "decorName": "水邊",
      "decorIcon": "💧"
    },
    {
      "id": "way-27696478-1/22031001001101132",
      "lat": 25.062641294393018,
      "lon": 121.19215558112023,
      "name": "麻油埤",
      "decorType": "waterside",
      "decorName": "水邊",
      "decorIcon": "💧"
    },
    {
      "id": "way-27696478-1/22031001001101133",
      "lat": 25.06280757735006,
      "lon": 121.1914398223633,
      "name": "麻油埤",
      "decorType": "waterside",
      "decorName": "水邊",
      "decorIcon": "💧"
    },
    {
      "id": "way-27696478-1/22031001001101101",
      "lat": 25.062475008556937,
      "lon": 121.19287133555832,
      "name": "麻油埤",
      "decorType": "waterside",
      "decorName": "水邊",
      "decorIcon": "💧"
    },
    {
      "id": "way-27696478-1/22031001001101200",
      "lat": 25.062973857427945,
      "lon": 121.19072405928762,
      "name": "麻油埤",
      "decorType": "waterside",
      "decorName": "水邊",
      "decorIcon": "💧"
    },
    {
      "id": "way-27696478-1/22031001001101023",
      "lat": 25.063306029460627,
      "lon": 121.19215558112023,
      "name": "麻油埤",
      "decorType": "waterside",
      "decorName": "水邊",
      "decorIcon": "💧"
    },
    {
      "id": "way-27696478-1/22031001001101030",
      "lat": 25.063139740401322,
      "lon": 121.19287133555832,
      "name": "麻油埤",
      "decorType": "waterside",
      "decorName": "水邊",
      "decorIcon": "💧"
    },
    {
      "id": "way-27696478-1/22031001001101022",
      "lat": 25.06347231564082,
      "lon": 121.1914398223633,
      "name": "麻油埤",
      "decorType": "waterside",
      "decorName": "水邊",
      "decorIcon": "💧"
    },
    {
      "id": "way-27696478-1/22031001001101311",
      "lat": 25.063638598941775,
      "lon": 121.19072405928762,
      "name": "麻油埤",
      "decorType": "waterside",
      "decorName": "水邊",
      "decorIcon": "💧"
    },
    {
      "id": "way-27696478-1/22031001001101031",
      "lat": 25.063804471275144,
      "lon": 121.19287133555832,
      "name": "麻油埤",
      "decorType": "waterside",
      "decorName": "水邊",
      "decorIcon": "💧"
    },
    {
      "id": "way-27696478-1/22031001001101021",
      "lat": 25.064137052960834,
      "lon": 121.1914398223633,
      "name": "麻油埤",
      "decorType": "waterside",
      "decorName": "水邊",
      "decorIcon": "💧"
    },
    {
      "id": "way-27696478-1/22031001001101020",
      "lat": 25.06397076355758,
      "lon": 121.19215558112023,
      "name": "麻油埤",
      "decorType": "waterside",
      "decorName": "水邊",
      "decorIcon": "💧"
    },
    {
      "id": "way-27696478-1/22031001001101312",
      "lat": 25.064303339484766,
      "lon": 121.19072405928762,
      "name": "麻油埤",
      "decorType": "waterside",
      "decorName": "水邊",
      "decorIcon": "💧"
    },
    {
      "id": "way-27696478-1/22031001001101013",
      "lat": 25.064635496683618,
      "lon": 121.19215558112023,
      "name": "麻油埤",
      "decorType": "waterside",
      "decorName": "水邊",
      "decorIcon": "💧"
    },
    {
      "id": "way-27696478-1/22031001001101012",
      "lat": 25.064801789309833,
      "lon": 121.1914398223633,
      "name": "麻油埤",
      "decorType": "waterside",
      "decorName": "水邊",
      "decorIcon": "💧"
    },
    {
      "id": "way-27696487-1/22031001002103322",
      "lat": 25.028238526342488,
      "lon": 121.18285038050061,
      "name": "雙溪口溪",
      "decorType": "waterside",
      "decorName": "水邊",
      "decorIcon": "💧"
    },
    {
      "id": "way-27696487-1/22031001002103323",
      "lat": 25.028903356350416,
      "lon": 121.18285038050061,
      "name": "雙溪口溪",
      "decorType": "waterside",
      "decorName": "水邊",
      "decorIcon": "💧"
    },
    {
      "id": "way-27696487-1/22031001002103320",
      "lat": 25.028737282091313,
      "lon": 121.18356619106373,
      "name": "雙溪口溪",
      "decorType": "waterside",
      "decorName": "水邊",
      "decorIcon": "💧"
    },
    {
      "id": "way-27696487-1/22031001002103331",
      "lat": 25.029402107914635,
      "lon": 121.18356619106373,
      "name": "雙溪口溪",
      "decorType": "waterside",
      "decorName": "水邊",
      "decorIcon": "💧"
    },
    {
      "id": "way-27696487-1/22031001002103302",
      "lat": 25.029236027551754,
      "lon": 121.18428199731113,
      "name": "雙溪口溪",
      "decorType": "waterside",
      "decorName": "水邊",
      "decorIcon": "💧"
    },
    {
      "id": "way-27696487-1/22031001002103303",
      "lat": 25.029069944312536,
      "lon": 121.18499779924264,
      "name": "雙溪口溪",
      "decorType": "waterside",
      "decorName": "水邊",
      "decorIcon": "💧"
    },
    {
      "id": "way-27696487-1/22031001002103232",
      "lat": 25.028903858197104,
      "lon": 121.18571359685791,
      "name": "雙溪口溪",
      "decorType": "waterside",
      "decorName": "水邊",
      "decorIcon": "💧"
    },
    {
      "id": "way-27696487-1/22031001002103233",
      "lat": 25.029568673380872,
      "lon": 121.18571359685791,
      "name": "雙溪口溪",
      "decorType": "waterside",
      "decorName": "水邊",
      "decorIcon": "💧"
    },
    {
      "id": "way-27696487-1/22031001002103230",
      "lat": 25.029402581161847,
      "lon": 121.18642939015672,
      "name": "雙溪口溪",
      "decorType": "waterside",
      "decorName": "水邊",
      "decorIcon": "💧"
    },
    {
      "id": "way-27696487-1/22031001001230103",
      "lat": 25.03006739216073,
      "lon": 121.18642939015672,
      "name": "雙溪口溪",
      "decorType": "waterside",
      "decorName": "水邊",
      "decorIcon": "💧"
    },
    {
      "id": "way-27696487-1/22031001001230102",
      "lat": 25.030732202201982,
      "lon": 121.18642939015672,
      "name": "雙溪口溪",
      "decorType": "waterside",
      "decorName": "水邊",
      "decorIcon": "💧"
    },
    {
      "id": "way-27696487-1/22031001001230101",
      "lat": 25.030898300875744,
      "lon": 121.18571359685791,
      "name": "雙溪口溪",
      "decorType": "waterside",
      "decorName": "水邊",
      "decorIcon": "💧"
    },
    {
      "id": "way-27696487-1/22031001001230132",
      "lat": 25.031563113186326,
      "lon": 121.18571359685791,
      "name": "雙溪口溪",
      "decorType": "waterside",
      "decorName": "水邊",
      "decorIcon": "💧"
    },
    {
      "id": "way-27696487-1/22031001001230133",
      "lat": 25.032227924538645,
      "lon": 121.18571359685791,
      "name": "雙溪口溪",
      "decorType": "waterside",
      "decorName": "水邊",
      "decorIcon": "💧"
    },
    {
      "id": "way-27696487-1/22031001001230200",
      "lat": 25.032892734932446,
      "lon": 121.18571359685791,
      "name": "雙溪口溪",
      "decorType": "waterside",
      "decorName": "水邊",
      "decorIcon": "💧"
    },
    {
      "id": "way-27696487-1/22031001001230201",
      "lat": 25.033557544367454,
      "lon": 121.18571359685791,
      "name": "雙溪口溪",
      "decorType": "waterside",
      "decorName": "水邊",
      "decorIcon": "💧"
    },
    {
      "id": "way-27696487-1/22031001001230232",
      "lat": 25.034222352843408,
      "lon": 121.18571359685791,
      "name": "雙溪口溪",
      "decorType": "waterside",
      "decorName": "水邊",
      "decorIcon": "💧"
    },
    {
      "id": "way-27696487-1/22031001001230231",
      "lat": 25.034056238034427,
      "lon": 121.18642939015672,
      "name": "雙溪口溪",
      "decorType": "waterside",
      "decorName": "水邊",
      "decorIcon": "💧"
    },
    {
      "id": "way-27696487-1/22031001001230230",
      "lat": 25.0347210423243,
      "lon": 121.18642939015672,
      "name": "雙溪口溪",
      "decorType": "waterside",
      "decorName": "水邊",
      "decorIcon": "💧"
    },
    {
      "id": "way-27696487-1/22031001001230223",
      "lat": 25.0345549214119,
      "lon": 121.18714517913872,
      "name": "雙溪口溪",
      "decorType": "waterside",
      "decorName": "水邊",
      "decorIcon": "💧"
    },
    {
      "id": "way-27696487-1/22031001001231330",
      "lat": 25.035219721515542,
      "lon": 121.18714517913872,
      "name": "雙溪口溪",
      "decorType": "waterside",
      "decorName": "水邊",
      "decorIcon": "💧"
    },
    {
      "id": "way-27696487-1/22031001001231333",
      "lat": 25.035053594499804,
      "lon": 121.1878609638037,
      "name": "雙溪口溪",
      "decorType": "waterside",
      "decorName": "水邊",
      "decorIcon": "💧"
    },
    {
      "id": "way-27696487-1/22031001001231332",
      "lat": 25.035718390417053,
      "lon": 121.1878609638037,
      "name": "雙溪口溪",
      "decorType": "waterside",
      "decorName": "水邊",
      "decorIcon": "💧"
    },
    {
      "id": "way-27696487-1/22031001001232032",
      "lat": 25.036217049028753,
      "lon": 121.1885767441513,
      "name": "雙溪口溪",
      "decorType": "waterside",
      "decorName": "水邊",
      "decorIcon": "💧"
    },
    {
      "id": "way-27696487-1/22031001001232033",
      "lat": 25.03688183979946,
      "lon": 121.1885767441513,
      "name": "雙溪口溪",
      "decorType": "waterside",
      "decorName": "水邊",
      "decorIcon": "💧"
    },
    {
      "id": "way-27696487-1/22031001001232100",
      "lat": 25.037546629609896,
      "lon": 121.1885767441513,
      "name": "雙溪口溪",
      "decorType": "waterside",
      "decorName": "水邊",
      "decorIcon": "💧"
    },
    {
      "id": "way-27696487-1/22031001001232103",
      "lat": 25.038211418459806,
      "lon": 121.1885767441513,
      "name": "雙溪口溪",
      "decorType": "waterside",
      "decorName": "水邊",
      "decorIcon": "💧"
    },
    {
      "id": "way-27696487-1/22031001001232110",
      "lat": 25.038876206348917,
      "lon": 121.1885767441513,
      "name": "雙溪口溪",
      "decorType": "waterside",
      "decorName": "水邊",
      "decorIcon": "💧"
    },
    {
      "id": "way-27696487-1/22031001001232111",
      "lat": 25.03954099327696,
      "lon": 121.1885767441513,
      "name": "雙溪口溪",
      "decorType": "waterside",
      "decorName": "水邊",
      "decorIcon": "💧"
    },
    {
      "id": "way-27696487-1/22031001001232112",
      "lat": 25.039374837922207,
      "lon": 121.18929252018143,
      "name": "雙溪口溪",
      "decorType": "waterside",
      "decorName": "水邊",
      "decorIcon": "💧"
    },
    {
      "id": "way-27696487-1/22031001001201221",
      "lat": 25.040039620662704,
      "lon": 121.18929252018143,
      "name": "雙溪口溪",
      "decorType": "waterside",
      "decorName": "水邊",
      "decorIcon": "💧"
    },
    {
      "id": "way-27696487-1/22031001001201220",
      "lat": 25.040704402441705,
      "lon": 121.18929252018143,
      "name": "雙溪口溪",
      "decorType": "waterside",
      "decorName": "水邊",
      "decorIcon": "💧"
    },
    {
      "id": "way-27696487-1/22031001001201223",
      "lat": 25.04087056424882,
      "lon": 121.1885767441513,
      "name": "雙溪口溪",
      "decorType": "waterside",
      "decorName": "水邊",
      "decorIcon": "💧"
    },
    {
      "id": "way-27696487-1/22031001001201231",
      "lat": 25.04136918325894,
      "lon": 121.18929252018143,
      "name": "雙溪口溪",
      "decorType": "waterside",
      "decorName": "水邊",
      "decorIcon": "💧"
    },
    {
      "id": "way-27696487-1/22031001001201232",
      "lat": 25.04203396311415,
      "lon": 121.18929252018143,
      "name": "雙溪口溪",
      "decorType": "waterside",
      "decorName": "水邊",
      "decorIcon": "💧"
    },
    {
      "id": "way-27696487-1/22031001001201303",
      "lat": 25.04269874200707,
      "lon": 121.18929252018143,
      "name": "雙溪口溪",
      "decorType": "waterside",
      "decorName": "水邊",
      "decorIcon": "💧"
    },
    {
      "id": "way-27696487-1/22031001001201300",
      "lat": 25.042864913492018,
      "lon": 121.1885767441513,
      "name": "雙溪口溪",
      "decorType": "waterside",
      "decorName": "水邊",
      "decorIcon": "💧"
    },
    {
      "id": "way-27696487-1/22031001001201301",
      "lat": 25.043529694648132,
      "lon": 121.1885767441513,
      "name": "雙溪口溪",
      "decorType": "waterside",
      "decorName": "水邊",
      "decorIcon": "💧"
    },
    {
      "id": "way-27696487-1/22031001001202032",
      "lat": 25.043695866481492,
      "lon": 121.1878609638037,
      "name": "雙溪口溪",
      "decorType": "waterside",
      "decorName": "水邊",
      "decorIcon": "💧"
    },
    {
      "id": "way-27696487-1/22031001001202031",
      "lat": 25.04386203543737,
      "lon": 121.18714517913872,
      "name": "雙溪口溪",
      "decorType": "waterside",
      "decorName": "水邊",
      "decorIcon": "💧"
    },
    {
      "id": "way-27696487-1/22031001001202020",
      "lat": 25.044028201515637,
      "lon": 121.18642939015672,
      "name": "雙溪口溪",
      "decorType": "waterside",
      "decorName": "水邊",
      "decorIcon": "💧"
    },
    {
      "id": "way-27696487-1/22031001001202013",
      "lat": 25.044692991385357,
      "lon": 121.18642939015672,
      "name": "雙溪口溪",
      "decorType": "waterside",
      "decorName": "水邊",
      "decorIcon": "💧"
    },
    {
      "id": "way-27696487-1/22031001001202012",
      "lat": 25.044859157811224,
      "lon": 121.18571359685791,
      "name": "雙溪口溪",
      "decorType": "waterside",
      "decorName": "水邊",
      "decorIcon": "💧"
    },
    {
      "id": "way-27696487-1/22031001001202011",
      "lat": 25.045523949942737,
      "lon": 121.18571359685791,
      "name": "雙溪口溪",
      "decorType": "waterside",
      "decorName": "水邊",
      "decorIcon": "💧"
    },
    {
      "id": "way-27696487-1/22031001001203033",
      "lat": 25.046354911108594,
      "lon": 121.18499779924264,
      "name": "雙溪口溪",
      "decorType": "waterside",
      "decorName": "水邊",
      "decorIcon": "💧"
    },
    {
      "id": "way-27696487-1/22031001001203032",
      "lat": 25.04652107822852,
      "lon": 121.18428199731113,
      "name": "雙溪口溪",
      "decorType": "waterside",
      "decorName": "水邊",
      "decorIcon": "💧"
    },
    {
      "id": "way-27696487-1/22031001001203031",
      "lat": 25.047185874882018,
      "lon": 121.18428199731113,
      "name": "雙溪口溪",
      "decorType": "waterside",
      "decorName": "水邊",
      "decorIcon": "💧"
    },
    {
      "id": "way-27696487-1/22031001001203002",
      "lat": 25.047352042348404,
      "lon": 121.18356619106373,
      "name": "雙溪口溪",
      "decorType": "waterside",
      "decorName": "水邊",
      "decorIcon": "💧"
    },
    {
      "id": "way-27696487-1/22031001001203013",
      "lat": 25.0480168412621,
      "lon": 121.18356619106373,
      "name": "雙溪口溪",
      "decorType": "waterside",
      "decorName": "水邊",
      "decorIcon": "💧"
    },
    {
      "id": "way-27696487-1/22031001001203010",
      "lat": 25.048183009074553,
      "lon": 121.18285038050061,
      "name": "雙溪口溪",
      "decorType": "waterside",
      "decorName": "水邊",
      "decorIcon": "💧"
    },
    {
      "id": "way-27696487-1/22031001001203011",
      "lat": 25.048847810247914,
      "lon": 121.18285038050061,
      "name": "雙溪口溪",
      "decorType": "waterside",
      "decorName": "水邊",
      "decorIcon": "💧"
    },
    {
      "id": "way-27696487-1/22031001001203321",
      "lat": 25.049346436194536,
      "lon": 121.18356619106373,
      "name": "雙溪口溪",
      "decorType": "waterside",
      "decorName": "水邊",
      "decorIcon": "💧"
    },
    {
      "id": "way-27696487-1/22031001001203313",
      "lat": 25.04984505184797,
      "lon": 121.18428199731113,
      "name": "雙溪口溪",
      "decorType": "waterside",
      "decorName": "水邊",
      "decorIcon": "💧"
    },
    {
      "id": "way-27696487-1/22031001001203303",
      "lat": 25.050343657208142,
      "lon": 121.18499779924264,
      "name": "雙溪口溪",
      "decorType": "waterside",
      "decorName": "水邊",
      "decorIcon": "💧"
    },
    {
      "id": "way-27696487-1/22031001001203300",
      "lat": 25.051008444846083,
      "lon": 121.18499779924264,
      "name": "雙溪口溪",
      "decorType": "waterside",
      "decorName": "水邊",
      "decorIcon": "💧"
    },
    {
      "id": "way-27696487-1/22031001001203233",
      "lat": 25.050842252274972,
      "lon": 121.18571359685791,
      "name": "雙溪口溪",
      "decorType": "waterside",
      "decorName": "水邊",
      "decorIcon": "💧"
    },
    {
      "id": "way-27696487-1/22031001001130100",
      "lat": 25.051507035722544,
      "lon": 121.18571359685791,
      "name": "雙溪口溪",
      "decorType": "waterside",
      "decorName": "水邊",
      "decorIcon": "💧"
    },
    {
      "id": "way-27696487-1/22031001001130101",
      "lat": 25.052171818203913,
      "lon": 121.18571359685791,
      "name": "雙溪口溪",
      "decorType": "waterside",
      "decorName": "水邊",
      "decorIcon": "💧"
    },
    {
      "id": "way-27696487-1/22031001001130030",
      "lat": 25.052338017223594,
      "lon": 121.18499779924264,
      "name": "雙溪口溪",
      "decorType": "waterside",
      "decorName": "水邊",
      "decorIcon": "💧"
    },
    {
      "id": "way-27696487-1/22031001001130023",
      "lat": 25.053002801962634,
      "lon": 121.18499779924264,
      "name": "雙溪口溪",
      "decorType": "waterside",
      "decorName": "水邊",
      "decorIcon": "💧"
    },
    {
      "id": "way-27696487-1/22031001001130020",
      "lat": 25.05316900132742,
      "lon": 121.18428199731113,
      "name": "雙溪口溪",
      "decorType": "waterside",
      "decorName": "水邊",
      "decorIcon": "💧"
    },
    {
      "id": "way-27696487-1/22031001001130013",
      "lat": 25.053335197813055,
      "lon": 121.18356619106373,
      "name": "雙溪口溪",
      "decorType": "waterside",
      "decorName": "水邊",
      "decorIcon": "💧"
    },
    {
      "id": "way-27696487-1/22031001001130010",
      "lat": 25.053501391419392,
      "lon": 121.18285038050061,
      "name": "雙溪口溪",
      "decorType": "waterside",
      "decorName": "水邊",
      "decorIcon": "💧"
    },
    {
      "id": "way-27696487-1/22031001001130011",
      "lat": 25.05416618486327,
      "lon": 121.18285038050061,
      "name": "雙溪口溪",
      "decorType": "waterside",
      "decorName": "水邊",
      "decorIcon": "💧"
    },
    {
      "id": "way-27696487-1/22031001001123300",
      "lat": 25.054332378813918,
      "lon": 121.1821345656221,
      "name": "雙溪口溪",
      "decorType": "waterside",
      "decorName": "水邊",
      "decorIcon": "💧"
    },
    {
      "id": "way-27696487-1/22031001001123233",
      "lat": 25.05499717451406,
      "lon": 121.1821345656221,
      "name": "雙溪口溪",
      "decorType": "waterside",
      "decorName": "水邊",
      "decorIcon": "💧"
    },
    {
      "id": "way-27696487-1/22031001001123230",
      "lat": 25.055661969246465,
      "lon": 121.1821345656221,
      "name": "雙溪口溪",
      "decorType": "waterside",
      "decorName": "水邊",
      "decorIcon": "💧"
    },
    {
      "id": "way-27696487-1/22031001001123223",
      "lat": 25.056326763010873,
      "lon": 121.1821345656221,
      "name": "雙溪口溪",
      "decorType": "waterside",
      "decorName": "水邊",
      "decorIcon": "💧"
    },
    {
      "id": "way-27696487-1/22031001001130330",
      "lat": 25.056160559389586,
      "lon": 121.18285038050061,
      "name": "雙溪口溪",
      "decorType": "waterside",
      "decorName": "水邊",
      "decorIcon": "💧"
    },
    {
      "id": "way-27696487-1/22031001001130333",
      "lat": 25.056825348962366,
      "lon": 121.18285038050061,
      "name": "雙溪口溪",
      "decorType": "waterside",
      "decorName": "水邊",
      "decorIcon": "💧"
    },
    {
      "id": "way-27696487-1/22031001001131000",
      "lat": 25.057490137566713,
      "lon": 121.18285038050061,
      "name": "雙溪口溪",
      "decorType": "waterside",
      "decorName": "水邊",
      "decorIcon": "💧"
    },
    {
      "id": "way-27696487-1/22031001001131001",
      "lat": 25.058154925202356,
      "lon": 121.18285038050061,
      "name": "雙溪口溪",
      "decorType": "waterside",
      "decorName": "水邊",
      "decorIcon": "💧"
    },
    {
      "id": "way-27696487-1/22031001001131002",
      "lat": 25.057988709031314,
      "lon": 121.18356619106373,
      "name": "雙溪口溪",
      "decorType": "waterside",
      "decorName": "水邊",
      "decorIcon": "💧"
    },
    {
      "id": "way-27696487-1/22031001001131031",
      "lat": 25.05865349247484,
      "lon": 121.18356619106373,
      "name": "雙溪口溪",
      "decorType": "waterside",
      "decorName": "水邊",
      "decorIcon": "💧"
    },
    {
      "id": "way-27696487-1/22031001001131030",
      "lat": 25.059318274949227,
      "lon": 121.18356619106373,
      "name": "雙溪口溪",
      "decorType": "waterside",
      "decorName": "水邊",
      "decorIcon": "💧"
    },
    {
      "id": "way-27696487-1/22031001001131033",
      "lat": 25.05948449756648,
      "lon": 121.18285038050061,
      "name": "雙溪口溪",
      "decorType": "waterside",
      "decorName": "水邊",
      "decorIcon": "💧"
    },
    {
      "id": "way-27696487-1/22031001001131100",
      "lat": 25.06014928229443,
      "lon": 121.18285038050061,
      "name": "雙溪口溪",
      "decorType": "waterside",
      "decorName": "水邊",
      "decorIcon": "💧"
    },
    {
      "id": "way-27696487-1/22031001001120033",
      "lat": 25.060315505254444,
      "lon": 121.1821345656221,
      "name": "雙溪口溪",
      "decorType": "waterside",
      "decorName": "水邊",
      "decorIcon": "💧"
    },
    {
      "id": "way-27696487-1/22031001001120030",
      "lat": 25.060481725334114,
      "lon": 121.18141874642845,
      "name": "雙溪口溪",
      "decorType": "waterside",
      "decorName": "水邊",
      "decorIcon": "💧"
    },
    {
      "id": "way-27696487-1/22031001001120031",
      "lat": 25.061146515537807,
      "lon": 121.18141874642845,
      "name": "雙溪口溪",
      "decorType": "waterside",
      "decorName": "水邊",
      "decorIcon": "💧"
    },
    {
      "id": "way-27696487-1/22031001001120020",
      "lat": 25.06131273595964,
      "lon": 121.18070292291998,
      "name": "雙溪口溪",
      "decorType": "waterside",
      "decorName": "水邊",
      "decorIcon": "💧"
    },
    {
      "id": "way-27696487-1/22031001001120013",
      "lat": 25.06197752841566,
      "lon": 121.18070292291998,
      "name": "雙溪口溪",
      "decorType": "waterside",
      "decorName": "水邊",
      "decorIcon": "💧"
    },
    {
      "id": "way-27696487-1/22031001001120012",
      "lat": 25.062143749179274,
      "lon": 121.17998709509686,
      "name": "雙溪口溪",
      "decorType": "waterside",
      "decorName": "水邊",
      "decorIcon": "💧"
    },
    {
      "id": "way-27696487-1/22031001001120021",
      "lat": 25.06147895350079,
      "lon": 121.17998709509686,
      "name": "雙溪口溪",
      "decorType": "waterside",
      "decorName": "水邊",
      "decorIcon": "💧"
    },
    {
      "id": "way-27696487-1/22031001001120312",
      "lat": 25.06164516816112,
      "lon": 121.17927126295945,
      "name": "雙溪口溪",
      "decorType": "waterside",
      "decorName": "水邊",
      "decorIcon": "💧"
    },
    {
      "id": "way-27696487-1/22031001001120313",
      "lat": 25.061811379940504,
      "lon": 121.17855542650801,
      "name": "雙溪口溪",
      "decorType": "waterside",
      "decorName": "水邊",
      "decorIcon": "💧"
    },
    {
      "id": "way-27696487-1/22031001001120302",
      "lat": 25.061977588838804,
      "lon": 121.17783958574284,
      "name": "雙溪口溪",
      "decorType": "waterside",
      "decorName": "水邊",
      "decorIcon": "💧"
    },
    {
      "id": "way-27696487-1/22031001001120331",
      "lat": 25.062642394184213,
      "lon": 121.17783958574284,
      "name": "雙溪口溪",
      "decorType": "waterside",
      "decorName": "水邊",
      "decorIcon": "💧"
    },
    {
      "id": "way-27696487-1/22031001001120330",
      "lat": 25.063307198558665,
      "lon": 121.17783958574284,
      "name": "雙溪口溪",
      "decorType": "waterside",
      "decorName": "水邊",
      "decorIcon": "💧"
    },
    {
      "id": "way-27696487-1/22031001001113003",
      "lat": 25.0639720019619,
      "lon": 121.17783958574284,
      "name": "雙溪口溪",
      "decorType": "waterside",
      "decorName": "水邊",
      "decorIcon": "💧"
    },
    {
      "id": "way-27696487-1/22031001001113002",
      "lat": 25.064636804393658,
      "lon": 121.17783958574284,
      "name": "雙溪口溪",
      "decorType": "waterside",
      "decorName": "水邊",
      "decorIcon": "💧"
    },
    {
      "id": "way-27696487-1/22031001001113001",
      "lat": 25.064803023298783,
      "lon": 121.17712374066411,
      "name": "雙溪口溪",
      "decorType": "waterside",
      "decorName": "水邊",
      "decorIcon": "💧"
    },
    {
      "id": "way-27696487-1/22031001001113032",
      "lat": 25.06546782798057,
      "lon": 121.17712374066411,
      "name": "雙溪口溪",
      "decorType": "waterside",
      "decorName": "水邊",
      "decorIcon": "💧"
    },
    {
      "id": "way-27696487-1/22031001001113033",
      "lat": 25.06613263169025,
      "lon": 121.17712374066411,
      "name": "雙溪口溪",
      "decorType": "waterside",
      "decorName": "水邊",
      "decorIcon": "💧"
    },
    {
      "id": "way-27696487-1/22031001001112322",
      "lat": 25.066298854157008,
      "lon": 121.17640789127222,
      "name": "雙溪口溪",
      "decorType": "waterside",
      "decorName": "水邊",
      "decorIcon": "💧"
    },
    {
      "id": "way-27696487-1/22031001001112011",
      "lat": 25.06696366011583,
      "lon": 121.17640789127222,
      "name": "雙溪口溪",
      "decorType": "waterside",
      "decorName": "水邊",
      "decorIcon": "💧"
    },
    {
      "id": "way-27696487-1/22031001001112010",
      "lat": 25.06762846510193,
      "lon": 121.17640789127222,
      "name": "雙溪口溪",
      "decorType": "waterside",
      "decorName": "水邊",
      "decorIcon": "💧"
    },
    {
      "id": "way-27696487-1/22031001001112003",
      "lat": 25.068293269115028,
      "lon": 121.17640789127222,
      "name": "雙溪口溪",
      "decorType": "waterside",
      "decorName": "水邊",
      "decorIcon": "💧"
    },
    {
      "id": "way-27696487-1/22031001001112000",
      "lat": 25.068958072154874,
      "lon": 121.17640789127222,
      "name": "雙溪口溪",
      "decorType": "waterside",
      "decorName": "水邊",
      "decorIcon": "💧"
    },
    {
      "id": "way-27696487-1/22031001001112001",
      "lat": 25.06912430462483,
      "lon": 121.17569203756739,
      "name": "雙溪口溪",
      "decorType": "waterside",
      "decorName": "水邊",
      "decorIcon": "💧"
    },
    {
      "id": "way-27696487-1/22031001001111332",
      "lat": 25.069789109912204,
      "lon": 121.17569203756739,
      "name": "雙溪口溪",
      "decorType": "waterside",
      "decorName": "水邊",
      "decorIcon": "💧"
    },
    {
      "id": "way-27696487-1/22031001001111331",
      "lat": 25.070453914225695,
      "lon": 121.17569203756739,
      "name": "雙溪口溪",
      "decorType": "waterside",
      "decorName": "水邊",
      "decorIcon": "💧"
    },
    {
      "id": "way-27696487-1/22031001001111302",
      "lat": 25.070620150255102,
      "lon": 121.17497617954984,
      "name": "雙溪口溪",
      "decorType": "waterside",
      "decorName": "水邊",
      "decorIcon": "💧"
    },
    {
      "id": "way-27696487-1/22031001001111313",
      "lat": 25.07128495681524,
      "lon": 121.17497617954984,
      "name": "雙溪口溪",
      "decorType": "waterside",
      "decorName": "水邊",
      "decorIcon": "💧"
    },
    {
      "id": "way-27696487-1/22031001001111310",
      "lat": 25.071451193182675,
      "lon": 121.17426031721993,
      "name": "雙溪口溪",
      "decorType": "waterside",
      "decorName": "水邊",
      "decorIcon": "💧"
    },
    {
      "id": "way-27696487-1/22031001001111201",
      "lat": 25.071617426667213,
      "lon": 121.17354445057788,
      "name": "雙溪口溪",
      "decorType": "waterside",
      "decorName": "水邊",
      "decorIcon": "💧"
    },
    {
      "id": "way-27696487-1/22031001001111200",
      "lat": 25.07228223869399,
      "lon": 121.17354445057788,
      "name": "雙溪口溪",
      "decorType": "waterside",
      "decorName": "水邊",
      "decorIcon": "💧"
    },
    {
      "id": "way-27696487-1/22031001001111133",
      "lat": 25.0729470497458,
      "lon": 121.17354445057788,
      "name": "雙溪口溪",
      "decorType": "waterside",
      "decorName": "水邊",
      "decorIcon": "💧"
    },
    {
      "id": "way-27696487-1/22031001001111132",
      "lat": 25.073611859822396,
      "lon": 121.17354445057788,
      "name": "雙溪口溪",
      "decorType": "waterside",
      "decorName": "水邊",
      "decorIcon": "💧"
    },
    {
      "id": "way-27696487-1/22031001001111023",
      "lat": 25.073445616676537,
      "lon": 121.17426031721993,
      "name": "雙溪口溪",
      "decorType": "waterside",
      "decorName": "水邊",
      "decorIcon": "💧"
    },
    {
      "id": "way-27696487-1/22031001001111030",
      "lat": 25.07411042255739,
      "lon": 121.17426031721993,
      "name": "雙溪口溪",
      "decorType": "waterside",
      "decorName": "水邊",
      "decorIcon": "💧"
    },
    {
      "id": "way-27696487-1/22031001001111032",
      "lat": 25.07460897499303,
      "lon": 121.17497617954984,
      "name": "雙溪口溪",
      "decorType": "waterside",
      "decorName": "水邊",
      "decorIcon": "💧"
    },
    {
      "id": "way-27696487-1/22020110330000323",
      "lat": 25.075273775702165,
      "lon": 121.17497617954984,
      "name": "雙溪口溪",
      "decorType": "waterside",
      "decorName": "水邊",
      "decorIcon": "💧"
    },
    {
      "id": "way-27696487-1/22020110330000320",
      "lat": 25.075938575435206,
      "lon": 121.17497617954984,
      "name": "雙溪口溪",
      "decorType": "waterside",
      "decorName": "水邊",
      "decorIcon": "💧"
    },
    {
      "id": "way-27696487-1/22020110330000321",
      "lat": 25.076104834344942,
      "lon": 121.17426031721993,
      "name": "雙溪口溪",
      "decorType": "waterside",
      "decorName": "水邊",
      "decorIcon": "💧"
    },
    {
      "id": "way-27696487-1/22020110330000012",
      "lat": 25.07627109037124,
      "lon": 121.17354445057788,
      "name": "雙溪口溪",
      "decorType": "waterside",
      "decorName": "水邊",
      "decorIcon": "💧"
    },
    {
      "id": "way-27696487-1/22020110330000021",
      "lat": 25.076935895567743,
      "lon": 121.17354445057788,
      "name": "雙溪口溪",
      "decorType": "waterside",
      "decorName": "水邊",
      "decorIcon": "💧"
    },
    {
      "id": "way-27696487-1/22020110330000022",
      "lat": 25.077600699787443,
      "lon": 121.17354445057788,
      "name": "雙溪口溪",
      "decorType": "waterside",
      "decorName": "水邊",
      "decorIcon": "💧"
    },
    {
      "id": "way-27696487-1/22020110330000133",
      "lat": 25.078265503030057,
      "lon": 121.17354445057788,
      "name": "雙溪口溪",
      "decorType": "waterside",
      "decorName": "水邊",
      "decorIcon": "💧"
    },
    {
      "id": "way-27696487-1/22020110330000130",
      "lat": 25.078930305295334,
      "lon": 121.17354445057788,
      "name": "雙溪口溪",
      "decorType": "waterside",
      "decorName": "水邊",
      "decorIcon": "💧"
    },
    {
      "id": "way-27696487-1/22020110330000203",
      "lat": 25.078764036390105,
      "lon": 121.17426031721993,
      "name": "雙溪口溪",
      "decorType": "waterside",
      "decorName": "水邊",
      "decorIcon": "💧"
    },
    {
      "id": "way-27696487-1/22020110330000210",
      "lat": 25.079428834458284,
      "lon": 121.17426031721993,
      "name": "雙溪口溪",
      "decorType": "waterside",
      "decorName": "水邊",
      "decorIcon": "💧"
    },
    {
      "id": "way-27696487-1/22020110330000211",
      "lat": 25.08009363154868,
      "lon": 121.17426031721993,
      "name": "雙溪口溪",
      "decorType": "waterside",
      "decorName": "水邊",
      "decorIcon": "💧"
    },
    {
      "id": "way-27696487-1/22020110330000122",
      "lat": 25.080259906892806,
      "lon": 121.17354445057788,
      "name": "雙溪口溪",
      "decorType": "waterside",
      "decorName": "水邊",
      "decorIcon": "💧"
    },
    {
      "id": "way-27696487-1/22020110330003211",
      "lat": 25.080924706224472,
      "lon": 121.17354445057788,
      "name": "雙溪口溪",
      "decorType": "waterside",
      "decorName": "水邊",
      "decorIcon": "💧"
    },
    {
      "id": "way-27696487-1/22020110330003213",
      "lat": 25.081755783476186,
      "lon": 121.17282857962402,
      "name": "雙溪口溪",
      "decorType": "waterside",
      "decorName": "水邊",
      "decorIcon": "💧"
    },
    {
      "id": "way-27696487-1/22020110330003202",
      "lat": 25.08242058406983,
      "lon": 121.17282857962402,
      "name": "雙溪口溪",
      "decorType": "waterside",
      "decorName": "水邊",
      "decorIcon": "💧"
    },
    {
      "id": "way-27696487-1/22020110330003203",
      "lat": 25.08225430195234,
      "lon": 121.17354445057788,
      "name": "雙溪口溪",
      "decorType": "waterside",
      "decorName": "水邊",
      "decorIcon": "💧"
    },
    {
      "id": "way-27696487-1/22020110330003200",
      "lat": 25.082919098348004,
      "lon": 121.17354445057788,
      "name": "雙溪口溪",
      "decorType": "waterside",
      "decorName": "水邊",
      "decorIcon": "💧"
    },
    {
      "id": "way-27696487-1/22020110330003311",
      "lat": 25.083583893764484,
      "lon": 121.17354445057788,
      "name": "雙溪口溪",
      "decorType": "waterside",
      "decorName": "水邊",
      "decorIcon": "💧"
    },
    {
      "id": "way-27696487-1/22020110330003022",
      "lat": 25.083417602324758,
      "lon": 121.17426031721993,
      "name": "雙溪口溪",
      "decorType": "waterside",
      "decorName": "水邊",
      "decorIcon": "💧"
    },
    {
      "id": "way-27696487-1/22020110330003021",
      "lat": 25.08408239354294,
      "lon": 121.17426031721993,
      "name": "雙溪口溪",
      "decorType": "waterside",
      "decorName": "水邊",
      "decorIcon": "💧"
    },
    {
      "id": "way-27696507-1/22031001032221102",
      "lat": 25.066631241036394,
      "lon": 121.16924916018638,
      "name": "溪仔埤",
      "decorType": "waterside",
      "decorName": "水邊",
      "decorIcon": "💧"
    },
    {
      "id": "way-27696507-1/22031001032221031",
      "lat": 25.06712978533586,
      "lon": 121.16710145679906,
      "name": "溪仔埤",
      "decorType": "waterside",
      "decorName": "水邊",
      "decorIcon": "💧"
    },
    {
      "id": "way-27696507-1/22031001032221030",
      "lat": 25.066963606786043,
      "lon": 121.16781736223788,
      "name": "溪仔埤",
      "decorType": "waterside",
      "decorName": "水邊",
      "decorIcon": "💧"
    },
    {
      "id": "way-27696507-1/22031001032221101",
      "lat": 25.066797425352846,
      "lon": 121.16853326336707,
      "name": "溪仔埤",
      "decorType": "waterside",
      "decorName": "水邊",
      "decorIcon": "💧"
    },
    {
      "id": "way-27696507-1/22031001032221131",
      "lat": 25.06729608115252,
      "lon": 121.16924916018638,
      "name": "溪仔埤",
      "decorType": "waterside",
      "decorName": "水邊",
      "decorIcon": "💧"
    },
    {
      "id": "way-27696507-1/22031001032221120",
      "lat": 25.06712989073204,
      "lon": 121.16996505269537,
      "name": "溪仔埤",
      "decorType": "waterside",
      "decorName": "水邊",
      "decorIcon": "💧"
    },
    {
      "id": "way-27696507-1/22031001032221132",
      "lat": 25.067462268689805,
      "lon": 121.16853326336707,
      "name": "溪仔埤",
      "decorType": "waterside",
      "decorName": "水邊",
      "decorIcon": "💧"
    },
    {
      "id": "way-27696507-1/22031001032221023",
      "lat": 25.067628453343758,
      "lon": 121.16781736223788,
      "name": "溪仔埤",
      "decorType": "waterside",
      "decorName": "水邊",
      "decorIcon": "💧"
    },
    {
      "id": "way-27696507-1/22031001032221020",
      "lat": 25.067794635114257,
      "lon": 121.16710145679906,
      "name": "溪仔埤",
      "decorType": "waterside",
      "decorName": "水邊",
      "decorIcon": "💧"
    },
    {
      "id": "way-27696507-1/22031001032221133",
      "lat": 25.06812711105353,
      "lon": 121.16853326336707,
      "name": "溪仔埤",
      "decorType": "waterside",
      "decorName": "水邊",
      "decorIcon": "💧"
    },
    {
      "id": "way-27696507-1/22031001032221113",
      "lat": 25.066465053836826,
      "lon": 121.16996505269537,
      "name": "溪仔埤",
      "decorType": "waterside",
      "decorName": "水邊",
      "decorIcon": "💧"
    },
    {
      "id": "way-27699263-1/22020110333122322",
      "lat": 25.087554499048924,
      "lon": 121.22221354552948,
      "name": "沙崙大埤",
      "decorType": "waterside",
      "decorName": "水邊",
      "decorIcon": "💧"
    },
    {
      "id": "way-27699263-1/22020110333123033",
      "lat": 25.08738793764729,
      "lon": 121.22292911832506,
      "name": "沙崙大埤",
      "decorType": "waterside",
      "decorName": "水邊",
      "decorIcon": "💧"
    },
    {
      "id": "way-27699263-1/22020110333123100",
      "lat": 25.088052487350197,
      "lon": 121.22292911832506,
      "name": "沙崙大埤",
      "decorType": "waterside",
      "decorName": "水邊",
      "decorIcon": "💧"
    },
    {
      "id": "way-27699263-1/22020110333122011",
      "lat": 25.088219051973812,
      "lon": 121.22221354552948,
      "name": "沙崙大埤",
      "decorType": "waterside",
      "decorName": "水邊",
      "decorIcon": "💧"
    },
    {
      "id": "way-27699263-1/22020110333123101",
      "lat": 25.087885919849427,
      "lon": 121.22364468678984,
      "name": "沙崙大埤",
      "decorType": "waterside",
      "decorName": "水邊",
      "decorIcon": "💧"
    },
    {
      "id": "way-27699263-1/22020110333123103",
      "lat": 25.088717036073803,
      "lon": 121.22292911832506,
      "name": "沙崙大埤",
      "decorType": "waterside",
      "decorName": "水邊",
      "decorIcon": "💧"
    },
    {
      "id": "way-27699263-1/22020110333123102",
      "lat": 25.088550465351066,
      "lon": 121.22364468678984,
      "name": "沙崙大埤",
      "decorType": "waterside",
      "decorName": "水邊",
      "decorIcon": "💧"
    },
    {
      "id": "way-27699263-1/22020110333122012",
      "lat": 25.088385613720142,
      "lon": 121.22149796840353,
      "name": "沙崙大埤",
      "decorType": "waterside",
      "decorName": "水邊",
      "decorIcon": "💧"
    },
    {
      "id": "way-27699263-1/22020110333122010",
      "lat": 25.088883603919303,
      "lon": 121.22221354552948,
      "name": "沙崙大埤",
      "decorType": "waterside",
      "decorName": "水邊",
      "decorIcon": "💧"
    },
    {
      "id": "way-27699263-1/22020110333123131",
      "lat": 25.088383891751242,
      "lon": 121.22436025092372,
      "name": "沙崙大埤",
      "decorType": "waterside",
      "decorName": "水邊",
      "decorIcon": "💧"
    },
    {
      "id": "way-27699263-1/22020110333122013",
      "lat": 25.089050168887447,
      "lon": 121.22149796840353,
      "name": "沙崙大埤",
      "decorType": "waterside",
      "decorName": "水邊",
      "decorIcon": "💧"
    },
    {
      "id": "way-27699263-1/22020110333123120",
      "lat": 25.089048433051456,
      "lon": 121.22436025092372,
      "name": "沙崙大埤",
      "decorType": "waterside",
      "decorName": "水邊",
      "decorIcon": "💧"
    },
    {
      "id": "way-27699263-1/22020110333123113",
      "lat": 25.089215009873232,
      "lon": 121.22364468678984,
      "name": "沙崙大埤",
      "decorType": "waterside",
      "decorName": "水邊",
      "decorIcon": "💧"
    },
    {
      "id": "way-27699263-1/22020110333122003",
      "lat": 25.08954815488514,
      "lon": 121.22221354552948,
      "name": "沙崙大埤",
      "decorType": "waterside",
      "decorName": "水邊",
      "decorIcon": "💧"
    },
    {
      "id": "way-27699263-1/22020110333123110",
      "lat": 25.08938158381784,
      "lon": 121.22292911832506,
      "name": "沙崙大埤",
      "decorType": "waterside",
      "decorName": "水邊",
      "decorIcon": "💧"
    },
    {
      "id": "way-27699263-1/22020110333123123",
      "lat": 25.088881853352635,
      "lon": 121.22507581072637,
      "name": "沙崙大埤",
      "decorType": "waterside",
      "decorName": "水邊",
      "decorIcon": "💧"
    },
    {
      "id": "way-27699263-1/22020110333122020",
      "lat": 25.089216730978098,
      "lon": 121.22078238694746,
      "name": "沙崙大埤",
      "decorType": "waterside",
      "decorName": "水邊",
      "decorIcon": "💧"
    },
    {
      "id": "way-27699263-1/22020110333122002",
      "lat": 25.089714723074998,
      "lon": 121.22149796840353,
      "name": "沙崙大埤",
      "decorType": "waterside",
      "decorName": "水邊",
      "decorIcon": "💧"
    },
    {
      "id": "way-27699263-1/22020110333123121",
      "lat": 25.089712973372034,
      "lon": 121.22436025092372,
      "name": "沙崙大埤",
      "decorType": "waterside",
      "decorName": "水邊",
      "decorIcon": "💧"
    },
    {
      "id": "way-27699263-1/22020110333123122",
      "lat": 25.08954639045128,
      "lon": 121.22507581072637,
      "name": "沙崙大埤",
      "decorType": "waterside",
      "decorName": "水邊",
      "decorIcon": "💧"
    },
    {
      "id": "way-27699263-1/22020110333122031",
      "lat": 25.089881288387282,
      "lon": 121.22078238694746,
      "name": "沙崙大埤",
      "decorType": "waterside",
      "decorName": "水邊",
      "decorIcon": "💧"
    },
    {
      "id": "way-27699263-1/22020110333123112",
      "lat": 25.089879553415663,
      "lon": 121.22364468678984,
      "name": "沙崙大埤",
      "decorType": "waterside",
      "decorName": "水邊",
      "decorIcon": "💧"
    },
    {
      "id": "way-27699263-1/22020110333123111",
      "lat": 25.09004613058205,
      "lon": 121.22292911832506,
      "name": "沙崙大埤",
      "decorType": "waterside",
      "decorName": "水邊",
      "decorIcon": "💧"
    },
    {
      "id": "way-27699263-1/22020110333122000",
      "lat": 25.090212704871053,
      "lon": 121.22221354552948,
      "name": "沙崙大埤",
      "decorType": "waterside",
      "decorName": "水邊",
      "decorIcon": "💧"
    },
    {
      "id": "way-27699263-1/22020110333120211",
      "lat": 25.090210926570105,
      "lon": 121.22507581072637,
      "name": "沙崙大埤",
      "decorType": "waterside",
      "decorName": "水邊",
      "decorIcon": "💧"
    },
    {
      "id": "way-27699263-1/22020110333122001",
      "lat": 25.09037927628253,
      "lon": 121.22149796840353,
      "name": "沙崙大埤",
      "decorType": "waterside",
      "decorName": "水邊",
      "decorIcon": "💧"
    },
    {
      "id": "way-27699263-1/22020110333120221",
      "lat": 25.090544095978096,
      "lon": 121.22364468678984,
      "name": "沙崙大埤",
      "decorType": "waterside",
      "decorName": "水邊",
      "decorIcon": "💧"
    },
    {
      "id": "way-27699263-1/22020110333120212",
      "lat": 25.090377512712706,
      "lon": 121.22436025092372,
      "name": "沙崙大埤",
      "decorType": "waterside",
      "decorName": "水邊",
      "decorIcon": "💧"
    },