{
  "bbox": {
    "south": 25.063333333333333,
    "north": 25.3,
    "west": 121.67999999999999,
    "east": 121.82
  },
  "pois": [
    {
      "id": "node-289131555",
      "lat": 25.1090106,
      "lon": 121.8065585,
      "name": "瑞芳",
      "decorType": "station",
      "decorName": "車站",
      "decorIcon": "🚉"
    },
    {
      "id": "node-289131594",
      "lat": 25.1026362,
      "lon": 121.7618206,
      "name": "四腳亭",
      "decorType": "station",
      "decorName": "車站",
      "decorIcon": "🚉"
    },
    {
      "id": "node-289131632",
      "lat": 25.1022172,
      "lon": 121.7407264,
      "name": "暖暖",
      "decorType": "station",
      "decorName": "車站",
      "decorIcon": "🚉"
    },
    {
      "id": "node-289131843",
      "lat": 25.0929751,
      "lon": 121.7138567,
      "name": "七堵",
      "decorType": "station",
      "decorName": "車站",
      "decorIcon": "🚉"
    },
    {
      "id": "node-402296986",
      "lat": 25.1222174,
      "lon": 121.7420983,
      "name": "三坑",
      "decorType": "station",
      "decorName": "車站",
      "decorIcon": "🚉"
    },
    {
      "id": "node-402297001",
      "lat": 25.1330324,
      "lon": 121.7392299,
      "name": "基隆",
      "decorType": "station",
      "decorName": "車站",
      "decorIcon": "🚉"
    },
    {
      "id": "node-1684342265",
      "lat": 25.0994949,
      "lon": 121.7360223,
      "name": "7-Eleven",
      "decorType": "convenience-store",
      "decorName": "便利商店",
      "decorIcon": "🏪"
    },
    {
      "id": "node-1684342284",
      "lat": 25.0992471,
      "lon": 121.7355144,
      "name": "暖暖郵局",
      "decorType": "post-office",
      "decorName": "郵局",
      "decorIcon": "📮"
    },
    {
      "id": "node-1684342319",
      "lat": 25.100265,
      "lon": 121.7360856,
      "name": "KIKI Hair Salon",
      "decorType": "hair-salon",
      "decorName": "美髮院",
      "decorIcon": "✂️"
    },
    {
      "id": "node-1684342334",
      "lat": 25.0994017,
      "lon": 121.735664,
      "name": "珍味香",
      "decorType": "bakery",
      "decorName": "麵包店",
      "decorIcon": "🥐"
    },
    {
      "id": "node-1684342354",
      "lat": 25.0994639,
      "lon": 121.7357228,
      "name": "杏福健保藥局",
      "decorType": "pharmacy",
      "decorName": "藥局",
      "decorIcon": "💊"
    },
    {
      "id": "node-1741212376",
      "lat": 25.099589,
      "lon": 121.736417,
      "name": "八方雲集",
      "decorType": "burger",
      "decorName": "漢堡店",
      "decorIcon": "🍔"
    },
    {
      "id": "node-1741212379",
      "lat": 25.1001338,
      "lon": 121.7361069,
      "name": "呷尚宝",
      "decorType": "restaurant",
      "decorName": "餐廳",
      "decorIcon": "🍽️"
    },
    {
      "id": "node-1741212381",
      "lat": 25.0995769,
      "lon": 121.7360822,
      "name": "婁診所",
      "decorType": "hospital",
      "decorName": "醫院",
      "decorIcon": "🏥"
    },
    {
      "id": "node-1741212393",
      "lat": 25.099968,
      "lon": 121.736403,
      "name": "暖暖小館",
      "decorType": "restaurant",
      "decorName": "餐廳",
      "decorIcon": "🍽️"
    },
    {
      "id": "node-1741212400",
      "lat": 25.1003846,
      "lon": 121.735656,
      "name": "柏林藥局",
      "decorType": "pharmacy",
      "decorName": "藥局",
      "decorIcon": "💊"
    },
    {
      "id": "node-1741212401",
      "lat": 25.0998712,
      "lon": 121.7363168,
      "name": "永和香濃豆漿大王",
      "decorType": "restaurant",
      "decorName": "餐廳",
      "decorIcon": "🍽️"
    },
    {
      "id": "node-1741212404",
      "lat": 25.100283,
      "lon": 121.7355609,
      "name": "百會診所",
      "decorType": "hospital",
      "decorName": "醫院",
      "decorIcon": "🏥"
    },
    {
      "id": "node-1741212446",
      "lat": 25.0996577,
      "lon": 121.7361843,
      "name": "蓬萊中醫",
      "decorType": "hospital",
      "decorName": "醫院",
      "decorIcon": "🏥"
    },
    {
      "id": "node-1743242430",
      "lat": 25.1002171,
      "lon": 121.7358635,
      "name": "基隆市暖暖區圖書館",
      "decorType": "library",
      "decorName": "圖書館",
      "decorIcon": "📚"
    },
    {
      "id": "node-1743242449",
      "lat": 25.1002411,
      "lon": 121.7366152,
      "name": "東方藥局",
      "decorType": "pharmacy",
      "decorName": "藥局",
      "decorIcon": "💊"
    },
    {
      "id": "node-1773515752",
      "lat": 25.097731,
      "lon": 121.7345842,
      "name": "美廉社",
      "decorType": "supermarket",
      "decorName": "超市",
      "decorIcon": "🛒"
    },
    {
      "id": "node-1773515758",
      "lat": 25.0984211,
      "lon": 121.7348608,
      "name": "金華城自助餐",
      "decorType": "restaurant",
      "decorName": "餐廳",
      "decorIcon": "🍽️"
    },
    {
      "id": "node-1773515761",
      "lat": 25.0981199,
      "lon": 121.7341645,
      "name": "澐髮型工作室",
      "decorType": "hair-salon",
      "decorName": "美髮院",
      "decorIcon": "✂️"
    },
    {
      "id": "node-1773536377",
      "lat": 25.0987742,
      "lon": 121.7353606,
      "name": "Amanda",
      "decorType": "hair-salon",
      "decorName": "美髮院",
      "decorIcon": "✂️"
    },
    {
      "id": "node-1773536381",
      "lat": 25.0989895,
      "lon": 121.7353313,
      "name": "合力精緻餐盒",
      "decorType": "restaurant",
      "decorName": "餐廳",
      "decorIcon": "🍽️"
    },
    {
      "id": "node-1773536384",
      "lat": 25.0986585,
      "lon": 121.734967,
      "name": "尚品鐵板燒料理",
      "decorType": "restaurant",
      "decorName": "餐廳",
      "decorIcon": "🍽️"
    },
    {
      "id": "node-1773536394",
      "lat": 25.0985443,
      "lon": 121.7351551,
      "name": "南山食堂",
      "decorType": "restaurant",
      "decorName": "餐廳",
      "decorIcon": "🍽️"
    },
    {
      "id": "node-1773536426",
      "lat": 25.0986207,
      "lon": 121.7349212,
      "name": "鍋神日式涮涮鍋",
      "decorType": "restaurant",
      "decorName": "餐廳",
      "decorIcon": "🍽️"
    },
    {
      "id": "node-1963943659",
      "lat": 25.0993347,
      "lon": 121.7355982,
      "name": "大福日式涮涮鍋",
      "decorType": "restaurant",
      "decorName": "餐廳",
      "decorIcon": "🍽️"
    },
    {
      "id": "node-2078218574",
      "lat": 25.1084702,
      "lon": 121.8057738,
      "name": "磨咖啡",
      "decorType": "cafe",
      "decorName": "咖啡廳",
      "decorIcon": "☕"
    },
    {
      "id": "node-2081139129",
      "lat": 25.1063882,
      "lon": 121.8042164,
      "name": "瑞芳東和圖書閱覽室",
      "decorType": "library",
      "decorName": "圖書館",
      "decorIcon": "📚"
    },
    {
      "id": "node-2085537025",
      "lat": 25.1205867,
      "lon": 121.7228193,
      "name": "全家便利商店",
      "decorType": "convenience-store",
      "decorName": "便利商店",
      "decorIcon": "🏪"
    },
    {
      "id": "node-2085792632",
      "lat": 25.1164531,
      "lon": 121.7263773,
      "name": "7-Eleven",
      "decorType": "convenience-store",
      "decorName": "便利商店",
      "decorIcon": "🏪"
    },
    {
      "id": "node-2291301799",
      "lat": 25.1264813,
      "lon": 121.7848588,
      "name": "7-Eleven",
      "decorType": "convenience-store",
      "decorName": "便利商店",
      "decorIcon": "🏪"
    },
    {
      "id": "node-2291329683",
      "lat": 25.1367405,
      "lon": 121.7789575,
      "name": "7-Eleven",
      "decorType": "convenience-store",
      "decorName": "便利商店",
      "decorIcon": "🏪"
    },
    {
      "id": "node-2291329686",
      "lat": 25.1331726,
      "lon": 121.7822249,
      "name": "愛買",
      "decorType": "supermarket",
      "decorName": "超市",
      "decorIcon": "🛒"
    },
    {
      "id": "node-2291329687",
      "lat": 25.1320908,
      "lon": 121.7820157,
      "name": "7-Eleven",
      "decorType": "convenience-store",
      "decorName": "便利商店",
      "decorIcon": "🏪"
    },
    {
      "id": "node-2291332677",
      "lat": 25.1277099,
      "lon": 121.7505972,
      "name": "7-Eleven",
      "decorType": "convenience-store",
      "decorName": "便利商店",
      "decorIcon": "🏪"
    },
    {
      "id": "node-2291351347",
      "lat": 25.1394862,
      "lon": 121.7960324,
      "name": "7-Eleven",
      "decorType": "convenience-store",
      "decorName": "便利商店",
      "decorIcon": "🏪"
    },
    {
      "id": "node-2306234468",
      "lat": 25.0967648,
      "lon": 121.7558731,
      "name": "金采大賣場",
      "decorType": "supermarket",
      "decorName": "超市",
      "decorIcon": "🛒"
    },
    {
      "id": "node-2306237467",
      "lat": 25.0962509,
      "lon": 121.7547426,
      "name": "7-Eleven",
      "decorType": "convenience-store",
      "decorName": "便利商店",
      "decorIcon": "🏪"
    },
    {
      "id": "node-2306249853",
      "lat": 25.1006516,
      "lon": 121.7617776,
      "name": "瑞芳四腳亭郵局",
      "decorType": "post-office",
      "decorName": "郵局",
      "decorIcon": "📮"
    },
    {
      "id": "node-2306250413",
      "lat": 25.1007895,
      "lon": 121.7618397,
      "name": "7-Eleven",
      "decorType": "convenience-store",
      "decorName": "便利商店",
      "decorIcon": "🏪"
    },
    {
      "id": "node-2306253852",
      "lat": 25.0987667,
      "lon": 121.7544954,
      "name": "Hi-Life 萊爾富",
      "decorType": "convenience-store",
      "decorName": "便利商店",
      "decorIcon": "🏪"
    },
    {
      "id": "node-2307188378",
      "lat": 25.1031562,
      "lon": 121.7640362,
      "name": "晨洸果子坊",
      "decorType": "bakery",
      "decorName": "麵包店",
      "decorIcon": "🥐"
    },
    {
      "id": "node-2315457017",
      "lat": 25.098151,
      "lon": 121.7489718,
      "name": "7-Eleven",
      "decorType": "convenience-store",
      "decorName": "便利商店",
      "decorIcon": "🏪"
    },
    {
      "id": "node-2315471249",
      "lat": 25.0984172,
      "lon": 121.7514476,
      "name": "全家便利商店",
      "decorType": "convenience-store",
      "decorName": "便利商店",
      "decorIcon": "🏪"
    },
    {
      "id": "node-2315471288",
      "lat": 25.098745,
      "lon": 121.7544125,
      "name": "陸記藥局",
      "decorType": "pharmacy",
      "decorName": "藥局",
      "decorIcon": "💊"
    },
    {
      "id": "node-2414191498",
      "lat": 25.0992393,
      "lon": 121.761269,
      "name": "橋頭排骨麵",
      "decorType": "restaurant",
      "decorName": "餐廳",
      "decorIcon": "🍽️"
    },
    {
      "id": "node-2429726043",
      "lat": 25.1379229,
      "lon": 121.7891978,
      "name": "7-Eleven",
      "decorType": "convenience-store",
      "decorName": "便利商店",
      "decorIcon": "🏪"
    },
    {
      "id": "node-2429741791",
      "lat": 25.1359579,
      "lon": 121.7477727,
      "name": "達美樂",
      "decorType": "restaurant",
      "decorName": "餐廳",
      "decorIcon": "🍽️"
    },
    {
      "id": "node-2429742031",
      "lat": 25.1348222,
      "lon": 121.7828374,
      "name": "必勝客",
      "decorType": "restaurant",
      "decorName": "餐廳",
      "decorIcon": "🍽️"
    },
    {
      "id": "node-2429742032",
      "lat": 25.132784,
      "lon": 121.7822264,
      "name": "褔鍋火鍋",
      "decorType": "restaurant",
      "decorName": "餐廳",
      "decorIcon": "🍽️"
    },
    {
      "id": "node-2433216524",
      "lat": 25.1279642,
      "lon": 121.7678209,
      "name": "7-Eleven",
      "decorType": "convenience-store",
      "decorName": "便利商店",
      "decorIcon": "🏪"
    },
    {
      "id": "node-2433216640",
      "lat": 25.127741,
      "lon": 121.7679616,
      "name": "OK超商",
      "decorType": "convenience-store",
      "decorName": "便利商店",
      "decorIcon": "🏪"
    },
    {
      "id": "node-2433217093",
      "lat": 25.1276815,
      "lon": 121.7677889,
      "name": "全家便利商店",
      "decorType": "convenience-store",
      "decorName": "便利商店",
      "decorIcon": "🏪"
    },
    {
      "id": "node-2433217422",
      "lat": 25.1282417,
      "lon": 121.7646261,
      "name": "大樹藥局",
      "decorType": "pharmacy",
      "decorName": "藥局",
      "decorIcon": "💊"
    },
    {
      "id": "node-2433218997",
      "lat": 25.1276576,
      "lon": 121.7595568,
      "name": "全聯福利中心",
      "decorType": "supermarket",
      "decorName": "超市",
      "decorIcon": "🛒"
    },
    {
      "id": "node-2433219065",
      "lat": 25.1275747,
      "lon": 121.7619387,
      "name": "7-Eleven",
      "decorType": "convenience-store",
      "decorName": "便利商店",
      "decorIcon": "🏪"
    },
    {
      "id": "node-2434242561",
      "lat": 25.1278158,
      "lon": 121.7550512,
      "name": "OK超商",
      "decorType": "convenience-store",
      "decorName": "便利商店",
      "decorIcon": "🏪"
    },
    {
      "id": "node-2434249217",
      "lat": 25.128299,
      "lon": 121.7477242,
      "name": "7-Eleven",
      "decorType": "convenience-store",
      "decorName": "便利商店",
      "decorIcon": "🏪"
    },
    {
      "id": "node-2434251626",
      "lat": 25.1297699,
      "lon": 121.7486994,
      "name": "7-Eleven",
      "decorType": "convenience-store",
      "decorName": "便利商店",
      "decorIcon": "🏪"
    },
    {
      "id": "node-2435264015",
      "lat": 25.1294327,
      "lon": 121.7520999,
      "name": "7-Eleven",
      "decorType": "convenience-store",
      "decorName": "便利商店",
      "decorIcon": "🏪"
    },
    {
      "id": "node-2435264016",
      "lat": 25.1290979,
      "lon": 121.7550221,
      "name": "OK超商",
      "decorType": "convenience-store",
      "decorName": "便利商店",
      "decorIcon": "🏪"
    },
    {
      "id": "node-2435274323",
      "lat": 25.1290504,
      "lon": 121.7571788,
      "name": "OK超商",
      "decorType": "convenience-store",
      "decorName": "便利商店",
      "decorIcon": "🏪"
    },
    {
      "id": "node-2435274344",
      "lat": 25.1280225,
      "lon": 121.7509855,
      "name": "肯德基",
      "decorType": "burger",
      "decorName": "漢堡店",
      "decorIcon": "🍔"
    },
    {
      "id": "node-2435274360",
      "lat": 25.1502751,
      "lon": 121.7801783,
      "name": "貴族世家",
      "decorType": "restaurant",
      "decorName": "餐廳",
      "decorIcon": "🍽️"
    },
    {
      "id": "node-2591080757",
      "lat": 25.1383229,
      "lon": 121.7522062,
      "name": "基隆三沙灣郵局",
      "decorType": "post-office",
      "decorName": "郵局",
      "decorIcon": "📮"
    },
    {
      "id": "node-2613199942",
      "lat": 25.127459,
      "lon": 121.7509206,
      "name": "全家便利商店",
      "decorType": "convenience-store",
      "decorName": "便利商店",
      "decorIcon": "🏪"
    },
    {
      "id": "node-2613259181",
      "lat": 25.1353654,
      "lon": 121.7853712,
      "name": "7-Eleven",
      "decorType": "convenience-store",
      "decorName": "便利商店",
      "decorIcon": "🏪"
    },
    {
      "id": "node-2613259183",
      "lat": 25.1354346,
      "lon": 121.785724,
      "name": "全家便利商店",
      "decorType": "convenience-store",
      "decorName": "便利商店",
      "decorIcon": "🏪"
    },
    {
      "id": "node-2613259185",
      "lat": 25.1354121,
      "lon": 121.7856094,
      "name": "大樹藥局",
      "decorType": "pharmacy",
      "decorName": "藥局",
      "decorIcon": "💊"
    },
    {
      "id": "node-2630645727",
      "lat": 25.1287404,
      "lon": 121.7610905,
      "name": "OK超商",
      "decorType": "convenience-store",
      "decorName": "便利商店",
      "decorIcon": "🏪"
    },
    {
      "id": "node-2706302340",
      "lat": 25.1084337,
      "lon": 121.8050068,
      "name": "三媽臭臭鍋",
      "decorType": "restaurant",
      "decorName": "餐廳",
      "decorIcon": "🍽️"
    },
    {
      "id": "node-2706302957",
      "lat": 25.1084168,
      "lon": 121.8051197,
      "name": "瑞興藥行",
      "decorType": "pharmacy",
      "decorName": "藥局",
      "decorIcon": "💊"
    },
    {
      "id": "node-2706488763",
      "lat": 25.1083268,
      "lon": 121.8055541,
      "name": "老窩咖啡館瑞芳店",
      "decorType": "cafe",
      "decorName": "咖啡廳",
      "decorIcon": "☕"
    },
    {
      "id": "node-2706489324",
      "lat": 25.1083199,
      "lon": 121.805594,
      "name": "一口酥餅鋪",
      "decorType": "burger",
      "decorName": "漢堡店",
      "decorIcon": "🍔"
    },
    {
      "id": "node-2706510557",
      "lat": 25.1084231,
      "lon": 121.8050777,
      "name": "丘比特烘焙工坊",
      "decorType": "bakery",
      "decorName": "麵包店",
      "decorIcon": "🥐"
    },
    {
      "id": "node-2706511629",
      "lat": 25.1083818,
      "lon": 121.8053204,
      "name": "熱門精品服飾",
      "decorType": "clothing-store",
      "decorName": "服飾店",
      "decorIcon": "👕"
    },
    {
      "id": "node-2706536567",
      "lat": 25.1079459,
      "lon": 121.8072755,
      "name": "幸福鍋",
      "decorType": "restaurant",
      "decorName": "餐廳",
      "decorIcon": "🍽️"
    },
    {
      "id": "node-2715138651",
      "lat": 25.1069583,
      "lon": 121.8055895,
      "name": "麗珠鍋燒麵",
      "decorType": "restaurant",
      "decorName": "餐廳",
      "decorIcon": "🍽️"
    },
    {
      "id": "node-2722747404",
      "lat": 25.1028726,
      "lon": 121.7620463,
      "name": "OK超商",
      "decorType": "convenience-store",
      "decorName": "便利商店",
      "decorIcon": "🏪"
    },
    {
      "id": "node-2837137546",
      "lat": 25.1075512,
      "lon": 121.8138584,
      "name": "7-Eleven",
      "decorType": "convenience-store",
      "decorName": "便利商店",
      "decorIcon": "🏪"
    },
    {
      "id": "node-2843261401",
      "lat": 25.1074966,
      "lon": 121.8053427,
      "name": "全聯福利中心",
      "decorType": "supermarket",
      "decorName": "超市",
      "decorIcon": "🛒"
    },
    {
      "id": "node-2843261403",
      "lat": 25.1074885,
      "lon": 121.8057125,
      "name": "自助餐",
      "decorType": "restaurant",
      "decorName": "餐廳",
      "decorIcon": "🍽️"
    },
    {
      "id": "node-2843261404",
      "lat": 25.107527,
      "lon": 121.8056539,
      "name": "瑞春",
      "decorType": "clothing-store",
      "decorName": "服飾店",
      "decorIcon": "👕"
    },
    {
      "id": "node-2843261405",
      "lat": 25.1075275,
      "lon": 121.8056098,
      "name": "暢貨中心",
      "decorType": "clothing-store",
      "decorName": "服飾店",
      "decorIcon": "👕"
    },
    {
      "id": "node-2843261412",
      "lat": 25.107552,
      "lon": 121.80527,
      "name": "香港何記燒臘",
      "decorType": "restaurant",
      "decorName": "餐廳",
      "decorIcon": "🍽️"
    },
    {
      "id": "node-2843267102",
      "lat": 25.1074207,
      "lon": 121.805951,
      "name": "7-Eleven",
      "decorType": "convenience-store",
      "decorName": "便利商店",
      "decorIcon": "🏪"
    },
    {
      "id": "node-2843267111",
      "lat": 25.1075764,
      "lon": 121.8060424,
      "name": "福哥牛肉麵",
      "decorType": "restaurant",
      "decorName": "餐廳",
      "decorIcon": "🍽️"
    },
    {
      "id": "node-2843286123",
      "lat": 25.1069177,
      "lon": 121.8103674,
      "name": "OK超商",
      "decorType": "convenience-store",
      "decorName": "便利商店",
      "decorIcon": "🏪"
    },
    {
      "id": "node-2845652727",
      "lat": 25.1301069,
      "lon": 121.748028,
      "name": "7-Eleven",
      "decorType": "convenience-store",
      "decorName": "便利商店",
      "decorIcon": "🏪"
    },
    {
      "id": "node-2845668368",
      "lat": 25.1367569,
      "lon": 121.7711407,
      "name": "7-Eleven",
      "decorType": "convenience-store",
      "decorName": "便利商店",
      "decorIcon": "🏪"
    },
    {
      "id": "node-2847608017",
      "lat": 25.1104125,
      "lon": 121.7933562,
      "name": "OK超商",
      "decorType": "convenience-store",
      "decorName": "便利商店",
      "decorIcon": "🏪"
    },
    {
      "id": "node-2926271578",
      "lat": 25.1320779,
      "lon": 121.7603467,
      "name": "全家便利商店",
      "decorType": "convenience-store",
      "decorName": "便利商店",
      "decorIcon": "🏪"
    },
    {
      "id": "node-3065756141",
      "lat": 25.1307813,
      "lon": 121.7407476,
      "name": "咖啡護照",
      "decorType": "cafe",
      "decorName": "咖啡廳",
      "decorIcon": "☕"
    },
    {
      "id": "node-3074331175",
      "lat": 25.135287,
      "lon": 121.8029581,
      "name": "八斗子",
      "decorType": "station",
      "decorName": "車站",
      "decorIcon": "🚉"
    },
    {
      "id": "node-3190367842",
      "lat": 25.099292,
      "lon": 121.7568731,
      "name": "OK超商",
      "decorType": "convenience-store",
      "decorName": "便利商店",
      "decorIcon": "🏪"
    },
    {
      "id": "node-3461236216",
      "lat": 25.1478471,
      "lon": 121.7792157,
      "name": "雅盧",
      "decorType": "restaurant",
      "decorName": "餐廳",
      "decorIcon": "🍽️"
    },
    {
      "id": "node-3480302493",
      "lat": 25.130832,
      "lon": 121.7386047,
      "name": "OK超商",
      "decorType": "convenience-store",
      "decorName": "便利商店",
      "decorIcon": "🏪"
    },
    {
      "id": "node-3508492222",
      "lat": 25.1001149,
      "lon": 121.7541676,
      "name": "大餅世家",
      "decorType": "bakery",
      "decorName": "麵包店",
      "decorIcon": "🥐"
    },
    {
      "id": "node-3510707708",
      "lat": 25.1299229,
      "lon": 121.7391828,
      "name": "豬肝腸海鮮店",
      "decorType": "restaurant",
      "decorName": "餐廳",
      "decorIcon": "🍽️"
    },
    {
      "id": "node-3605190321",
      "lat": 25.1287184,
      "lon": 121.750408,
      "name": "大世界碳烤",
      "decorType": "restaurant",
      "decorName": "餐廳",
      "decorIcon": "🍽️"
    },
    {
      "id": "node-3614567486",
      "lat": 25.1323225,
      "lon": 121.7434195,
      "name": "基隆港東岸客運中心",
      "decorType": "station",
      "decorName": "車站",
      "decorIcon": "🚉"
    },
    {
      "id": "node-3640404835",
      "lat": 25.1353829,
      "lon": 121.7854602,
      "name": "郭記饕客",
      "decorType": "restaurant",
      "decorName": "餐廳",
      "decorIcon": "🍽️"
    },
    {
      "id": "node-3715376059",
      "lat": 25.1253206,
      "lon": 121.7367981,
      "name": "基隆市仁愛區圖書館",
      "decorType": "library",
      "decorName": "圖書館",
      "decorIcon": "📚"
    },
    {
      "id": "node-3715443038",
      "lat": 25.146853,
      "lon": 121.7266898,
      "name": "OK超商",
      "decorType": "convenience-store",
      "decorName": "便利商店",
      "decorIcon": "🏪"
    },
    {
      "id": "node-3715592587",
      "lat": 25.1463485,
      "lon": 121.7261797,
      "name": "7-Eleven",
      "decorType": "convenience-store",
      "decorName": "便利商店",
      "decorIcon": "🏪"
    },
    {
      "id": "node-3716020334",
      "lat": 25.1451555,
      "lon": 121.726385,
      "name": "復興診所",
      "decorType": "hospital",
      "decorName": "醫院",
      "decorIcon": "🏥"
    },
    {
      "id": "node-3716020335",
      "lat": 25.1453258,
      "lon": 121.726898,
      "name": "何朝榮診所",
      "decorType": "hospital",
      "decorName": "醫院",
      "decorIcon": "🏥"
    },
    {
      "id": "node-3716020337",
      "lat": 25.1446875,
      "lon": 121.7262448,
      "name": "昱帝嶺海鮮餐廳",
      "decorType": "restaurant",
      "decorName": "餐廳",
      "decorIcon": "🍽️"
    },
    {
      "id": "node-3716020343",
      "lat": 25.1489378,
      "lon": 121.7258873,
      "name": "芳鄰涮涮鍋",
      "decorType": "restaurant",
      "decorName": "餐廳",
      "decorIcon": "🍽️"
    },
    {
      "id": "node-3716899494",
      "lat": 25.1376999,
      "lon": 121.7316561,
      "name": "OK超商",
      "decorType": "convenience-store",
      "decorName": "便利商店",
      "decorIcon": "🏪"
    },
    {
      "id": "node-3716904862",
      "lat": 25.1321965,
      "lon": 121.7452779,
      "name": "7-Eleven",
      "decorType": "convenience-store",
      "decorName": "便利商店",
      "decorIcon": "🏪"
    },
    {
      "id": "node-3717038151",
      "lat": 25.1406483,
      "lon": 121.727586,
      "name": "全家便利商店",
      "decorType": "convenience-store",
      "decorName": "便利商店",
      "decorIcon": "🏪"
    },
    {
      "id": "node-3717054281",
      "lat": 25.137635,
      "lon": 121.7316171,
      "name": "123早餐店",
      "decorType": "restaurant",
      "decorName": "餐廳",
      "decorIcon": "🍽️"
    },
    {
      "id": "node-3717054296",
      "lat": 25.1340917,
      "lon": 121.7349401,
      "name": "基隆西定路郵局（已裁撤）",
      "decorType": "post-office",
      "decorName": "郵局",
      "decorIcon": "📮"
    },
    {
      "id": "node-3717054299",
      "lat": 25.1338291,
      "lon": 121.7350976,
      "name": "美廉社",
      "decorType": "supermarket",
      "decorName": "超市",
      "decorIcon": "🛒"
    },
    {
      "id": "node-3717364017",
      "lat": 25.1312959,
      "lon": 121.7398562,
      "name": "全家便利商店",
      "decorType": "convenience-store",
      "decorName": "便利商店",
      "decorIcon": "🏪"
    },
    {
      "id": "node-3717364018",
      "lat": 25.1312194,
      "lon": 121.7399844,
      "name": "溫莎堡",
      "decorType": "bakery",
      "decorName": "麵包店",
      "decorIcon": "🥐"
    },
    {
      "id": "node-3718660007",
      "lat": 25.1540212,
      "lon": 121.7319647,
      "name": "皮卡丘早餐店",
      "decorType": "restaurant",
      "decorName": "餐廳",
      "decorIcon": "🍽️"
    },
    {
      "id": "node-3724686323",
      "lat": 25.1349344,
      "lon": 121.7341899,
      "name": "明觀現代科學中醫診所",
      "decorType": "hospital",
      "decorName": "醫院",
      "decorIcon": "🏥"
    },
    {
      "id": "node-3725892476",
      "lat": 25.20497,
      "lon": 121.6898544,
      "name": "7-Eleven",
      "decorType": "convenience-store",
      "decorName": "便利商店",
      "decorIcon": "🏪"
    },
    {
      "id": "node-3738136546",
      "lat": 25.1529216,
      "lon": 121.7300232,
      "name": "全家福海鮮樓",
      "decorType": "restaurant",
      "decorName": "餐廳",
      "decorIcon": "🍽️"
    },
    {
      "id": "node-3740816126",
      "lat": 25.1393629,
      "lon": 121.7291337,
      "name": "聖德診所",
      "decorType": "hospital",
      "decorName": "醫院",
      "decorIcon": "🏥"
    },
    {
      "id": "node-3740816446",
      "lat": 25.1290375,
      "lon": 121.7444123,
      "name": "摩斯漢堡",
      "decorType": "burger",
      "decorName": "漢堡店",
      "decorIcon": "🍔"
    },
    {
      "id": "node-3749204037",
      "lat": 25.1266014,
      "lon": 121.715874,
      "name": "樂利郵局",
      "decorType": "post-office",
      "decorName": "郵局",
      "decorIcon": "📮"
    },
    {
      "id": "node-3761125495",
      "lat": 25.1399014,
      "lon": 121.7962084,
      "name": "旗魚羹",
      "decorType": "restaurant",
      "decorName": "餐廳",
      "decorIcon": "🍽️"
    },
    {
      "id": "node-3771288412",
      "lat": 25.0996877,
      "lon": 121.7366435,
      "name": "大俠牛肉麵",
      "decorType": "restaurant",
      "decorName": "餐廳",
      "decorIcon": "🍽️"
    },
    {
      "id": "node-3771700115",
      "lat": 25.1274637,
      "lon": 121.7370803,
      "name": "7-Eleven",
      "decorType": "convenience-store",
      "decorName": "便利商店",
      "decorIcon": "🏪"
    },
    {
      "id": "node-3778091665",
      "lat": 25.1297835,
      "lon": 121.7473825,
      "name": "旺龍館",
      "decorType": "restaurant",
      "decorName": "餐廳",
      "decorIcon": "🍽️"
    },
    {
      "id": "node-3778094824",
      "lat": 25.1295807,
      "lon": 121.7467416,
      "name": "全家便利商店",
      "decorType": "convenience-store",
      "decorName": "便利商店",
      "decorIcon": "🏪"
    },
    {
      "id": "node-3778121740",
      "lat": 25.1280763,
      "lon": 121.7505569,
      "name": "小山東手擀麵",
      "decorType": "restaurant",
      "decorName": "餐廳",
      "decorIcon": "🍽️"
    },
    {
      "id": "node-3785992660",
      "lat": 25.1489283,
      "lon": 121.7751335,
      "name": "7-Eleven",
      "decorType": "convenience-store",
      "decorName": "便利商店",
      "decorIcon": "🏪"
    },
    {
      "id": "node-3933386418",
      "lat": 25.1085834,
      "lon": 121.7322131,
      "name": "牛肉麵店",
      "decorType": "restaurant",
      "decorName": "餐廳",
      "decorIcon": "🍽️"
    },
    {
      "id": "node-3984191719",
      "lat": 25.1084954,
      "lon": 121.7290072,
      "name": "八堵",
      "decorType": "station",
      "decorName": "車站",
      "decorIcon": "🚉"
    },
    {
      "id": "node-3984191720",
      "lat": 25.0781714,
      "lon": 121.694768,
      "name": "百福",
      "decorType": "station",
      "decorName": "車站",
      "decorIcon": "🚉"
    },
    {
      "id": "node-4117035518",
      "lat": 25.1324402,
      "lon": 121.7354099,
      "name": "7-Eleven",
      "decorType": "convenience-store",
      "decorName": "便利商店",
      "decorIcon": "🏪"
    },
    {
      "id": "node-4117079399",
      "lat": 25.1303546,
      "lon": 121.7406906,
      "name": "茉莉森咖啡館",
      "decorType": "cafe",
      "decorName": "咖啡廳",
      "decorIcon": "☕"
    },
    {
      "id": "node-4123808947",
      "lat": 25.1797303,
      "lon": 121.6897298,
      "name": "萬里分館",
      "decorType": "library",
      "decorName": "圖書館",
      "decorIcon": "📚"
    },
    {
      "id": "node-4169953578",
      "lat": 25.1264744,
      "lon": 121.7158951,
      "name": "全家便利商店",
      "decorType": "convenience-store",
      "decorName": "便利商店",
      "decorIcon": "🏪"
    },
    {
      "id": "node-4169953584",
      "lat": 25.1267949,
      "lon": 121.7126121,
      "name": "全家便利商店",
      "decorType": "convenience-store",
      "decorName": "便利商店",
      "decorIcon": "🏪"
    },
    {
      "id": "node-4172859412",
      "lat": 25.1300041,
      "lon": 121.7446394,
      "name": "三姐妹水煎包",
      "decorType": "burger",
      "decorName": "漢堡店",
      "decorIcon": "🍔"
    },
    {
      "id": "node-4172869389",
      "lat": 25.1281155,
      "lon": 121.743424,
      "name": "愛玉冰",
      "decorType": "burger",
      "decorName": "漢堡店",
      "decorIcon": "🍔"
    },
    {
      "id": "node-4172874389",
      "lat": 25.1282501,
      "lon": 121.7433742,
      "name": "沈記泡泡冰",
      "decorType": "burger",
      "decorName": "漢堡店",
      "decorIcon": "🍔"
    },
    {
      "id": "node-4199791996",
      "lat": 25.2095591,
      "lon": 121.6946326,
      "name": "海角休憩站",
      "decorType": "restaurant",
      "decorName": "餐廳",
      "decorIcon": "🍽️"
    },
    {
      "id": "node-4213422294",
      "lat": 25.129896,
      "lon": 121.7447841,
      "name": "基隆益麺線",
      "decorType": "restaurant",
      "decorName": "餐廳",
      "decorIcon": "🍽️"
    },
    {
      "id": "node-4217051201",
      "lat": 25.1282941,
      "lon": 121.7432211,
      "name": "天一香肉羹順",
      "decorType": "restaurant",
      "decorName": "餐廳",
      "decorIcon": "🍽️"
    },
    {
      "id": "node-4242357589",
      "lat": 25.1286493,
      "lon": 121.7400127,
      "name": "擇食居酒屋",
      "decorType": "restaurant",
      "decorName": "餐廳",
      "decorIcon": "🍽️"
    },
    {
      "id": "node-4270829965",
      "lat": 25.1280233,
      "lon": 121.7436537,
      "name": "7-Eleven",
      "decorType": "convenience-store",
      "decorName": "便利商店",
      "decorIcon": "🏪"
    },
    {
      "id": "node-4270829966",
      "lat": 25.1284433,
      "lon": 121.7429756,
      "name": "全家便利商店",
      "decorType": "convenience-store",
      "decorName": "便利商店",
      "decorIcon": "🏪"
    },
    {
      "id": "node-4270829967",
      "lat": 25.1269908,
      "lon": 121.7420648,
      "name": "OK超商",
      "decorType": "convenience-store",
      "decorName": "便利商店",
      "decorIcon": "🏪"
    },
    {
      "id": "node-4270829968",
      "lat": 25.1283679,
      "lon": 121.7410498,
      "name": "7-Eleven",
      "decorType": "convenience-store",
      "decorName": "便利商店",
      "decorIcon": "🏪"
    },
    {
      "id": "node-4270829969",
      "lat": 25.1282575,
      "lon": 121.7412287,
      "name": "全家便利商店",
      "decorType": "convenience-store",
      "decorName": "便利商店",
      "decorIcon": "🏪"
    },
    {
      "id": "node-4270829970",
      "lat": 25.1291209,
      "lon": 121.7413913,
      "name": "OK超商",
      "decorType": "convenience-store",
      "decorName": "便利商店",
      "decorIcon": "🏪"
    },
    {
      "id": "node-4270829971",
      "lat": 25.128725,
      "lon": 121.7446315,
      "name": "7-Eleven",
      "decorType": "convenience-store",
      "decorName": "便利商店",
      "decorIcon": "🏪"
    },
    {
      "id": "node-4317227191",
      "lat": 25.1275192,
      "lon": 121.7511415,
      "name": "Oh! Pasta 義大利麵",
      "decorType": "restaurant",
      "decorName": "餐廳",
      "decorIcon": "🍽️"
    },
    {
      "id": "node-4388647001",
      "lat": 25.1292096,
      "lon": 121.7451022,
      "name": "葉子咖啡",
      "decorType": "cafe",
      "decorName": "咖啡廳",
      "decorIcon": "☕"
    },
    {
      "id": "node-4440772437",
      "lat": 25.1306872,
      "lon": 121.7471781,
      "name": "佛光山極樂寺滴水坊",
      "decorType": "restaurant",
      "decorName": "餐廳",
      "decorIcon": "🍽️"
    },
    {
      "id": "node-4450122989",
      "lat": 25.1507583,
      "lon": 121.7720528,
      "name": "早安美之城",
      "decorType": "cafe",
      "decorName": "咖啡廳",
      "decorIcon": "☕"
    },
    {
      "id": "node-4459979346",
      "lat": 25.1569269,
      "lon": 121.6956516,
      "name": "喜悅 健康廚房",
      "decorType": "restaurant",
      "decorName": "餐廳",
      "decorIcon": "🍽️"
    },
    {
      "id": "node-4472169890",
      "lat": 25.1330176,
      "lon": 121.7450978,
      "name": "INDEX 南洋百貨",
      "decorType": "convenience-store",
      "decorName": "便利商店",
      "decorIcon": "🏪"
    },
    {
      "id": "node-4520837742",
      "lat": 25.1305724,
      "lon": 121.7412138,
      "name": "Harro",
      "decorType": "hair-salon",
      "decorName": "美髮院",
      "decorIcon": "✂️"
    },
    {
      "id": "node-4520936967",
      "lat": 25.1318023,
      "lon": 121.7432054,
      "name": "Homee",
      "decorType": "cafe",
      "decorName": "咖啡廳",
      "decorIcon": "☕"
    },
    {
      "id": "node-4520937958",
      "lat": 25.1318161,
      "lon": 121.7435019,
      "name": "EasyMart",
      "decorType": "convenience-store",
      "decorName": "便利商店",
      "decorIcon": "🏪"
    },
    {
      "id": "node-4524864091",
      "lat": 25.1210208,
      "lon": 121.721606,
      "name": "7-Eleven",
      "decorType": "convenience-store",
      "decorName": "便利商店",
      "decorIcon": "🏪"
    },
    {
      "id": "node-4524864092",
      "lat": 25.12504,
      "lon": 121.7195074,
      "name": "7-Eleven",
      "decorType": "convenience-store",
      "decorName": "便利商店",
      "decorIcon": "🏪"
    },
    {
      "id": "node-4524864094",
      "lat": 25.1411806,
      "lon": 121.7108723,
      "name": "高登藥局",
      "decorType": "pharmacy",
      "decorName": "藥局",
      "decorIcon": "💊"
    },
    {
      "id": "node-4524864095",
      "lat": 25.1413828,
      "lon": 121.7106873,
      "name": "長春藥局",
      "decorType": "pharmacy",
      "decorName": "藥局",
      "decorIcon": "💊"
    },
    {
      "id": "node-4524864096",
      "lat": 25.1419621,
      "lon": 121.7101853,
      "name": "麥當勞",
      "decorType": "burger",
      "decorName": "漢堡店",
      "decorIcon": "🍔"
    },
    {
      "id": "node-4524864100",
      "lat": 25.1521533,
      "lon": 121.6977743,
      "name": "7-Eleven 武訓門市",
      "decorType": "convenience-store",
      "decorName": "便利商店",
      "decorIcon": "🏪"
    },
    {
      "id": "node-4524864101",
      "lat": 25.1546485,
      "lon": 121.696544,
      "name": "7-Eleven",
      "decorType": "convenience-store",
      "decorName": "便利商店",
      "decorIcon": "🏪"
    },
    {
      "id": "node-4524864102",
      "lat": 25.1566036,
      "lon": 121.6956192,
      "name": "全家便利商店",
      "decorType": "convenience-store",
      "decorName": "便利商店",
      "decorIcon": "🏪"
    },
    {
      "id": "node-4524864105",
      "lat": 25.1761531,
      "lon": 121.6878655,
      "name": "7-Eleven",
      "decorType": "convenience-store",
      "decorName": "便利商店",
      "decorIcon": "🏪"
    },
    {
      "id": "node-4524864106",
      "lat": 25.177065,
      "lon": 121.688725,
      "name": "萬里豆漿伯店",
      "decorType": "restaurant",
      "decorName": "餐廳",
      "decorIcon": "🍽️"
    },
    {
      "id": "node-4524864107",
      "lat": 25.1849636,
      "lon": 121.6859457,
      "name": "7-Eleven",
      "decorType": "convenience-store",
      "decorName": "便利商店",
      "decorIcon": "🏪"
    },
    {
      "id": "node-4613620968",
      "lat": 25.139518,
      "lon": 121.7959635,
      "name": "合記燒臘店",
      "decorType": "restaurant",
      "decorName": "餐廳",
      "decorIcon": "🍽️"
    },
    {
      "id": "node-4613620969",
      "lat": 25.1395057,
      "lon": 121.7958498,
      "name": "八斗子診所",
      "decorType": "hospital",
      "decorName": "醫院",
      "decorIcon": "🏥"
    },
    {
      "id": "node-4613620972",
      "lat": 25.139664,
      "lon": 121.7965542,
      "name": "周廚紅燒牛肉麵",
      "decorType": "restaurant",
      "decorName": "餐廳",
      "decorIcon": "🍽️"
    },
    {
      "id": "node-4613620983",
      "lat": 25.1397024,
      "lon": 121.7958982,
      "name": "85度C",
      "decorType": "cafe",
      "decorName": "咖啡廳",
      "decorIcon": "☕"
    },
    {
      "id": "node-4613620986",
      "lat": 25.1396946,
      "lon": 121.7963346,
      "name": "理髮廳",
      "decorType": "hair-salon",
      "decorName": "美髮院",
      "decorIcon": "✂️"
    },
    {
      "id": "node-4613621695",
      "lat": 25.140031,
      "lon": 121.7968162,
      "name": "隆美西服",
      "decorType": "clothing-store",
      "decorName": "服飾店",
      "decorIcon": "👕"
    },
    {
      "id": "node-4613657308",
      "lat": 25.1414607,
      "lon": 121.8016536,
      "name": "討海郎",
      "decorType": "restaurant",
      "decorName": "餐廳",
      "decorIcon": "🍽️"
    },
    {
      "id": "node-4613657309",
      "lat": 25.1425083,
      "lon": 121.8024145,
      "name": "瑪利歐柴窯披薩",
      "decorType": "restaurant",
      "decorName": "餐廳",
      "decorIcon": "🍽️"
    },
    {
      "id": "node-4613657310",
      "lat": 25.1426397,
      "lon": 121.8025632,
      "name": "傻大姊海景美食",
      "decorType": "restaurant",
      "decorName": "餐廳",
      "decorIcon": "🍽️"
    },
    {
      "id": "node-4613657311",
      "lat": 25.142755,
      "lon": 121.8026623,
      "name": "好時光餐廳",
      "decorType": "restaurant",
      "decorName": "餐廳",
      "decorIcon": "🍽️"
    },
    {
      "id": "node-4613657312",
      "lat": 25.1430007,
      "lon": 121.8028372,
      "name": "水漾芭里",
      "decorType": "restaurant",
      "decorName": "餐廳",
      "decorIcon": "🍽️"
    },
    {
      "id": "node-4613657313",
      "lat": 25.1432338,
      "lon": 121.8029275,
      "name": "海風小徑咖啡館",
      "decorType": "cafe",
      "decorName": "咖啡廳",
      "decorIcon": "☕"
    },
    {
      "id": "node-4662992796",
      "lat": 25.1332163,
      "lon": 121.782579,
      "name": "未命名餐廳",
      "decorType": "restaurant",
      "decorName": "餐廳",
      "decorIcon": "🍽️"
    },
    {
      "id": "node-4785484223",
      "lat": 25.1078113,
      "lon": 121.8071613,
      "name": "85度C",
      "decorType": "cafe",
      "decorName": "咖啡廳",
      "decorIcon": "☕"
    },
    {
      "id": "node-4785607422",
      "lat": 25.10712,
      "lon": 121.805696,
      "name": "阿爸義式音樂餐廳",
      "decorType": "restaurant",
      "decorName": "餐廳",
      "decorIcon": "🍽️"
    },
    {
      "id": "node-4785607424",
      "lat": 25.1082727,
      "lon": 121.8051764,
      "name": "MWD",
      "decorType": "burger",
      "decorName": "漢堡店",
      "decorIcon": "🍔"
    },
    {
      "id": "node-4785607425",
      "lat": 25.1081599,
      "lon": 121.8056117,
      "name": "路易莎咖啡",
      "decorType": "cafe",
      "decorName": "咖啡廳",
      "decorIcon": "☕"
    },
    {
      "id": "node-4785607426",
      "lat": 25.1079797,
      "lon": 121.8064167,
      "name": "清心福全",
      "decorType": "cafe",
      "decorName": "咖啡廳",
      "decorIcon": "☕"
    },
    {
      "id": "node-4785610021",
      "lat": 25.1079884,
      "lon": 121.8072056,
      "name": "溫莎堡烘焙坊",
      "decorType": "bakery",
      "decorName": "麵包店",
      "decorIcon": "🥐"
    },
    {
      "id": "node-4785610121",
      "lat": 25.1077963,
      "lon": 121.8072348,
      "name": "艾妮西點",
      "decorType": "bakery",
      "decorName": "麵包店",
      "decorIcon": "🥐"
    },
    {
      "id": "node-4787937423",
      "lat": 25.1080506,
      "lon": 121.8061125,
      "name": "超大杯",
      "decorType": "cafe",
      "decorName": "咖啡廳",
      "decorIcon": "☕"
    },
    {
      "id": "node-4824938821",
      "lat": 25.1483378,
      "lon": 121.7832865,
      "name": "988海鮮餐廳",
      "decorType": "restaurant",
      "decorName": "餐廳",
      "decorIcon": "🍽️"
    },
    {
      "id": "node-4839753041",
      "lat": 25.1512889,
      "lon": 121.7672788,
      "name": "雞肉，炒雞蛋，下水",
      "decorType": "restaurant",
      "decorName": "餐廳",
      "decorIcon": "🍽️"
    },
    {
      "id": "node-4937748627",
      "lat": 25.1067374,
      "lon": 121.8055398,
      "name": "豐味肉羹",
      "decorType": "restaurant",
      "decorName": "餐廳",
      "decorIcon": "🍽️"
    },
    {
      "id": "node-4951127024",
      "lat": 25.1280576,
      "lon": 121.7365261,
      "name": "全聯福利中心",
      "decorType": "supermarket",
      "decorName": "超市",
      "decorIcon": "🛒"
    },
    {
      "id": "node-4951127423",
      "lat": 25.131748,
      "lon": 121.7347111,
      "name": "85度C",
      "decorType": "cafe",
      "decorName": "咖啡廳",
      "decorIcon": "☕"
    },
    {
      "id": "node-4954778727",
      "lat": 25.1301197,
      "lon": 121.7405431,
      "name": "家樂福超市",
      "decorType": "supermarket",
      "decorName": "超市",
      "decorIcon": "🛒"
    },
    {
      "id": "node-4959456423",
      "lat": 25.1633921,
      "lon": 121.725681,
      "name": "龍蝦麻糬",
      "decorType": "sweetshop",
      "decorName": "甜點店",
      "decorIcon": "🍩"
    },
    {
      "id": "node-5046503315",
      "lat": 25.0998818,
      "lon": 121.7356771,
      "name": "全聯福利中心",
      "decorType": "supermarket",
      "decorName": "超市",
      "decorIcon": "🛒"
    },
    {
      "id": "node-5110580382",
      "lat": 25.1083544,
      "lon": 121.7291568,
      "name": "7-Eleven",
      "decorType": "convenience-store",
      "decorName": "便利商店",
      "decorIcon": "🏪"
    },
    {
      "id": "node-5110581229",
      "lat": 25.1076855,
      "lon": 121.8085222,
      "name": "QQ堡",
      "decorType": "restaurant",
      "decorName": "餐廳",
      "decorIcon": "🍽️"
    },
    {
      "id": "node-5110581230",
      "lat": 25.1077717,
      "lon": 121.8083957,
      "name": "雅築服飾",
      "decorType": "clothing-store",
      "decorName": "服飾店",
      "decorIcon": "👕"
    },
    {
      "id": "node-5130873874",
      "lat": 25.1397086,
      "lon": 121.7958219,
      "name": "7-Eleven",
      "decorType": "convenience-store",
      "decorName": "便利商店",
      "decorIcon": "🏪"
    },
    {
      "id": "node-5130873875",
      "lat": 25.1400295,
      "lon": 121.7962336,
      "name": "基隆八斗子郵局",
      "decorType": "post-office",
      "decorName": "郵局",
      "decorIcon": "📮"
    },
    {
      "id": "node-5130873886",
      "lat": 25.1370154,
      "lon": 121.7953476,
      "name": "全家便利商店",
      "decorType": "convenience-store",
      "decorName": "便利商店",
      "decorIcon": "🏪"
    },
    {
      "id": "node-5130873887",
      "lat": 25.1383047,
      "lon": 121.793572,
      "name": "全家便利商店",
      "decorType": "convenience-store",
      "decorName": "便利商店",
      "decorIcon": "🏪"
    },
    {
      "id": "node-5169869432",
      "lat": 25.1266272,
      "lon": 121.7397648,
      "name": "OK超商",
      "decorType": "convenience-store",
      "decorName": "便利商店",
      "decorIcon": "🏪"
    },
    {
      "id": "node-5170039607",
      "lat": 25.1309257,
      "lon": 121.7449842,
      "name": "基隆秀泰影城",
      "decorType": "movie-theater",
      "decorName": "電影院",
      "decorIcon": "🍿"
    },
    {
      "id": "node-5171452235",
      "lat": 25.1315418,
      "lon": 121.7437938,
      "name": "基隆市文化局圖書館",
      "decorType": "library",
      "decorName": "圖書館",
      "decorIcon": "📚"
    },
    {
      "id": "node-5171581149",
      "lat": 25.1350826,
      "lon": 121.741621,
      "name": "基隆港西岸客運中心",
      "decorType": "station",
      "decorName": "車站",
      "decorIcon": "🚉"
    },
    {
      "id": "node-5171581154",
      "lat": 25.1313392,
      "lon": 121.7397272,
      "name": "仁祥診所",
      "decorType": "hospital",
      "decorName": "醫院",
      "decorIcon": "🏥"
    },
    {
      "id": "node-5171581185",
      "lat": 25.1287705,
      "lon": 121.7442882,
      "name": "全家福元宵",
      "decorType": "restaurant",
      "decorName": "餐廳",
      "decorIcon": "🍽️"
    },
    {
      "id": "node-5171581186",
      "lat": 25.1283317,
      "lon": 121.7436565,
      "name": "三兄弟豆花",
      "decorType": "restaurant",
      "decorName": "餐廳",
      "decorIcon": "🍽️"
    },
    {
      "id": "node-5171581208",
      "lat": 25.1276127,
      "lon": 121.7422195,
      "name": "CoCo都可",
      "decorType": "cafe",
      "decorName": "咖啡廳",
      "decorIcon": "☕"
    },
    {
      "id": "node-5171581209",
      "lat": 25.1283207,
      "lon": 121.7432193,
      "name": "魯肉飯專家",
      "decorType": "restaurant",
      "decorName": "餐廳",
      "decorIcon": "🍽️"
    },
    {
      "id": "node-5172614550",
      "lat": 25.1346476,
      "lon": 121.734557,
      "name": "呷尚寶",
      "decorType": "burger",
      "decorName": "漢堡店",
      "decorIcon": "🍔"
    },
    {
      "id": "node-5172614551",
      "lat": 25.1339468,
      "lon": 121.7350456,
      "name": "巷口水煎包",
      "decorType": "restaurant",
      "decorName": "餐廳",
      "decorIcon": "🍽️"
    },
    {
      "id": "node-5172614552",
      "lat": 25.1340374,
      "lon": 121.7349871,
      "name": "麥多便利商店",
      "decorType": "convenience-store",
      "decorName": "便利商店",
      "decorIcon": "🏪"
    },
    {
      "id": "node-5173078967",
      "lat": 25.1307866,
      "lon": 121.7446463,
      "name": "麥當勞",
      "decorType": "burger",
      "decorName": "漢堡店",
      "decorIcon": "🍔"
    },
    {
      "id": "node-5174302265",
      "lat": 25.1374228,
      "lon": 121.7319734,
      "name": "基隆市中山區圖書館",
      "decorType": "library",
      "decorName": "圖書館",
      "decorIcon": "📚"
    },
    {
      "id": "node-5174302281",
      "lat": 25.1340954,
      "lon": 121.7347596,
      "name": "小羅牛肉麵",
      "decorType": "restaurant",
      "decorName": "餐廳",
      "decorIcon": "🍽️"
    },
    {
      "id": "node-5174303211",
      "lat": 25.1309252,
      "lon": 121.7395065,
      "name": "孝三路大腸圈",
      "decorType": "restaurant",
      "decorName": "餐廳",
      "decorIcon": "🍽️"
    },
    {
      "id": "node-5174303212",
      "lat": 25.1306994,
      "lon": 121.74011,
      "name": "三兄弟大腸圈",
      "decorType": "restaurant",
      "decorName": "餐廳",
      "decorIcon": "🍽️"
    },
    {
      "id": "node-5174303213",
      "lat": 25.1307623,
      "lon": 121.7396581,
      "name": "簡家蚵仔煎",
      "decorType": "restaurant",
      "decorName": "餐廳",
      "decorIcon": "🍽️"
    },
    {
      "id": "node-5174754379",
      "lat": 25.1355952,
      "lon": 121.7334725,
      "name": "姚爺爺烘焙坊",
      "decorType": "bakery",
      "decorName": "麵包店",
      "decorIcon": "🥐"
    },
    {
      "id": "node-5175485222",
      "lat": 25.1475508,
      "lon": 121.7380522,
      "name": "7-Eleven",
      "decorType": "convenience-store",
      "decorName": "便利商店",
      "decorIcon": "🏪"
    },
    {
      "id": "node-5175485223",
      "lat": 25.1453792,
      "lon": 121.738845,
      "name": "全家便利商店",
      "decorType": "convenience-store",
      "decorName": "便利商店",
      "decorIcon": "🏪"
    },
    {
      "id": "node-5175994053",
      "lat": 25.1301016,
      "lon": 121.7394315,
      "name": "全家便利商店",
      "decorType": "convenience-store",
      "decorName": "便利商店",
      "decorIcon": "🏪"
    },
    {
      "id": "node-5175994054",
      "lat": 25.1306867,
      "lon": 121.7396176,
      "name": "7-Eleven",
      "decorType": "convenience-store",
      "decorName": "便利商店",
      "decorIcon": "🏪"
    },
    {
      "id": "node-5175994106",
      "lat": 25.1287081,
      "lon": 121.7437725,
      "name": "紀家豬腳原汁專家",
      "decorType": "restaurant",
      "decorName": "餐廳",
      "decorIcon": "🍽️"
    },
    {
      "id": "node-5176935091",
      "lat": 25.1319508,
      "lon": 121.7353527,
      "name": "哈囉便當",
      "decorType": "restaurant",
      "decorName": "餐廳",
      "decorIcon": "🍽️"
    },
    {
      "id": "node-5176935118",
      "lat": 25.1314367,
      "lon": 121.7457228,
      "name": "泰舍泰式料理",
      "decorType": "restaurant",
      "decorName": "餐廳",
      "decorIcon": "🍽️"
    },
    {
      "id": "node-5178922392",
      "lat": 25.1320721,
      "lon": 121.7348421,
      "name": "未命名美髮院",
      "decorType": "hair-salon",
      "decorName": "美髮院",
      "decorIcon": "✂️"
    },
    {
      "id": "node-5178922412",
      "lat": 25.1419515,
      "lon": 121.726548,
      "name": "麵線羹",
      "decorType": "restaurant",
      "decorName": "餐廳",
      "decorIcon": "🍽️"
    },
    {
      "id": "node-5178922416",
      "lat": 25.1433332,
      "lon": 121.7259627,
      "name": "三媽臭臭鍋",
      "decorType": "restaurant",
      "decorName": "餐廳",
      "decorIcon": "🍽️"
    },
    {
      "id": "node-5198604128",
      "lat": 25.1315923,
      "lon": 121.7364205,
      "name": "小文肉焿魯肉飯",
      "decorType": "restaurant",
      "decorName": "餐廳",
      "decorIcon": "🍽️"
    },
    {
      "id": "node-5206670326",
      "lat": 25.144569,
      "lon": 121.767468,
      "name": "OK超商",
      "decorType": "convenience-store",
      "decorName": "便利商店",
      "decorIcon": "🏪"
    },
    {
      "id": "node-5210870493",
      "lat": 25.1327786,
      "lon": 121.731393,
      "name": "美廉社",
      "decorType": "supermarket",
      "decorName": "超市",
      "decorIcon": "🛒"
    },
    {
      "id": "node-5210870495",
      "lat": 25.1324294,
      "lon": 121.7328377,
      "name": "7-Eleven",
      "decorType": "convenience-store",
      "decorName": "便利商店",
      "decorIcon": "🏪"
    },
    {
      "id": "node-5240882167",
      "lat": 25.1275922,
      "lon": 121.7507894,
      "name": "溫莎堡麵包店",
      "decorType": "bakery",
      "decorName": "麵包店",
      "decorIcon": "🥐"
    },
    {
      "id": "node-5242060871",
      "lat": 25.2043308,
      "lon": 121.6879626,
      "name": "全家便利商店",
      "decorType": "convenience-store",
      "decorName": "便利商店",
      "decorIcon": "🏪"
    },
    {
      "id": "node-5246069377",
      "lat": 25.1228506,
      "lon": 121.741852,
      "name": "OK超商",
      "decorType": "convenience-store",
      "decorName": "便利商店",
      "decorIcon": "🏪"
    },
    {
      "id": "node-5246069570",
      "lat": 25.1277983,
      "lon": 121.7431824,
      "name": "阿華炒麵",
      "decorType": "restaurant",
      "decorName": "餐廳",
      "decorIcon": "🍽️"
    },
    {
      "id": "node-5246069571",
      "lat": 25.1279167,
      "lon": 121.7446177,
      "name": "全聯福利中心",
      "decorType": "supermarket",
      "decorName": "超市",
      "decorIcon": "🛒"
    },
    {
      "id": "node-5246069572",
      "lat": 25.1282789,
      "lon": 121.743174,
      "name": "吳家鼎邊銼",
      "decorType": "restaurant",
      "decorName": "餐廳",
      "decorIcon": "🍽️"
    },
    {
      "id": "node-5246069573",
      "lat": 25.1282275,
      "lon": 121.7431733,
      "name": "邢記鼎邊銼",
      "decorType": "restaurant",
      "decorName": "餐廳",
      "decorIcon": "🍽️"
    },
    {
      "id": "node-5246190758",
      "lat": 25.1458441,
      "lon": 121.7265035,
      "name": "親親診所",
      "decorType": "hospital",
      "decorName": "醫院",
      "decorIcon": "🏥"
    },
    {
      "id": "node-5246317528",
      "lat": 25.1269668,
      "lon": 121.7658021,
      "name": "全聯福利中心",
      "decorType": "supermarket",
      "decorName": "超市",
      "decorIcon": "🛒"
    },
    {
      "id": "node-5247861665",
      "lat": 25.1041188,
      "lon": 121.7398358,
      "name": "OK超商",
      "decorType": "convenience-store",
      "decorName": "便利商店",
      "decorIcon": "🏪"
    },
    {
      "id": "node-5248398965",
      "lat": 25.129742,
      "lon": 121.7490908,
      "name": "泉利米香",
      "decorType": "sweetshop",
      "decorName": "甜點店",
      "decorIcon": "🍩"
    },
    {
      "id": "node-5248508575",
      "lat": 25.1498856,
      "lon": 121.7275341,
      "name": "全家便利商店",
      "decorType": "convenience-store",
      "decorName": "便利商店",
      "decorIcon": "🏪"
    },
    {
      "id": "node-5248508576",
      "lat": 25.1497463,
      "lon": 121.7273707,
      "name": "7-Eleven",
      "decorType": "convenience-store",
      "decorName": "便利商店",
      "decorIcon": "🏪"
    },
    {
      "id": "node-5248508577",
      "lat": 25.1496703,
      "lon": 121.7272555,
      "name": "安安診所",
      "decorType": "hospital",
      "decorName": "醫院",
      "decorIcon": "🏥"
    },
    {
      "id": "node-5248508578",
      "lat": 25.1497043,
      "lon": 121.7273007,
      "name": "外木山藥局",
      "decorType": "pharmacy",
      "decorName": "藥局",
      "decorIcon": "💊"
    },
    {
      "id": "node-5248950676",
      "lat": 25.1374024,
      "lon": 121.8000503,
      "name": "海科館",
      "decorType": "station",
      "decorName": "車站",
      "decorIcon": "🚉"
    },
    {
      "id": "node-5251104704",
      "lat": 25.1444069,
      "lon": 121.7258495,
      "name": "老窩咖啡館",
      "decorType": "cafe",
      "decorName": "咖啡廳",
      "decorIcon": "☕"
    },
    {
      "id": "node-5270543104",
      "lat": 25.1209181,
      "lon": 121.7231058,
      "name": "家樂福超市",
      "decorType": "supermarket",
      "decorName": "超市",
      "decorIcon": "🛒"
    },
    {
      "id": "node-5283407376",
      "lat": 25.1290295,
      "lon": 121.7421515,
      "name": "頂呱呱",
      "decorType": "burger",
      "decorName": "漢堡店",
      "decorIcon": "🍔"
    },
    {
      "id": "node-5284462375",
      "lat": 25.130896,
      "lon": 121.7395745,
      "name": "長腳麵食",
      "decorType": "restaurant",
      "decorName": "餐廳",
      "decorIcon": "🍽️"
    },
    {
      "id": "node-5284462376",
      "lat": 25.1303152,
      "lon": 121.7395711,
      "name": "清心福全",
      "decorType": "cafe",
      "decorName": "咖啡廳",
      "decorIcon": "☕"
    },
    {
      "id": "node-5284462377",
      "lat": 25.1279478,
      "lon": 121.7367245,
      "name": "CoCo都可",
      "decorType": "cafe",
      "decorName": "咖啡廳",
      "decorIcon": "☕"
    },
    {
      "id": "node-5284462401",
      "lat": 25.1271827,
      "lon": 121.7371597,
      "name": "基隆郵局國際郵件科",
      "decorType": "post-office",
      "decorName": "郵局",
      "decorIcon": "📮"
    },
    {
      "id": "node-5318899251",
      "lat": 25.1506019,
      "lon": 121.7651878,
      "name": "全聯福利中心",
      "decorType": "supermarket",
      "decorName": "超市",
      "decorIcon": "🛒"
    },
    {
      "id": "node-5336130021",
      "lat": 25.1909882,
      "lon": 121.6832836,
      "name": "彼瑞佳",
      "decorType": "cafe",
      "decorName": "咖啡廳",
      "decorIcon": "☕"
    },
    {
      "id": "node-5348540121",
      "lat": 25.1295454,
      "lon": 121.7389134,
      "name": "未命名餐廳",
      "decorType": "restaurant",
      "decorName": "餐廳",
      "decorIcon": "🍽️"
    },
    {
      "id": "node-5348544121",
      "lat": 25.129457,
      "lon": 121.7388587,
      "name": "未命名餐廳",
      "decorType": "restaurant",
      "decorName": "餐廳",
      "decorIcon": "🍽️"
    },
    {
      "id": "node-5348544221",
      "lat": 25.129479,
      "lon": 121.7389555,
      "name": "未命名咖啡廳",
      "decorType": "cafe",
      "decorName": "咖啡廳",
      "decorIcon": "☕"
    },
    {
      "id": "node-5349036705",
      "lat": 25.1447676,
      "lon": 121.7263173,
      "name": "八方雲集",
      "decorType": "burger",
      "decorName": "漢堡店",
      "decorIcon": "🍔"
    },
    {
      "id": "node-5349036706",
      "lat": 25.1438423,
      "lon": 121.7258788,
      "name": "胖老爹美式炸雞",
      "decorType": "burger",
      "decorName": "漢堡店",
      "decorIcon": "🍔"
    },
    {
      "id": "node-5349036708",
      "lat": 25.1319706,
      "lon": 121.7354806,
      "name": "紅豆坊",
      "decorType": "restaurant",
      "decorName": "餐廳",
      "decorIcon": "🍽️"
    },
    {
      "id": "node-5350686806",
      "lat": 25.1291236,
      "lon": 121.7387853,
      "name": "三軍總醫院基隆分院孝二院區",
      "decorType": "hospital",
      "decorName": "醫院",
      "decorIcon": "🏥"
    },
    {
      "id": "node-5353890777",
      "lat": 25.1408373,
      "lon": 121.7590014,
      "name": "基隆市中正區圖書館",
      "decorType": "library",
      "decorName": "圖書館",
      "decorIcon": "📚"
    },
    {
      "id": "node-5353890780",
      "lat": 25.1409112,
      "lon": 121.7591228,
      "name": "基隆市中正區衛生所",
      "decorType": "hospital",
      "decorName": "醫院",
      "decorIcon": "🏥"
    },
    {
      "id": "node-5363910097",
      "lat": 25.1305176,
      "lon": 121.745756,
      "name": "海宴赤燒麻辣",
      "decorType": "restaurant",
      "decorName": "餐廳",
      "decorIcon": "🍽️"
    },
    {
      "id": "node-5370088692",
      "lat": 25.1288066,
      "lon": 121.7396888,
      "name": "丸角自轉生活咖啡",
      "decorType": "cafe",
      "decorName": "咖啡廳",
      "decorIcon": "☕"
    },
    {
      "id": "node-5425937951",
      "lat": 25.1214363,
      "lon": 121.7212494,
      "name": "星巴克",
      "decorType": "cafe",
      "decorName": "咖啡廳",
      "decorIcon": "☕"
    },
    {
      "id": "node-5440391994",
      "lat": 25.130112,
      "lon": 121.7429949,
      "name": "7-Eleven",
      "decorType": "convenience-store",
      "decorName": "便利商店",
      "decorIcon": "🏪"
    },
    {
      "id": "node-5442553432",
      "lat": 25.1275562,
      "lon": 121.7590675,
      "name": "水園婚宴會館",
      "decorType": "restaurant",
      "decorName": "餐廳",
      "decorIcon": "🍽️"
    },
    {
      "id": "node-5462651321",
      "lat": 25.1235018,
      "lon": 121.7099097,
      "name": "鐘萼木公園",
      "decorType": "park",
      "decorName": "公園",
      "decorIcon": "🌳"
    },
    {
      "id": "node-5480099918",
      "lat": 25.1305107,
      "lon": 121.7432635,
      "name": "NET",
      "decorType": "clothing-store",
      "decorName": "服飾店",
      "decorIcon": "👕"
    },
    {
      "id": "node-5481838221",
      "lat": 25.1431422,
      "lon": 121.7911909,
      "name": "未命名餐廳",
      "decorType": "restaurant",
      "decorName": "餐廳",
      "decorIcon": "🍽️"
    },
    {
      "id": "node-5499512542",
      "lat": 25.1282915,
      "lon": 121.7478887,
      "name": "必勝客",
      "decorType": "restaurant",
      "decorName": "餐廳",
      "decorIcon": "🍽️"
    },
    {
      "id": "node-5506989795",
      "lat": 25.0989859,
      "lon": 121.7555969,
      "name": "大方碳烤三明治",
      "decorType": "restaurant",
      "decorName": "餐廳",
      "decorIcon": "🍽️"
    },
    {
      "id": "node-5509010396",
      "lat": 25.106762,
      "lon": 121.8067561,
      "name": "悟饕池上飯包",
      "decorType": "restaurant",
      "decorName": "餐廳",
      "decorIcon": "🍽️"
    },
    {
      "id": "node-5509010397",
      "lat": 25.107103,
      "lon": 121.8058999,
      "name": "神戶牛排",
      "decorType": "restaurant",
      "decorName": "餐廳",
      "decorIcon": "🍽️"
    },
    {
      "id": "node-5512791301",
      "lat": 25.096275,
      "lon": 121.7345909,
      "name": "舞麥窯手工麵包",
      "decorType": "bakery",
      "decorName": "麵包店",
      "decorIcon": "🥐"
    },
    {
      "id": "node-5512791303",
      "lat": 25.0986701,
      "lon": 121.7540527,
      "name": "美廉社",
      "decorType": "supermarket",
      "decorName": "超市",
      "decorIcon": "🛒"
    },
    {
      "id": "node-5522997569",
      "lat": 25.1781239,
      "lon": 121.6888823,
      "name": "亞尼克菓子工房",
      "decorType": "sweetshop",
      "decorName": "甜點店",
      "decorIcon": "🍩"
    },
    {
      "id": "node-5527216785",
      "lat": 25.1077528,
      "lon": 121.7286938,
      "name": "鏢帽子",
      "decorType": "restaurant",
      "decorName": "餐廳",
      "decorIcon": "🍽️"
    },
    {
      "id": "node-5527216786",
      "lat": 25.1087859,
      "lon": 121.731824,
      "name": "吳式-油飯.大麵炒",
      "decorType": "restaurant",
      "decorName": "餐廳",
      "decorIcon": "🍽️"
    },
    {
      "id": "node-5527216787",
      "lat": 25.1087349,
      "lon": 121.7319823,
      "name": "過港牛肉麵",
      "decorType": "restaurant",
      "decorName": "餐廳",
      "decorIcon": "🍽️"
    },
    {
      "id": "node-5527216788",
      "lat": 25.1084702,
      "lon": 121.7320305,
      "name": "美而美早餐",
      "decorType": "restaurant",
      "decorName": "餐廳",
      "decorIcon": "🍽️"
    },
    {
      "id": "node-5527216789",
      "lat": 25.1067712,
      "lon": 121.7365554,
      "name": "井上園日本料理",
      "decorType": "restaurant",
      "decorName": "餐廳",
      "decorIcon": "🍽️"
    },
    {
      "id": "node-5531069108",
      "lat": 25.1276073,
      "lon": 121.8171036,
      "name": "OK超商",
      "decorType": "convenience-store",
      "decorName": "便利商店",
      "decorIcon": "🏪"
    },
    {
      "id": "node-5564549045",
      "lat": 25.1313623,
      "lon": 121.7395904,
      "name": "【佛緣居】素食麵線羹",
      "decorType": "restaurant",
      "decorName": "餐廳",
      "decorIcon": "🍽️"
    },
    {
      "id": "node-5564549046",
      "lat": 25.1314433,
      "lon": 121.7394958,
      "name": "黑色蘑菇-BlackMushroom",
      "decorType": "restaurant",
      "decorName": "餐廳",
      "decorIcon": "🍽️"
    },
    {
      "id": "node-5564549047",
      "lat": 25.1314561,
      "lon": 121.7391082,
      "name": "幸福旗魚麵線羹",
      "decorType": "restaurant",
      "decorName": "餐廳",
      "decorIcon": "🍽️"
    },
    {
      "id": "node-5564549048",
      "lat": 25.131384,
      "lon": 121.7389658,
      "name": "桶Q飯糰",
      "decorType": "restaurant",
      "decorName": "餐廳",
      "decorIcon": "🍽️"
    },
    {
      "id": "node-5564549049",
      "lat": 25.1313209,
      "lon": 121.7389382,
      "name": "阿國碳烤燒餅",
      "decorType": "restaurant",
      "decorName": "餐廳",
      "decorIcon": "🍽️"
    },
    {
      "id": "node-5564549050",
      "lat": 25.1312448,
      "lon": 121.7388647,
      "name": "百里香豆漿店",
      "decorType": "restaurant",
      "decorName": "餐廳",
      "decorIcon": "🍽️"
    },
    {
      "id": "node-5564549051",
      "lat": 25.1311898,
      "lon": 121.7388226,
      "name": "早安巴黎",
      "decorType": "restaurant",
      "decorName": "餐廳",
      "decorIcon": "🍽️"
    },
    {
      "id": "node-5564549052",
      "lat": 25.1309222,
      "lon": 121.738656,
      "name": "養生素麵線羹",
      "decorType": "restaurant",
      "decorName": "餐廳",
      "decorIcon": "🍽️"
    },
    {
      "id": "node-5564549053",
      "lat": 25.1307604,
      "lon": 121.7387568,
      "name": "麗香的店阿本伯燒賣",
      "decorType": "restaurant",
      "decorName": "餐廳",
      "decorIcon": "🍽️"
    },
    {
      "id": "node-5564549054",
      "lat": 25.130742,
      "lon": 121.7388143,
      "name": "棧場串燒",
      "decorType": "restaurant",
      "decorName": "餐廳",
      "decorIcon": "🍽️"
    },
    {
      "id": "node-5564549055",
      "lat": 25.1305617,
      "lon": 121.7384737,
      "name": "嘉萊快炒",
      "decorType": "restaurant",
      "decorName": "餐廳",
      "decorIcon": "🍽️"
    },
    {
      "id": "node-5564549056",
      "lat": 25.1305209,
      "lon": 121.739209,
      "name": "奕澤鹹粥",
      "decorType": "restaurant",
      "decorName": "餐廳",
      "decorIcon": "🍽️"
    },
    {
      "id": "node-5564549057",
      "lat": 25.1303911,
      "lon": 121.7390913,
      "name": "阿忠古早麵店",
      "decorType": "restaurant",
      "decorName": "餐廳",
      "decorIcon": "🍽️"
    },
    {
      "id": "node-5564549058",
      "lat": 25.1304582,
      "lon": 121.7384433,
      "name": "三姐妹熱炒店",
      "decorType": "restaurant",
      "decorName": "餐廳",
      "decorIcon": "🍽️"
    },
    {
      "id": "node-5564549059",
      "lat": 25.1299446,
      "lon": 121.7382488,
      "name": "遠東蚵仔煎",
      "decorType": "restaurant",
      "decorName": "餐廳",
      "decorIcon": "🍽️"
    },
    {
      "id": "node-5564549060",
      "lat": 25.1303526,
      "lon": 121.7383843,
      "name": "阿玉炒牛肉",
      "decorType": "restaurant",
      "decorName": "餐廳",
      "decorIcon": "🍽️"
    },
    {
      "id": "node-5564549061",
      "lat": 25.1297819,
      "lon": 121.7385023,
      "name": "阿惠餛飩麵",
      "decorType": "restaurant",
      "decorName": "餐廳",
      "decorIcon": "🍽️"
    },
    {
      "id": "node-5564549062",
      "lat": 25.1297212,
      "lon": 121.7386404,
      "name": "花蓮一品香鍋貼扁食店",
      "decorType": "restaurant",
      "decorName": "餐廳",
      "decorIcon": "🍽️"
    },
    {
      "id": "node-5564549063",
      "lat": 25.1296798,
      "lon": 121.73872,
      "name": "乾麵餛飩湯",
      "decorType": "restaurant",
      "decorName": "餐廳",
      "decorIcon": "🍽️"
    },
    {
      "id": "node-5564549064",
      "lat": 25.1297832,
      "lon": 121.7389553,
      "name": "春燕肉粽",
      "decorType": "restaurant",
      "decorName": "餐廳",
      "decorIcon": "🍽️"
    },
    {
      "id": "node-5564549066",
      "lat": 25.1293859,
      "lon": 121.7387996,
      "name": "阿順清粥店",
      "decorType": "restaurant",
      "decorName": "餐廳",
      "decorIcon": "🍽️"
    },
    {
      "id": "node-5564549067",
      "lat": 25.1337162,
      "lon": 121.7403984,
      "name": "同心齋小吃店",
      "decorType": "restaurant",
      "decorName": "餐廳",
      "decorIcon": "🍽️"
    },
    {
      "id": "node-5564549068",
      "lat": 25.1334887,
      "lon": 121.740278,
      "name": "劉家50年老店臭豆腐",
      "decorType": "restaurant",
      "decorName": "餐廳",
      "decorIcon": "🍽️"
    },
    {
      "id": "node-5564549069",
      "lat": 25.1334113,
      "lon": 121.7402329,
      "name": "伊吉屋",
      "decorType": "restaurant",
      "decorName": "餐廳",
      "decorIcon": "🍽️"
    },
    {
      "id": "node-5564549070",
      "lat": 25.1336917,
      "lon": 121.7403654,
      "name": "山東小館",
      "decorType": "restaurant",
      "decorName": "餐廳",
      "decorIcon": "🍽️"
    },
    {
      "id": "node-5564549071",
      "lat": 25.1336924,
      "lon": 121.7404493,
      "name": "海港呂家豬腳麵飯",
      "decorType": "restaurant",
      "decorName": "餐廳",
      "decorIcon": "🍽️"
    },
    {
      "id": "node-5564549072",
      "lat": 25.1028839,
      "lon": 121.7616493,
      "name": "阿揚什錦麵",
      "decorType": "restaurant",
      "decorName": "餐廳",
      "decorIcon": "🍽️"
    },
    {
      "id": "node-5564549073",
      "lat": 25.1029132,
      "lon": 121.7640463,
      "name": "999小吃店",
      "decorType": "restaurant",
      "decorName": "餐廳",
      "decorIcon": "🍽️"
    },
    {
      "id": "node-5564549074",
      "lat": 25.1022087,
      "lon": 121.7639585,
      "name": "我愛四腳亭",
      "decorType": "restaurant",
      "decorName": "餐廳",
      "decorIcon": "🍽️"
    },
    {
      "id": "node-5564549075",
      "lat": 25.1021124,
      "lon": 121.7624565,
      "name": "茶居 x 臭到府 複合式餐飲",
      "decorType": "restaurant",
      "decorName": "餐廳",
      "decorIcon": "🍽️"
    },
    {
      "id": "node-5564549076",
      "lat": 25.1020413,
      "lon": 121.7622624,
      "name": "玉春飲食館",
      "decorType": "restaurant",
      "decorName": "餐廳",
      "decorIcon": "🍽️"
    },
    {
      "id": "node-5564549077",
      "lat": 25.1016819,
      "lon": 121.7623673,
      "name": "雞將雞排",
      "decorType": "restaurant",
      "decorName": "餐廳",
      "decorIcon": "🍽️"
    },
    {
      "id": "node-5564549078",
      "lat": 25.1308796,
      "lon": 121.7397861,
      "name": "品辰素食坊",
      "decorType": "restaurant",
      "decorName": "餐廳",
      "decorIcon": "🍽️"
    },
    {
      "id": "node-5564549079",
      "lat": 25.130831,
      "lon": 121.7397336,
      "name": "孝三路魷魚羹肉圓",
      "decorType": "restaurant",
      "decorName": "餐廳",
      "decorIcon": "🍽️"
    },
    {
      "id": "node-5564549080",
      "lat": 25.1305772,
      "lon": 121.7395647,
      "name": "湘庭小吃店",
      "decorType": "restaurant",
      "decorName": "餐廳",
      "decorIcon": "🍽️"
    },
    {
      "id": "node-5564549081",
      "lat": 25.1305027,
      "lon": 121.7395108,
      "name": "竹間精緻鍋物",
      "decorType": "restaurant",
      "decorName": "餐廳",
      "decorIcon": "🍽️"
    },
    {
      "id": "node-5564549082",
      "lat": 25.1307326,
      "lon": 121.7398258,
      "name": "素慈健康",
      "decorType": "restaurant",
      "decorName": "餐廳",
      "decorIcon": "🍽️"
    },
    {
      "id": "node-5564549083",
      "lat": 25.1306389,
      "lon": 121.7397559,
      "name": "安一海南雞飯",
      "decorType": "restaurant",
      "decorName": "餐廳",
      "decorIcon": "🍽️"
    },
    {
      "id": "node-5564549084",
      "lat": 25.130562,
      "lon": 121.7396949,
      "name": "逸品平價自助餐",
      "decorType": "restaurant",
      "decorName": "餐廳",
      "decorIcon": "🍽️"
    },
    {
      "id": "node-5564549085",
      "lat": 25.1303112,
      "lon": 121.7398329,
      "name": "大呼過癮",
      "decorType": "restaurant",
      "decorName": "餐廳",
      "decorIcon": "🍽️"
    },
    {
      "id": "node-5564549086",
      "lat": 25.1302455,
      "lon": 121.7399015,
      "name": "大豬滷味",
      "decorType": "restaurant",
      "decorName": "餐廳",
      "decorIcon": "🍽️"
    },
    {
      "id": "node-5564549087",
      "lat": 25.130221,
      "lon": 121.7399621,
      "name": "我家牛排",
      "decorType": "restaurant",
      "decorName": "餐廳",
      "decorIcon": "🍽️"
    },
    {
      "id": "node-5564549088",
      "lat": 25.1299656,
      "lon": 121.7404433,
      "name": "鴨肉松",
      "decorType": "restaurant",
      "decorName": "餐廳",
      "decorIcon": "🍽️"
    },
    {
      "id": "node-5564549089",
      "lat": 25.1297894,
      "lon": 121.7404743,
      "name": "阿玲家肉圓",
      "decorType": "restaurant",
      "decorName": "餐廳",
      "decorIcon": "🍽️"
    },
    {
      "id": "node-5594507121",
      "lat": 25.0974182,
      "lon": 121.7144143,
      "name": "七堵家傳營養三明治",
      "decorType": "restaurant",
      "decorName": "餐廳",
      "decorIcon": "🍽️"
    },
    {
      "id": "node-5599594022",
      "lat": 25.1262072,
      "lon": 121.7418405,
      "name": "三公主越南美食",
      "decorType": "restaurant",
      "decorName": "餐廳",
      "decorIcon": "🍽️"
    },
    {
      "id": "node-5636603210",
      "lat": 25.1394467,
      "lon": 121.7799211,
      "name": "未命名公園",
      "decorType": "park",
      "decorName": "公園",
      "decorIcon": "🌳"
    },
    {
      "id": "node-5638863595",
      "lat": 25.0968563,
      "lon": 121.7553496,
      "name": "原味真鍋 碇內店",
      "decorType": "restaurant",
      "decorName": "餐廳",
      "decorIcon": "🍽️"
    },
    {
      "id": "node-5639725050",
      "lat": 25.0987243,
      "lon": 121.7542958,
      "name": "地瓜媽媽早餐店",
      "decorType": "restaurant",
      "decorName": "餐廳",
      "decorIcon": "🍽️"
    },
    {
      "id": "node-5639725051",
      "lat": 25.0987121,
      "lon": 121.7542395,
      "name": "北宏蛋糕",
      "decorType": "bakery",
      "decorName": "麵包店",
      "decorIcon": "🥐"
    },
    {
      "id": "node-5639731994",
      "lat": 25.0986854,
      "lon": 121.7541054,
      "name": "福園港市燒臘",
      "decorType": "restaurant",
      "decorName": "餐廳",
      "decorIcon": "🍽️"
    },
    {
      "id": "node-5639731997",
      "lat": 25.0986392,
      "lon": 121.7538828,
      "name": "華碇中醫診所",
      "decorType": "hospital",
      "decorName": "醫院",
      "decorIcon": "🏥"
    },
    {
      "id": "node-5639746317",
      "lat": 25.0986235,
      "lon": 121.7545101,
      "name": "堡爺精緻早餐店",
      "decorType": "restaurant",
      "decorName": "餐廳",
      "decorIcon": "🍽️"
    },
    {
      "id": "node-5639770114",
      "lat": 25.0990219,
      "lon": 121.7557439,
      "name": "日興豆漿店",
      "decorType": "restaurant",
      "decorName": "餐廳",
      "decorIcon": "🍽️"
    },
    {
      "id": "node-5639770116",
      "lat": 25.099,
      "lon": 121.75565,
      "name": "河馬老爹麵包店",
      "decorType": "bakery",
      "decorName": "麵包店",
      "decorIcon": "🥐"
    },
    {
      "id": "node-5639797664",
      "lat": 25.0991118,
      "lon": 121.7561033,
      "name": "麥軒活力站",
      "decorType": "restaurant",
      "decorName": "餐廳",
      "decorIcon": "🍽️"
    },
    {
      "id": "node-5639797666",
      "lat": 25.0991288,
      "lon": 121.7561972,
      "name": "宏展藥局",
      "decorType": "pharmacy",
      "decorName": "藥局",
      "decorIcon": "💊"
    },
    {
      "id": "node-5639797667",
      "lat": 25.0991361,
      "lon": 121.7562615,
      "name": "康合診所",
      "decorType": "hospital",
      "decorName": "醫院",
      "decorIcon": "🏥"
    },
    {
      "id": "node-5639797668",
      "lat": 25.0991409,
      "lon": 121.756334,
      "name": "家宏藥局",
      "decorType": "pharmacy",
      "decorName": "藥局",
      "decorIcon": "💊"
    },
    {
      "id": "node-5664443844",
      "lat": 25.1310115,
      "lon": 121.7398658,
      "name": "洪診所",
      "decorType": "hospital",
      "decorName": "醫院",
      "decorIcon": "🏥"
    },
    {
      "id": "node-5710081630",
      "lat": 25.0749555,
      "lon": 121.6831219,
      "name": "7-Eleven",
      "decorType": "convenience-store",
      "decorName": "便利商店",
      "decorIcon": "🏪"
    },
    {
      "id": "node-5710081631",
      "lat": 25.0750525,
      "lon": 121.6832035,
      "name": "全家便利商店",
      "decorType": "convenience-store",
      "decorName": "便利商店",
      "decorIcon": "🏪"
    },
    {
      "id": "node-5748684821",
      "lat": 25.1272019,
      "lon": 121.7410567,
      "name": "基隆小吃手工肉圓",
      "decorType": "restaurant",
      "decorName": "餐廳",
      "decorIcon": "🍽️"
    },
    {
      "id": "node-5813294704",
      "lat": 25.1317246,
      "lon": 121.7386409,
      "name": "全家便利商店",
      "decorType": "convenience-store",
      "decorName": "便利商店",
      "decorIcon": "🏪"
    },
    {
      "id": "node-5814214063",
      "lat": 25.14501,
      "lon": 121.726549,
      "name": "CoCo都可",
      "decorType": "cafe",
      "decorName": "咖啡廳",
      "decorIcon": "☕"
    },
    {
      "id": "node-5814214064",
      "lat": 25.1450786,
      "lon": 121.7266245,
      "name": "清心福全",
      "decorType": "cafe",
      "decorName": "咖啡廳",
      "decorIcon": "☕"
    },
    {
      "id": "node-5814323462",
      "lat": 25.1459315,
      "lon": 121.7264745,
      "name": "魯都香滷味",
      "decorType": "restaurant",
      "decorName": "餐廳",
      "decorIcon": "🍽️"
    },
    {
      "id": "node-5819298744",
      "lat": 25.1312067,
      "lon": 121.7460922,
      "name": "基隆光點",
      "decorType": "cafe",
      "decorName": "咖啡廳",
      "decorIcon": "☕"
    },
    {
      "id": "node-5826324654",
      "lat": 25.1304656,
      "lon": 121.7413586,
      "name": "Little Italy Café",
      "decorType": "cafe",
      "decorName": "咖啡廳",
      "decorIcon": "☕"
    },
    {
      "id": "node-5828241019",
      "lat": 25.0749774,
      "lon": 121.6830126,
      "name": "Lamigo那米哥宴會廣場",
      "decorType": "restaurant",
      "decorName": "餐廳",
      "decorIcon": "🍽️"
    },
    {
      "id": "node-5828241020",
      "lat": 25.0752517,
      "lon": 121.6828767,
      "name": "早安美芝城",
      "decorType": "burger",
      "decorName": "漢堡店",
      "decorIcon": "🍔"
    },
    {
      "id": "node-5828510386",
      "lat": 25.128954,
      "lon": 121.7423131,
      "name": "迷客夏",
      "decorType": "cafe",
      "decorName": "咖啡廳",
      "decorIcon": "☕"
    },
    {
      "id": "node-5915583488",
      "lat": 25.1529225,
      "lon": 121.6971822,
      "name": "海産店呷尚鱻",
      "decorType": "restaurant",
      "decorName": "餐廳",
      "decorIcon": "🍽️"
    },
    {
      "id": "node-5915649786",
      "lat": 25.1529107,
      "lon": 121.6968249,
      "name": "未命名餐廳",
      "decorType": "restaurant",
      "decorName": "餐廳",
      "decorIcon": "🍽️"
    },
    {
      "id": "node-5957765485",
      "lat": 25.1259557,
      "lon": 121.7410825,
      "name": "全家便利商店",
      "decorType": "convenience-store",
      "decorName": "便利商店",
      "decorIcon": "🏪"
    },
    {
      "id": "node-6160017709",
      "lat": 25.1446202,
      "lon": 121.7387235,
      "name": "卞家牛肉麵",
      "decorType": "restaurant",
      "decorName": "餐廳",
      "decorIcon": "🍽️"
    },
    {
      "id": "node-6328385685",
      "lat": 25.1292268,
      "lon": 121.8190872,
      "name": "音樂餐廳",
      "decorType": "restaurant",
      "decorName": "餐廳",
      "decorIcon": "🍽️"
    },
    {
      "id": "node-6438637569",
      "lat": 25.1537184,
      "lon": 121.7716849,
      "name": "阿根納原住民餐廳",
      "decorType": "restaurant",
      "decorName": "餐廳",
      "decorIcon": "🍽️"
    },
    {
      "id": "node-6451455187",
      "lat": 25.1374092,
      "lon": 121.7510978,
      "name": "全家便利商店",
      "decorType": "convenience-store",
      "decorName": "便利商店",
      "decorIcon": "🏪"
    },
    {
      "id": "node-6451484086",
      "lat": 25.137663,
      "lon": 121.751408,
      "name": "三沙灣米苔目",
      "decorType": "restaurant",
      "decorName": "餐廳",
      "decorIcon": "🍽️"
    },
    {
      "id": "node-6451484285",
      "lat": 25.1375995,
      "lon": 121.7513511,
      "name": "金龍肉焿",
      "decorType": "restaurant",
      "decorName": "餐廳",
      "decorIcon": "🍽️"
    },
    {
      "id": "node-6451484286",
      "lat": 25.1389824,
      "lon": 121.7519864,
      "name": "天一便當店",
      "decorType": "restaurant",
      "decorName": "餐廳",
      "decorIcon": "🍽️"
    },
    {
      "id": "node-6451495485",
      "lat": 25.1370292,
      "lon": 121.7501842,
      "name": "刀削麵店",
      "decorType": "restaurant",
      "decorName": "餐廳",
      "decorIcon": "🍽️"
    },
    {
      "id": "node-6451495486",
      "lat": 25.1371027,
      "lon": 121.7503816,
      "name": "芙蓉聚",
      "decorType": "restaurant",
      "decorName": "餐廳",
      "decorIcon": "🍽️"
    },
    {
      "id": "node-6451495785",
      "lat": 25.1370175,
      "lon": 121.7501491,
      "name": "QQ堡早餐店",
      "decorType": "restaurant",
      "decorName": "餐廳",
      "decorIcon": "🍽️"
    },
    {
      "id": "node-6451508585",
      "lat": 25.1379713,
      "lon": 121.7512872,
      "name": "三沙灣刨冰店",
      "decorType": "restaurant",
      "decorName": "餐廳",
      "decorIcon": "🍽️"
    },
    {
      "id": "node-6451508685",
      "lat": 25.1379164,
      "lon": 121.7511823,
      "name": "吃看看快炒店",
      "decorType": "restaurant",
      "decorName": "餐廳",
      "decorIcon": "🍽️"
    },
    {
      "id": "node-6452360786",
      "lat": 25.1379918,
      "lon": 121.7513445,
      "name": "鍋貼酸辣湯早餐店",
      "decorType": "restaurant",
      "decorName": "餐廳",
      "decorIcon": "🍽️"
    },
    {
      "id": "node-6544724085",
      "lat": 25.1274565,
      "lon": 121.7425405,
      "name": "當豬愛上包刈包專賣店",
      "decorType": "restaurant",
      "decorName": "餐廳",
      "decorIcon": "🍽️"
    },
    {
      "id": "node-6548219371",
      "lat": 25.1377126,
      "lon": 121.7510918,
      "name": "三沙灣麵線羹",
      "decorType": "restaurant",
      "decorName": "餐廳",
      "decorIcon": "🍽️"
    },
    {
      "id": "node-6681670043",
      "lat": 25.1079825,
      "lon": 121.8068735,
      "name": "胖老爹美式炸雞",
      "decorType": "burger",
      "decorName": "漢堡店",
      "decorIcon": "🍔"
    },
    {
      "id": "node-6681670044",
      "lat": 25.1080237,
      "lon": 121.8062229,
      "name": "50嵐",
      "decorType": "cafe",
      "decorName": "咖啡廳",
      "decorIcon": "☕"
    },
    {
      "id": "node-6681670045",
      "lat": 25.1078891,
      "lon": 121.8067992,
      "name": "葵牛岩",
      "decorType": "restaurant",
      "decorName": "餐廳",
      "decorIcon": "🍽️"
    },
    {
      "id": "node-6681670046",
      "lat": 25.1078533,
      "lon": 121.8070487,
      "name": "明生藥局",
      "decorType": "pharmacy",
      "decorName": "藥局",
      "decorIcon": "💊"
    },
    {
      "id": "node-6738102587",
      "lat": 25.1522997,
      "lon": 121.7700852,
      "name": "手工炭烤吉古拉",
      "decorType": "restaurant",
      "decorName": "餐廳",
      "decorIcon": "🍽️"
    },
    {
      "id": "node-6843967630",
      "lat": 25.1568022,
      "lon": 121.6958806,
      "name": "7-Eleven",
      "decorType": "convenience-store",
      "decorName": "便利商店",
      "decorIcon": "🏪"
    },
    {
      "id": "node-6917308889",
      "lat": 25.1363581,
      "lon": 121.7408629,
      "name": "未命名甜點店",
      "decorType": "sweetshop",
      "decorName": "甜點店",
      "decorIcon": "🍩"
    },
    {
      "id": "node-7024826041",
      "lat": 25.1108732,
      "lon": 121.7570575,
      "name": "旅人餐廳",
      "decorType": "restaurant",
      "decorName": "餐廳",
      "decorIcon": "🍽️"
    },
    {
      "id": "node-7056065509",
      "lat": 25.1414944,
      "lon": 121.7917943,
      "name": "早餐店",
      "decorType": "restaurant",
      "decorName": "餐廳",
      "decorIcon": "🍽️"
    },
    {
      "id": "node-7056065523",
      "lat": 25.154847,
      "lon": 121.7672253,
      "name": "臭豆腐",
      "decorType": "restaurant",
      "decorName": "餐廳",
      "decorIcon": "🍽️"
    },
    {
      "id": "node-7056065524",
      "lat": 25.1548361,
      "lon": 121.7678341,
      "name": "家鄉味臭豆腐",
      "decorType": "restaurant",
      "decorName": "餐廳",
      "decorIcon": "🍽️"
    },
    {
      "id": "node-7066563103",
      "lat": 25.2041004,
      "lon": 121.6907336,
      "name": "望海亭活海鮮",
      "decorType": "restaurant",
      "decorName": "餐廳",
      "decorIcon": "🍽️"
    },
    {
      "id": "node-7116117515",
      "lat": 25.1444043,
      "lon": 121.7960154,
      "name": "藻遍海餃",
      "decorType": "restaurant",
      "decorName": "餐廳",
      "decorIcon": "🍽️"
    },
    {
      "id": "node-7132468440",
      "lat": 25.1403866,
      "lon": 121.7967538,
      "name": "未命名餐廳",
      "decorType": "restaurant",
      "decorName": "餐廳",
      "decorIcon": "🍽️"
    },
    {
      "id": "node-7132468443",
      "lat": 25.1408234,
      "lon": 121.7954514,
      "name": "未命名餐廳",
      "decorType": "restaurant",
      "decorName": "餐廳",
      "decorIcon": "🍽️"
    },
    {
      "id": "node-7132468449",
      "lat": 25.1404915,
      "lon": 121.7985326,
      "name": "未命名餐廳",
      "decorType": "restaurant",
      "decorName": "餐廳",
      "decorIcon": "🍽️"
    },
    {
      "id": "node-7144152205",
      "lat": 25.1396714,
      "lon": 121.7965999,
      "name": "清心福全",
      "decorType": "cafe",
      "decorName": "咖啡廳",
      "decorIcon": "☕"
    },
    {
      "id": "node-7144472685",
      "lat": 25.1375923,
      "lon": 121.8001133,
      "name": "北火時光廊",
      "decorType": "art-gallery",
      "decorName": "美術館",
      "decorIcon": "🖼️"
    },
    {
      "id": "node-7144493515",
      "lat": 25.1441596,
      "lon": 121.8001863,
      "name": "八斗子公園入口",
      "decorType": "park",
      "decorName": "公園",
      "decorIcon": "🌳"
    },
    {
      "id": "node-7147690857",
      "lat": 25.1398171,
      "lon": 121.7961851,
      "name": "上等牛肉麵",
      "decorType": "restaurant",
      "decorName": "餐廳",
      "decorIcon": "🍽️"
    },
    {
      "id": "node-7188357777",
      "lat": 25.1404819,
      "lon": 121.7109378,
      "name": "本膳鍋燒麵",
      "decorType": "restaurant",
      "decorName": "餐廳",
      "decorIcon": "🍽️"
    },
    {
      "id": "node-7211419022",
      "lat": 25.09508,
      "lon": 121.7064882,
      "name": "霸味薑母鴨",
      "decorType": "restaurant",
      "decorName": "餐廳",
      "decorIcon": "🍽️"
    },
    {
      "id": "node-7211419025",
      "lat": 25.0981599,
      "lon": 121.7150529,
      "name": "歡樂購特大牛排",
      "decorType": "restaurant",
      "decorName": "餐廳",
      "decorIcon": "🍽️"
    },
    {
      "id": "node-7211419026",
      "lat": 25.0853831,
      "lon": 121.6970629,
      "name": "麵黨",
      "decorType": "restaurant",
      "decorName": "餐廳",
      "decorIcon": "🍽️"
    },
    {
      "id": "node-7211419032",
      "lat": 25.0837478,
      "lon": 121.6962238,
      "name": "蟹老闆10元壽司",
      "decorType": "restaurant",
      "decorName": "餐廳",
      "decorIcon": "🍽️"
    },
    {
      "id": "node-7211419033",
      "lat": 25.082369,
      "lon": 121.6961683,
      "name": "爆漿奶油車輪餅",
      "decorType": "restaurant",
      "decorName": "餐廳",
      "decorIcon": "🍽️"
    },
    {
      "id": "node-7211419035",
      "lat": 25.0851996,
      "lon": 121.6946736,
      "name": "懷恩月子餐",
      "decorType": "restaurant",
      "decorName": "餐廳",
      "decorIcon": "🍽️"
    },
    {
      "id": "node-7211419044",
      "lat": 25.0817769,
      "lon": 121.6964332,
      "name": "鮭魚炒飯",
      "decorType": "restaurant",
      "decorName": "餐廳",
      "decorIcon": "🍽️"
    },
    {
      "id": "node-7211419045",
      "lat": 25.0845703,
      "lon": 121.6987546,
      "name": "韓越異國料理",
      "decorType": "restaurant",
      "decorName": "餐廳",
      "decorIcon": "🍽️"
    },
    {
      "id": "node-7211419048",
      "lat": 25.0985626,
      "lon": 121.7125095,
      "name": "鍋貼大王",
      "decorType": "restaurant",
      "decorName": "餐廳",
      "decorIcon": "🍽️"
    },
    {
      "id": "node-7211419058",
      "lat": 25.0816521,
      "lon": 121.6964079,
      "name": "樂透牛排",
      "decorType": "restaurant",
      "decorName": "餐廳",
      "decorIcon": "🍽️"
    },
    {
      "id": "node-7211419059",
      "lat": 25.0825515,
      "lon": 121.6962866,
      "name": "魯都香 滷味店",
      "decorType": "restaurant",
      "decorName": "餐廳",
      "decorIcon": "🍽️"
    },
    {
      "id": "node-7211419061",
      "lat": 25.0818781,
      "lon": 121.6990579,
      "name": "賜花創義食堂",
      "decorType": "restaurant",
      "decorName": "餐廳",
      "decorIcon": "🍽️"
    },
    {
      "id": "node-7211419069",
      "lat": 25.0817011,
      "lon": 121.698669,
      "name": "郎家牛肉麵",
      "decorType": "restaurant",
      "decorName": "餐廳",
      "decorIcon": "🍽️"
    },
    {
      "id": "node-7211419070",
      "lat": 25.081751,
      "lon": 121.6980722,
      "name": "鳳蓮素食自助餐廳",
      "decorType": "restaurant",
      "decorName": "餐廳",
      "decorIcon": "🍽️"
    },
    {
      "id": "node-7211419073",
      "lat": 25.0821704,
      "lon": 121.6962375,
      "name": "辣媽雞排",
      "decorType": "restaurant",
      "decorName": "餐廳",
      "decorIcon": "🍽️"
    },
    {
      "id": "node-7211419075",
      "lat": 25.082933,
      "lon": 121.6993188,
      "name": "漁壽司",
      "decorType": "restaurant",
      "decorName": "餐廳",
      "decorIcon": "🍽️"
    },
    {
      "id": "node-7211419078",
      "lat": 25.0853241,
      "lon": 121.6957305,
      "name": "滿芙堡漢堡三明治",
      "decorType": "restaurant",
      "decorName": "餐廳",
      "decorIcon": "🍽️"
    },
    {
      "id": "node-7211419084",
      "lat": 25.0853967,
      "lon": 121.6960072,
      "name": "福山麵線",
      "decorType": "restaurant",
      "decorName": "餐廳",
      "decorIcon": "🍽️"
    },
    {
      "id": "node-7211425485",
      "lat": 25.081504,
      "lon": 121.6961285,
      "name": "福二街廣東粥",
      "decorType": "restaurant",
      "decorName": "餐廳",
      "decorIcon": "🍽️"
    },
    {
      "id": "node-7211425490",
      "lat": 25.0920402,
      "lon": 121.700254,
      "name": "瑞麟美而美",
      "decorType": "restaurant",
      "decorName": "餐廳",
      "decorIcon": "🍽️"
    },
    {
      "id": "node-7211425495",
      "lat": 25.0974969,
      "lon": 121.7142028,
      "name": "溫莎堡烘焙坊",
      "decorType": "restaurant",
      "decorName": "餐廳",
      "decorIcon": "🍽️"
    },
    {
      "id": "node-7211425496",
      "lat": 25.083309,
      "lon": 121.6960348,
      "name": "溫州大餛飩/新埔粄條",
      "decorType": "restaurant",
      "decorName": "餐廳",
      "decorIcon": "🍽️"
    },
    {
      "id": "node-7211425498",
      "lat": 25.0987351,
      "lon": 121.7122147,
      "name": "暖暖營養早餐",
      "decorType": "restaurant",
      "decorName": "餐廳",
      "decorIcon": "🍽️"
    },
    {
      "id": "node-7211425499",
      "lat": 25.085088,
      "lon": 121.6945233,
      "name": "新風味生猛活海鮮",
      "decorType": "restaurant",
      "decorName": "餐廳",
      "decorIcon": "🍽️"
    },
    {
      "id": "node-7211425505",
      "lat": 25.0826863,
      "lon": 121.699198,
      "name": "塘老鴨漢堡早餐店",
      "decorType": "restaurant",
      "decorName": "餐廳",
      "decorIcon": "🍽️"
    },
    {
      "id": "node-7211425520",
      "lat": 25.0987781,
      "lon": 121.7127168,
      "name": "超牛牛肉麵",
      "decorType": "restaurant",
      "decorName": "餐廳",
      "decorIcon": "🍽️"
    },
    {
      "id": "node-7211425524",
      "lat": 25.0968659,
      "lon": 121.7150797,
      "name": "萬家鄉早餐店",
      "decorType": "restaurant",
      "decorName": "餐廳",
      "decorIcon": "🍽️"
    },
    {
      "id": "node-7211425527",
      "lat": 25.098536,
      "lon": 121.7125853,
      "name": "無名麵店",
      "decorType": "restaurant",
      "decorName": "餐廳",
      "decorIcon": "🍽️"
    },
    {
      "id": "node-7211425528",
      "lat": 25.081356,
      "lon": 121.6961133,
      "name": "無名麵店",
      "decorType": "restaurant",
      "decorName": "餐廳",
      "decorIcon": "🍽️"
    },
    {
      "id": "node-7211425534",
      "lat": 25.0979217,
      "lon": 121.715105,
      "name": "御冠園湯包",
      "decorType": "restaurant",
      "decorName": "餐廳",
      "decorIcon": "🍽️"
    },
    {
      "id": "node-7211425540",
      "lat": 25.0820206,
      "lon": 121.6962366,
      "name": "喜來登早餐",
      "decorType": "restaurant",
      "decorName": "餐廳",
      "decorIcon": "🍽️"
    },
    {
      "id": "node-7211425541",
      "lat": 25.0989139,
      "lon": 121.7128017,
      "name": "善哉善齋",
      "decorType": "restaurant",
      "decorName": "餐廳",
      "decorIcon": "🍽️"
    },
    {
      "id": "node-7211425547",
      "lat": 25.0902787,
      "lon": 121.7016843,
      "name": "麥味登早餐店",
      "decorType": "restaurant",
      "decorName": "餐廳",
      "decorIcon": "🍽️"
    },
    {
      "id": "node-7211425549",
      "lat": 25.0826346,
      "lon": 121.6952105,
      "name": "麥味登",
      "decorType": "restaurant",
      "decorName": "餐廳",
      "decorIcon": "🍽️"
    },
    {
      "id": "node-7211425550",
      "lat": 25.0840606,
      "lon": 121.6964971,
      "name": "雪花亂舞雪花冰",
      "decorType": "restaurant",
      "decorName": "餐廳",
      "decorIcon": "🍽️"
    },
    {
      "id": "node-7211425561",
      "lat": 25.0827905,
      "lon": 121.6955766,
      "name": "祥鼎餐廳",
      "decorType": "restaurant",
      "decorName": "餐廳",
      "decorIcon": "🍽️"
    },
    {
      "id": "node-7211425566",
      "lat": 25.0907789,
      "lon": 121.7013552,
      "name": "通通泰式風味小吃",
      "decorType": "restaurant",
      "decorName": "餐廳",
      "decorIcon": "🍽️"
    },
    {
      "id": "node-7211425568",
      "lat": 25.0818054,
      "lon": 121.6955268,
      "name": "莊記牛肉麵",
      "decorType": "restaurant",
      "decorName": "餐廳",
      "decorIcon": "🍽️"
    },
    {
      "id": "node-7211425570",
      "lat": 25.0819241,
      "lon": 121.6991633,
      "name": "笑咪咪包子饅頭店",
      "decorType": "restaurant",
      "decorName": "餐廳",
      "decorIcon": "🍽️"
    },
    {
      "id": "node-7211425572",
      "lat": 25.0840022,
      "lon": 121.6965855,
      "name": "烤胖炭烤三明治",
      "decorType": "restaurant",
      "decorName": "餐廳",
      "decorIcon": "🍽️"
    },
    {
      "id": "node-7211425576",
      "lat": 25.081805,
      "lon": 121.6974834,
      "name": "悟饕池上飯包",
      "decorType": "restaurant",
      "decorName": "餐廳",
      "decorIcon": "🍽️"
    },
    {
      "id": "node-7211425582",
      "lat": 25.0845759,
      "lon": 121.6987324,
      "name": "原味真鍋",
      "decorType": "restaurant",
      "decorName": "餐廳",
      "decorIcon": "🍽️"
    },
    {
      "id": "node-7211425584",
      "lat": 25.0842426,
      "lon": 121.6961943,
      "name": "香港威記燒臘",
      "decorType": "restaurant",
      "decorName": "餐廳",
      "decorIcon": "🍽️"
    },
    {
      "id": "node-7211425587",
      "lat": 25.0855307,
      "lon": 121.6964606,
      "name": "胖老爹美式炸雞",
      "decorType": "burger",
      "decorName": "漢堡店",
      "decorIcon": "🍔"
    },
    {
      "id": "node-7211425589",
      "lat": 25.0816925,
      "lon": 121.6950927,
      "name": "美堡寶早餐店",
      "decorType": "restaurant",
      "decorName": "餐廳",
      "decorIcon": "🍽️"
    },
    {
      "id": "node-7211425602",
      "lat": 25.0975055,
      "lon": 121.7144882,
      "name": "洪記手工肉圓",
      "decorType": "restaurant",
      "decorName": "餐廳",
      "decorIcon": "🍽️"
    },
    {
      "id": "node-7211425609",
      "lat": 25.0816252,
      "lon": 121.6963735,
      "name": "恰恰飯麵館",
      "decorType": "restaurant",
      "decorName": "餐廳",
      "decorIcon": "🍽️"
    },
    {
      "id": "node-7211425612",
      "lat": 25.0859299,
      "lon": 121.6983793,
      "name": "封神雞-黑白切白斬雞",
      "decorType": "restaurant",
      "decorName": "餐廳",
      "decorIcon": "🍽️"
    },
    {
      "id": "node-7211425624",
      "lat": 25.0826812,
      "lon": 121.6991644,
      "name": "金饌麵線",
      "decorType": "restaurant",
      "decorName": "餐廳",
      "decorIcon": "🍽️"
    },
    {
      "id": "node-7211425625",
      "lat": 25.0856339,
      "lon": 121.6986034,
      "name": "金熱炒",
      "decorType": "restaurant",
      "decorName": "餐廳",
      "decorIcon": "🍽️"
    },
    {
      "id": "node-7211425629",
      "lat": 25.0854161,
      "lon": 121.6985184,
      "name": "郃嘉烘焙坊",
      "decorType": "restaurant",
      "decorName": "餐廳",
      "decorIcon": "🍽️"
    },
    {
      "id": "node-7211425633",
      "lat": 25.0815864,
      "lon": 121.6953404,
      "name": "河南鍋貼",
      "decorType": "restaurant",
      "decorName": "餐廳",
      "decorIcon": "🍽️"
    },
    {
      "id": "node-7211425634",
      "lat": 25.083317,
      "lon": 121.699234,
      "name": "欣鍋日式涮涮鍋",
      "decorType": "restaurant",
      "decorName": "餐廳",
      "decorIcon": "🍽️"
    },
    {
      "id": "node-7211425647",
      "lat": 25.0836967,
      "lon": 121.6961645,
      "name": "咕咕饞麵線",
      "decorType": "restaurant",
      "decorName": "餐廳",
      "decorIcon": "🍽️"
    },
    {
      "id": "node-7211425649",
      "lat": 25.082771,
      "lon": 121.6963178,
      "name": "和美素食",
      "decorType": "restaurant",
      "decorName": "餐廳",
      "decorIcon": "🍽️"
    },
    {
      "id": "node-7211425651",
      "lat": 25.082202,
      "lon": 121.6950675,
      "name": "呷堡堡早餐店",
      "decorType": "restaurant",
      "decorName": "餐廳",
      "decorIcon": "🍽️"
    },
    {
      "id": "node-7211425657",
      "lat": 25.0842216,
      "lon": 121.6959702,
      "name": "享家鍋物",
      "decorType": "restaurant",
      "decorName": "餐廳",
      "decorIcon": "🍽️"
    },
    {
      "id": "node-7211425665",
      "lat": 25.0848008,
      "lon": 121.6948442,
      "name": "阿香麵店",
      "decorType": "restaurant",
      "decorName": "餐廳",
      "decorIcon": "🍽️"
    },
    {
      "id": "node-7211425666",
      "lat": 25.0817037,
      "lon": 121.6974683,
      "name": "阿秋越南小吃",
      "decorType": "restaurant",
      "decorName": "餐廳",
      "decorIcon": "🍽️"
    },
    {
      "id": "node-7211425669",
      "lat": 25.0843239,
      "lon": 121.695901,
      "name": "阿俊無刺虱目魚",
      "decorType": "restaurant",
      "decorName": "餐廳",
      "decorIcon": "🍽️"
    },
    {
      "id": "node-7211425675",
      "lat": 25.0838076,
      "lon": 121.6960888,
      "name": "阿市麵攤",
      "decorType": "restaurant",
      "decorName": "餐廳",
      "decorIcon": "🍽️"
    },
    {
      "id": "node-7211425680",
      "lat": 25.0849604,
      "lon": 121.6949428,
      "name": "芳鄰熱炒海鮮店",
      "decorType": "restaurant",
      "decorName": "餐廳",
      "decorIcon": "🍽️"
    },
    {
      "id": "node-7211425684",
      "lat": 25.0846738,
      "lon": 121.6986708,
      "name": "吮指王",
      "decorType": "restaurant",
      "decorName": "餐廳",
      "decorIcon": "🍽️"
    },
    {
      "id": "node-7211425686",
      "lat": 25.0828919,
      "lon": 121.6960503,
      "name": "初飽食堂",
      "decorType": "restaurant",
      "decorName": "餐廳",
      "decorIcon": "🍽️"
    },
    {
      "id": "node-7211425687",
      "lat": 25.0827041,
      "lon": 121.6992422,
      "name": "初舍早午餐",
      "decorType": "restaurant",
      "decorName": "餐廳",
      "decorIcon": "🍽️"
    },
    {
      "id": "node-7211425695",
      "lat": 25.0837711,
      "lon": 121.6964743,
      "name": "百福鐵板燒",
      "decorType": "restaurant",
      "decorName": "餐廳",
      "decorIcon": "🍽️"
    },
    {
      "id": "node-7211425696",
      "lat": 25.0817241,
      "lon": 121.6967589,
      "name": "百福臭豆腐",
      "decorType": "restaurant",
      "decorName": "餐廳",
      "decorIcon": "🍽️"
    },
    {
      "id": "node-7211425697",
      "lat": 25.0817173,
      "lon": 121.6984876,
      "name": "百福牛肉麵",
      "decorType": "restaurant",
      "decorName": "餐廳",
      "decorIcon": "🍽️"
    },
    {
      "id": "node-7211425698",
      "lat": 25.0858716,
      "lon": 121.6984101,
      "name": "百福(博)藥膳排骨·當歸土虱",
      "decorType": "restaurant",
      "decorName": "餐廳",
      "decorIcon": "🍽️"
    },
    {
      "id": "node-7211425700",
      "lat": 25.0808928,
      "lon": 121.6962307,
      "name": "早安美芝城",
      "decorType": "restaurant",
      "decorName": "餐廳",
      "decorIcon": "🍽️"
    },
    {
      "id": "node-7211425704",
      "lat": 25.0816745,
      "lon": 121.6962108,
      "name": "好食雞",
      "decorType": "restaurant",
      "decorName": "餐廳",
      "decorIcon": "🍽️"
    },
    {
      "id": "node-7211425706",
      "lat": 25.0856743,
      "lon": 121.6973515,
      "name": "好食光",
      "decorType": "restaurant",
      "decorName": "餐廳",
      "decorIcon": "🍽️"
    },
    {
      "id": "node-7211425709",
      "lat": 25.0826972,
      "lon": 121.6961774,
      "name": "多來家早餐店",
      "decorType": "restaurant",
      "decorName": "餐廳",
      "decorIcon": "🍽️"
    },
    {
      "id": "node-7211425711",
      "lat": 25.082056,
      "lon": 121.6958141,
      "name": "回鄉麵家",
      "decorType": "restaurant",
      "decorName": "餐廳",
      "decorIcon": "🍽️"
    },
    {
      "id": "node-7211425713",
      "lat": 25.095036,
      "lon": 121.7060269,
      "name": "全家福海鮮餐廳",
      "decorType": "restaurant",
      "decorName": "餐廳",
      "decorIcon": "🍽️"
    },
    {
      "id": "node-7211425714",
      "lat": 25.081825,
      "lon": 121.6952517,
      "name": "全家便當",
      "decorType": "restaurant",
      "decorName": "餐廳",
      "decorIcon": "🍽️"
    },
    {
      "id": "node-7211425722",
      "lat": 25.0823356,
      "lon": 121.6950265,
      "name": "玉米粉湯&台南溫體牛",
      "decorType": "restaurant",
      "decorName": "餐廳",
      "decorIcon": "🍽️"
    },
    {
      "id": "node-7211425723",
      "lat": 25.0990125,
      "lon": 121.7129856,
      "name": "永富鹹酥雞",
      "decorType": "restaurant",
      "decorName": "餐廳",
      "decorIcon": "🍽️"
    },
    {
      "id": "node-7211425731",
      "lat": 25.0855892,
      "lon": 121.698506,
      "name": "巧沛東方美",
      "decorType": "restaurant",
      "decorName": "餐廳",
      "decorIcon": "🍽️"
    },
    {
      "id": "node-7211425732",
      "lat": 25.0817883,
      "lon": 121.6942559,
      "name": "巧沛東方美",
      "decorType": "restaurant",
      "decorName": "餐廳",
      "decorIcon": "🍽️"
    },
    {
      "id": "node-7211425736",
      "lat": 25.0856942,
      "lon": 121.697478,
      "name": "四千金早午餐",
      "decorType": "restaurant",
      "decorName": "餐廳",
      "decorIcon": "🍽️"
    },
    {
      "id": "node-7211425739",
      "lat": 25.0837722,
      "lon": 121.6967797,
      "name": "古早味熱炒小吃",
      "decorType": "restaurant",
      "decorName": "餐廳",
      "decorIcon": "🍽️"
    },
    {
      "id": "node-7211425740",
      "lat": 25.0842611,
      "lon": 121.6947989,
      "name": "古早味粿仔湯",
      "decorType": "restaurant",
      "decorName": "餐廳",
      "decorIcon": "🍽️"
    },
    {
      "id": "node-7211425743",
      "lat": 25.0806749,
      "lon": 121.6962385,
      "name": "加寶多早餐店",
      "decorType": "restaurant",
      "decorName": "餐廳",
      "decorIcon": "🍽️"
    },