{"bbox":{"south":24.4125,"north":24.634375,"west":120.7875,"east":120.91875},"pois":[{"id":"node-10018735970","lat":24.4726988,"lon":120.8041105,"name":"福德祠","decorType":"shrine"},{"id":"node-10026992624","lat":24.6196584,"lon":120.8341694,"name":"豐湖福德正神","decorType":"shrine"},{"id":"node-10026992631","lat":24.6258552,"lon":120.8324932,"name":"苗栗開基玉上寺","decorType":"shrine"},{"id":"node-10033100882","lat":24.5783077,"lon":120.8242768,"name":"南門彌陀寺","decorType":"shrine"},{"id":"node-10060446665","lat":24.4420914,"lon":120.8733067,"name":"Route3 三號公路","decorType":"restaurant"},{"id":"node-10110791332","lat":24.5894032,"lon":120.9117187,"name":"永春宮客家文物館","decorType":"art_gallery"},{"id":"node-10138860468","lat":24.5580477,"lon":120.8167407,"name":"無油無慮低Gi便當-苗栗苗中店","decorType":"restaurant"},{"id":"node-10180478517","lat":24.5778591,"lon":120.914536,"name":"水塞下山","decorType":"mountain"},{"id":"node-10252811163","lat":24.5536021,"lon":120.8187668,"name":"榕樹福德詞","decorType":"shrine"},{"id":"node-10287647488","lat":24.6284357,"lon":120.789678,"name":"未命名神社","decorType":"shrine"},{"id":"node-10287647489","lat":24.6279438,"lon":120.7907285,"name":"八中廟","decorType":"shrine"},{"id":"node-10287647490","lat":24.6242188,"lon":120.7957088,"name":"未命名神社","decorType":"shrine"},{"id":"node-10287647491","lat":24.6255216,"lon":120.7960688,"name":"賜德廟","decorType":"shrine"},{"id":"node-10287647498","lat":24.6327529,"lon":120.7977446,"name":"福德宮","decorType":"shrine"},{"id":"node-10287647502","lat":24.5856145,"lon":120.8299543,"name":"未命名神社","decorType":"shrine"},{"id":"node-10293308835","lat":24.6184025,"lon":120.7925791,"name":"未命名神社","decorType":"shrine"},{"id":"node-10293308836","lat":24.6252192,"lon":120.8039442,"name":"未命名神社","decorType":"shrine"},{"id":"node-10293308837","lat":24.6236238,"lon":120.8041554,"name":"未命名神社","decorType":"shrine"},{"id":"node-10293308842","lat":24.6225007,"lon":120.8092096,"name":"未命名神社","decorType":"shrine"},{"id":"node-10293308854","lat":24.6225934,"lon":120.8147429,"name":"未命名神社","decorType":"shrine"},{"id":"node-10293308856","lat":24.6259142,"lon":120.8059077,"name":"未命名神社","decorType":"shrine"},{"id":"node-10293308857","lat":24.6329664,"lon":120.8072097,"name":"未命名神社","decorType":"shrine"},{"id":"node-10293308858","lat":24.6329861,"lon":120.8058412,"name":"未命名神社","decorType":"shrine"},{"id":"node-10293308876","lat":24.6326439,"lon":120.8103421,"name":"福德祠","decorType":"shrine"},{"id":"node-10293308877","lat":24.6336431,"lon":120.811856,"name":"未命名神社","decorType":"shrine"},{"id":"node-10293308878","lat":24.6335703,"lon":120.8144136,"name":"福德宮","decorType":"shrine"},{"id":"node-10296206371","lat":24.6340824,"lon":120.8154682,"name":"未命名神社","decorType":"shrine"},{"id":"node-10296439837","lat":24.6250799,"lon":120.811767,"name":"羊寮山","decorType":"mountain"},{"id":"node-10296439838","lat":24.6269901,"lon":120.809486,"name":"未命名山丘","decorType":"mountain"},{"id":"node-10312933556","lat":24.5451988,"lon":120.834936,"name":"福德祠","decorType":"shrine"},{"id":"node-10586259303","lat":24.5755362,"lon":120.8530802,"name":"7-Eleven","decorType":"convenience"},{"id":"node-10586259304","lat":24.5741678,"lon":120.8486813,"name":"吃香喝辣牛肉麵","decorType":"restaurant"},{"id":"node-10593251371","lat":24.5277717,"lon":120.8193353,"name":"康董一品牛肉麵","decorType":"restaurant"},{"id":"node-10593251372","lat":24.5277168,"lon":120.8193581,"name":"清心福全","decorType":"cafe"},{"id":"node-10698222497","lat":24.5038161,"lon":120.878858,"name":"新田山","decorType":"mountain"},{"id":"node-10698253465","lat":24.5158151,"lon":120.8858372,"name":"銃庫山(高點峰)","decorType":"mountain"},{"id":"node-10706772947","lat":24.5255361,"lon":120.911989,"name":"福興山","decorType":"mountain"},{"id":"node-10715716904","lat":24.4561739,"lon":120.8534458,"name":"廢棄纜車機房","decorType":"station"},{"id":"node-10744701365","lat":24.5536262,"lon":120.8002053,"name":"福德祠","decorType":"shrine"},{"id":"node-10744701390","lat":24.5551491,"lon":120.7959877,"name":"福德祠","decorType":"shrine"},{"id":"node-10744704260","lat":24.56024,"lon":120.7970692,"name":"福德正神","decorType":"shrine"},{"id":"node-10744704288","lat":24.5638957,"lon":120.8015422,"name":"羊寮坑福德祠","decorType":"shrine"},{"id":"node-10748366134","lat":24.5821414,"lon":120.8236406,"name":"未命名神社","decorType":"shrine"},{"id":"node-10748406963","lat":24.5593725,"lon":120.8062851,"name":"吉祥福德祠","decorType":"shrine"},{"id":"node-10759070760","lat":24.5660314,"lon":120.8285954,"name":"玉霖宮","decorType":"shrine"},{"id":"node-10766357597","lat":24.589225,"lon":120.7922586,"name":"福德祠","decorType":"shrine"},{"id":"node-10777379280","lat":24.5719731,"lon":120.8323523,"name":"福德祠","decorType":"shrine"},{"id":"node-10779130945","lat":24.6323181,"lon":120.8225367,"name":"福德祠","decorType":"shrine"},{"id":"node-10783331436","lat":24.5877822,"lon":120.8313239,"name":"苗邑天威堂","decorType":"shrine"},{"id":"node-10826777155","lat":24.5646392,"lon":120.8092637,"name":"未命名神社","decorType":"shrine"},{"id":"node-10826777182","lat":24.5626334,"lon":120.8100381,"name":"鳳形伯公","decorType":"shrine"},{"id":"node-10826777195","lat":24.5632846,"lon":120.8083692,"name":"文麗福德祠","decorType":"shrine"},{"id":"node-10832126216","lat":24.5569006,"lon":120.8111409,"name":"菩提圖書館","decorType":"library"},{"id":"node-10833540129","lat":24.5811442,"lon":120.8178894,"name":"未命名神社","decorType":"shrine"},{"id":"node-10833540146","lat":24.5758048,"lon":120.8203831,"name":"聖慈宮","decorType":"shrine"},{"id":"node-10833876614","lat":24.6016308,"lon":120.8109434,"name":"水流娘娘","decorType":"shrine"},{"id":"node-10915613104","lat":24.6052624,"lon":120.8294748,"name":"未命名神社","decorType":"shrine"},{"id":"node-10968432399","lat":24.5704621,"lon":120.790474,"name":"下南勢坑山","decorType":"mountain"},{"id":"node-11013582097","lat":24.4860697,"lon":120.7899798,"name":"7-Eleven","decorType":"convenience"},{"id":"node-11067371679","lat":24.5258684,"lon":120.8363485,"name":"六沐森","decorType":"hotel"},{"id":"node-11070926879","lat":24.4864785,"lon":120.8220604,"name":"苗栗桐馨莊園民宿","decorType":"hotel"},{"id":"node-11078420059","lat":24.4306977,"lon":120.8086952,"name":"天佑宮","decorType":"shrine"},{"id":"node-11082229325","lat":24.5616336,"lon":120.8194791,"name":"美廉社","decorType":"supermarket"},{"id":"node-11099395983","lat":24.5276589,"lon":120.8184639,"name":"福德祠","decorType":"shrine"},{"id":"node-11099441571","lat":24.5678054,"lon":120.8248064,"name":"紫玄宮","decorType":"shrine"},{"id":"node-11187867854","lat":24.5803219,"lon":120.8603099,"name":"象山傳家堡福德祠","decorType":"shrine"},{"id":"node-11197356329","lat":24.5607465,"lon":120.8332947,"name":"福德祠(五張犁伯公)","decorType":"shrine"},{"id":"node-11230546970","lat":24.5637932,"lon":120.8443995,"name":"天賜堂","decorType":"shrine"},{"id":"node-11347588942","lat":24.6037861,"lon":120.845524,"name":"未命名山丘","decorType":"mountain"},{"id":"node-11373812792","lat":24.5724081,"lon":120.863423,"name":"合成庄福德祠","decorType":"shrine"},{"id":"node-11373812800","lat":24.5565989,"lon":120.8162453,"name":"福德祠","decorType":"shrine"},{"id":"node-11373812805","lat":24.556505,"lon":120.8169706,"name":"福德正神","decorType":"shrine"},{"id":"node-11397099446","lat":24.5824492,"lon":120.808819,"name":"營頭頂","decorType":"mountain"},{"id":"node-11711058014","lat":24.5017298,"lon":120.8351786,"name":"下大坑福德祠","decorType":"shrine"},{"id":"node-11757025436","lat":24.6024937,"lon":120.8034561,"name":"未命名神社","decorType":"shrine"},{"id":"node-11757025440","lat":24.5187044,"lon":120.7892167,"name":"未命名神社","decorType":"shrine"},{"id":"node-11761377073","lat":24.5907344,"lon":120.895258,"name":"未命名神社","decorType":"shrine"},{"id":"node-11932117348","lat":24.5676975,"lon":120.8472341,"name":"未命名神社","decorType":"shrine"},{"id":"node-11959281698","lat":24.4237061,"lon":120.8202911,"name":"鯉魚石下山","decorType":"mountain"},{"id":"node-11959281699","lat":24.4404111,"lon":120.801379,"name":"碑頭坑山","decorType":"mountain"},{"id":"node-11964933431","lat":24.4591352,"lon":120.904932,"name":"未命名山丘","decorType":"mountain"},{"id":"node-11964933432","lat":24.4506531,"lon":120.8916091,"name":"未命名山丘","decorType":"mountain"},{"id":"node-11964933433","lat":24.4570442,"lon":120.896013,"name":"未命名山丘","decorType":"mountain"},{"id":"node-11964933434","lat":24.4535652,"lon":120.883552,"name":"未命名山丘","decorType":"mountain"},{"id":"node-11964933437","lat":24.5120401,"lon":120.885917,"name":"未命名山丘","decorType":"mountain"},{"id":"node-11964933447","lat":24.5034181,"lon":120.9033411,"name":"未命名山丘","decorType":"mountain"},{"id":"node-11964933448","lat":24.5074591,"lon":120.9081641,"name":"未命名山丘","decorType":"mountain"},{"id":"node-11964933449","lat":24.5055511,"lon":120.907552,"name":"未命名山丘","decorType":"mountain"},{"id":"node-12016125967","lat":24.502003,"lon":120.8430935,"name":"大坑山","decorType":"mountain"},{"id":"node-12016137836","lat":24.5204833,"lon":120.8879965,"name":"沖庫山","decorType":"mountain"},{"id":"node-12095594328","lat":24.5882068,"lon":120.8106585,"name":"福德祠","decorType":"shrine"},{"id":"node-12271081026","lat":24.5601367,"lon":120.8196896,"name":"府前福德正神","decorType":"shrine"},{"id":"node-12308528840","lat":24.617868,"lon":120.7888293,"name":"運勝公","decorType":"shrine"},{"id":"node-12336881238","lat":24.5313624,"lon":120.8313181,"name":"美廉社","decorType":"supermarket"},{"id":"node-12345970867","lat":24.4915654,"lon":120.7886277,"name":"臺灣基督長老教會 銅鑼教會","decorType":"shrine"},{"id":"node-12345970868","lat":24.4895622,"lon":120.7890326,"name":"銅鑼鄉召會","decorType":"shrine"},{"id":"node-12345970869","lat":24.493962,"lon":120.7886425,"name":"天爵寺(觀音宮)","decorType":"shrine"},{"id":"node-12345970870","lat":24.4919732,"lon":120.7900714,"name":"銅鑼五福廟","decorType":"shrine"},{"id":"node-12780038501","lat":24.5696961,"lon":120.8240278,"name":"新興大旅社","decorType":"hotel"},{"id":"node-12816737208","lat":24.5588862,"lon":120.816576,"name":"國立苗中","decorType":"bus_stop"},{"id":"node-12877013645","lat":24.5315644,"lon":120.8318333,"name":"公館鶴岡郵局","decorType":"post_office"},{"id":"node-12877013696","lat":24.6227325,"lon":120.8908778,"name":"造橋大西郵局","decorType":"post_office"},{"id":"node-13130643624","lat":24.6215566,"lon":120.8912909,"name":"全家便利商店","decorType":"convenience"},{"id":"node-13149242972","lat":24.5605012,"lon":120.814689,"name":"建台國中警衛室","decorType":"park"},{"id":"node-13253681892","lat":24.5527669,"lon":120.8170688,"name":"庫魯咖啡烘焙","decorType":"cafe"},{"id":"node-13290854998","lat":24.4793008,"lon":120.8299452,"name":"萊爾富","decorType":"convenience"},{"id":"node-13305948020","lat":24.5857715,"lon":120.8807512,"name":"福德祠","decorType":"shrine"},{"id":"node-13339910605","lat":24.5725322,"lon":120.8126017,"name":"樹爺","decorType":"shrine"},{"id":"node-13339910606","lat":24.5735916,"lon":120.8353207,"name":"台灣基督長老教會山城教會","decorType":"shrine"},{"id":"node-13339910607","lat":24.554174,"lon":120.841586,"name":"福德祠","decorType":"shrine"},{"id":"node-13339910608","lat":24.5241001,"lon":120.8286215,"name":"公館本境伯公","decorType":"shrine"},{"id":"node-13339910609","lat":24.4676646,"lon":120.8493814,"name":"坑口石板福德祠","decorType":"shrine"},{"id":"node-13339910610","lat":24.4776508,"lon":120.8554297,"name":"坑尾福德祠","decorType":"shrine"},{"id":"node-13339910611","lat":24.4905644,"lon":120.8224346,"name":"朴仔樹下福德祠","decorType":"shrine"},{"id":"node-13339910612","lat":24.4909224,"lon":120.8238679,"name":"未命名神社","decorType":"shrine"},{"id":"node-13339910613","lat":24.4948125,"lon":120.8223328,"name":"小圍牆福德祠","decorType":"shrine"},{"id":"node-13339910615","lat":24.5349756,"lon":120.860226,"name":"福德祠","decorType":"shrine"},{"id":"node-13339910616","lat":24.5567698,"lon":120.8034705,"name":"未命名神社","decorType":"shrine"},{"id":"node-13339910617","lat":24.5636002,"lon":120.7996372,"name":"未命名神社","decorType":"shrine"},{"id":"node-13339910618","lat":24.5824895,"lon":120.8804531,"name":"福德祠","decorType":"shrine"},{"id":"node-13339910619","lat":24.5807032,"lon":120.8868378,"name":"未命名神社","decorType":"shrine"},{"id":"node-13339910620","lat":24.5832564,"lon":120.8939293,"name":"太平福德祠","decorType":"shrine"},{"id":"node-13339910621","lat":24.5580988,"lon":120.8537411,"name":"未命名神社","decorType":"shrine"},{"id":"node-13339910622","lat":24.5477055,"lon":120.871663,"name":"未命名神社","decorType":"shrine"},{"id":"node-13339910623","lat":24.5481936,"lon":120.8675472,"name":"未命名神社","decorType":"shrine"},{"id":"node-13340396931","lat":24.513725,"lon":120.8055658,"name":"未命名神社","decorType":"shrine"},{"id":"node-13340396932","lat":24.5211269,"lon":120.8393133,"name":"久靈祠","decorType":"shrine"},{"id":"node-13340396933","lat":24.4943688,"lon":120.8422956,"name":"大坑村瓦窯福德祠","decorType":"shrine"},{"id":"node-13340396934","lat":24.4975957,"lon":120.8390324,"name":"大坑村內橫崗橋頭福德祠","decorType":"shrine"},{"id":"node-13340396935","lat":24.508129,"lon":120.8342883,"name":"田心福德祠","decorType":"shrine"},{"id":"node-13340396936","lat":24.507664,"lon":120.8309741,"name":"福德祠","decorType":"shrine"},{"id":"node-13340396937","lat":24.5082755,"lon":120.8307295,"name":"路東福德祠","decorType":"shrine"},{"id":"node-13340396938","lat":24.578139,"lon":120.8797418,"name":"聯合福神廟","decorType":"shrine"},{"id":"node-13340396939","lat":24.52001,"lon":120.8081309,"name":"未命名神社","decorType":"shrine"},{"id":"node-13340396940","lat":24.5171206,"lon":120.8074369,"name":"福德祠","decorType":"shrine"},{"id":"node-1741147816","lat":24.5226332,"lon":120.7914276,"name":"南勢","decorType":"station"},{"id":"node-1948085765","lat":24.5371846,"lon":120.9182861,"name":"全家便利商店","decorType":"convenience"},{"id":"node-1948085843","lat":24.538938,"lon":120.8855573,"name":"福德祠","decorType":"shrine"},{"id":"node-1948086342","lat":24.5859456,"lon":120.8874786,"name":"明湖水漾會館","decorType":"hotel"},{"id":"node-1948086719","lat":24.5921177,"lon":120.8928296,"name":"明永堂","decorType":"shrine"},{"id":"node-1962555695","lat":24.4127047,"lon":120.7886651,"name":"未命名神社","decorType":"shrine"},{"id":"node-2009106293","lat":24.5022537,"lon":120.8266742,"name":"未命名神社","decorType":"shrine"},{"id":"node-2028866713","lat":24.4915486,"lon":120.809854,"name":"未命名神社","decorType":"shrine"},{"id":"node-2141961685","lat":24.5830272,"lon":120.8503452,"name":"水尾伯公廟（土地公）","decorType":"shrine"},{"id":"node-2476563250","lat":24.6260478,"lon":120.814981,"name":"聖皇宮","decorType":"shrine"},{"id":"node-2482533047","lat":24.5558111,"lon":120.846273,"name":"墨硯山南峰","decorType":"mountain"},{"id":"node-2482534041","lat":24.4342441,"lon":120.9094411,"name":"鷂婆山","decorType":"mountain"},{"id":"node-2482543244","lat":24.4875841,"lon":120.8729869,"name":"八角崠山","decorType":"mountain"},{"id":"node-2482604437","lat":24.5590778,"lon":120.9144946,"name":"蕃子寮山","decorType":"mountain"},{"id":"node-2482604865","lat":24.6313551,"lon":120.903584,"name":"上果作園山","decorType":"mountain"},{"id":"node-2482605324","lat":24.6300311,"lon":120.8484631,"name":"石頂山","decorType":"mountain"},{"id":"node-2482606051","lat":24.5086061,"lon":120.788648,"name":"大薰山","decorType":"mountain"},{"id":"node-2482606199","lat":24.4683321,"lon":120.7952711,"name":"員屯山","decorType":"mountain"},{"id":"node-2482625407","lat":24.546941,"lon":120.861917,"name":"友應山","decorType":"mountain"},{"id":"node-2482636632","lat":24.6290811,"lon":120.832478,"name":"登校血","decorType":"mountain"},{"id":"node-2482637240","lat":24.4169341,"lon":120.872462,"name":"四寮坪山","decorType":"mountain"},{"id":"node-2482637383","lat":24.4486451,"lon":120.823265,"name":"社寮坑山","decorType":"mountain"},{"id":"node-2482637433","lat":24.4601421,"lon":120.8275011,"name":"油房坑山","decorType":"mountain"},{"id":"node-2482638057","lat":24.621521,"lon":120.9185331,"name":"外大坪","decorType":"mountain"},{"id":"node-2482638101","lat":24.6236954,"lon":120.8563565,"name":"加東山","decorType":"mountain"},{"id":"node-2482638102","lat":24.6153781,"lon":120.907362,"name":"三百六坑山","decorType":"mountain"},{"id":"node-2482638106","lat":24.5998671,"lon":120.8947961,"name":"茄苳坑山","decorType":"mountain"},{"id":"node-2482638116","lat":24.5873391,"lon":120.8644751,"name":"北坑","decorType":"mountain"},{"id":"node-2482638118","lat":24.567234,"lon":120.8673251,"name":"片山","decorType":"mountain"},{"id":"node-2482638119","lat":24.5787219,"lon":120.8788673,"name":"天山","decorType":"mountain"},{"id":"node-2482638121","lat":24.5858391,"lon":120.9024651,"name":"箭竹凸山","decorType":"mountain"},{"id":"node-2482638122","lat":24.5701198,"lon":120.8952574,"name":"好樹山","decorType":"mountain"},{"id":"node-2482638123","lat":24.5316121,"lon":120.850024,"name":"棉子埔山","decorType":"mountain"},{"id":"node-2482638308","lat":24.561687,"lon":120.8065275,"name":"將軍山","decorType":"mountain"},{"id":"node-2482640892","lat":24.414207,"lon":120.8329649,"name":"黃麻園山","decorType":"mountain"},{"id":"node-2482643438","lat":24.5128591,"lon":120.8630609,"name":"山羊凸山","decorType":"mountain"},{"id":"node-2482643768","lat":24.4364842,"lon":120.7898369,"name":"三角山北峰","decorType":"mountain"},{"id":"node-2482643769","lat":24.4468211,"lon":120.865889,"name":"玉女山","decorType":"mountain"},{"id":"node-2482643770","lat":24.4367061,"lon":120.8964921,"name":"砲石山","decorType":"mountain"},{"id":"node-2482643773","lat":24.4775801,"lon":120.8604959,"name":"打鹿坑山","decorType":"mountain"},{"id":"node-2482643774","lat":24.474688,"lon":120.876789,"name":"東坑山南峰","decorType":"mountain"},{"id":"node-2482643775","lat":24.5019821,"lon":120.8804439,"name":"新石門山","decorType":"mountain"},{"id":"node-2482643776","lat":24.4769761,"lon":120.9069619,"name":"十一分山北峰","decorType":"mountain"},{"id":"node-2482643833","lat":24.5185931,"lon":120.8974741,"name":"和興山","decorType":"mountain"},{"id":"node-2482644040","lat":24.5311511,"lon":120.915427,"name":"錫隘山","decorType":"mountain"},{"id":"node-2482644041","lat":24.5065051,"lon":120.905289,"name":"湖塘山","decorType":"mountain"},{"id":"node-2482644042","lat":24.4822991,"lon":120.891736,"name":"八角林山","decorType":"mountain"},{"id":"node-2484717956","lat":24.5959152,"lon":120.7942893,"name":"無極聖宮","decorType":"shrine"},{"id":"node-2490521737","lat":24.44675,"lon":120.7920333,"name":"雙峰山","decorType":"mountain"},{"id":"node-2539230908","lat":24.5865576,"lon":120.8967055,"name":"薰衣草森林(明德店)","decorType":"restaurant"},{"id":"node-2553247500","lat":24.4986805,"lon":120.8050167,"name":"五穀宮","decorType":"shrine"},{"id":"node-2642212734","lat":24.4198133,"lon":120.8646538,"name":"龜山","decorType":"mountain"},{"id":"node-2647661663","lat":24.496358,"lon":120.8772936,"name":"協雲宮","decorType":"shrine"},{"id":"node-2647711647","lat":24.5648321,"lon":120.8266144,"name":"玉清宮","decorType":"shrine"},{"id":"node-2686162581","lat":24.5490728,"lon":120.9035203,"name":"雲洞宮","decorType":"shrine"},{"id":"node-2686164404","lat":24.5741413,"lon":120.8495103,"name":"全家便利商店","decorType":"convenience"},{"id":"node-2752224693","lat":24.5895393,"lon":120.9117285,"name":"永春宮","decorType":"shrine"},{"id":"node-2752224695","lat":24.5906885,"lon":120.8882558,"name":"法明寺","decorType":"shrine"},{"id":"node-2753427150","lat":24.5884678,"lon":120.8900019,"name":"水榭樓台","decorType":"restaurant"},{"id":"node-2843248399","lat":24.4564151,"lon":120.87116,"name":"金童山","decorType":"mountain"},{"id":"node-2843250445","lat":24.4588621,"lon":120.8720399,"name":"汶水山","decorType":"mountain"},{"id":"node-2881830802","lat":24.551174,"lon":120.82109,"name":"清心福全","decorType":"cafe"},{"id":"node-2881830810","lat":24.5635749,"lon":120.8276675,"name":"全家便利商店","decorType":"convenience"},{"id":"node-2881831235","lat":24.568248,"lon":120.82504,"name":"未命名餐廳","decorType":"restaurant"},{"id":"node-2881831236","lat":24.568687,"lon":120.82521,"name":"未命名餐廳","decorType":"restaurant"},{"id":"node-2881831237","lat":24.570245,"lon":120.82515,"name":"傳香飯糰","decorType":"restaurant"},{"id":"node-2881831238","lat":24.5703805,"lon":120.8252436,"name":"未命名超市","decorType":"supermarket"},{"id":"node-290976531","lat":24.5692318,"lon":120.8222649,"name":"苗栗","decorType":"station"},{"id":"node-2910438202","lat":24.546423,"lon":120.81625,"name":"全家便利商店","decorType":"convenience"},{"id":"node-2910438203","lat":24.551104,"lon":120.82117,"name":"全家便利商店","decorType":"convenience"},{"id":"node-2910438516","lat":24.548525,"lon":120.8163,"name":"7-Eleven","decorType":"convenience"},{"id":"node-2910438517","lat":24.5507091,"lon":120.822968,"name":"7-Eleven","decorType":"convenience"},{"id":"node-2910438518","lat":24.5515574,"lon":120.8160692,"name":"7-Eleven","decorType":"convenience"},{"id":"node-2956940750","lat":24.4228128,"lon":120.8660139,"name":"鄉公所前","decorType":"bus_stop"},{"id":"node-2956962736","lat":24.4227675,"lon":120.8661103,"name":"7-Eleven","decorType":"convenience"},{"id":"node-2956964860","lat":24.4284504,"lon":120.8676409,"name":"萊爾富","decorType":"convenience"},{"id":"node-3235745528","lat":24.5319697,"lon":120.8172752,"name":"7-Eleven","decorType":"convenience"},{"id":"node-3302237290","lat":24.4923116,"lon":120.7888627,"name":"全家便利商店","decorType":"convenience"},{"id":"node-3302237292","lat":24.4944152,"lon":120.8014301,"name":"7-Eleven","decorType":"convenience"},{"id":"node-3302237310","lat":24.5032643,"lon":120.8239548,"name":"7-Eleven","decorType":"convenience"},{"id":"node-3303466718","lat":24.5206169,"lon":120.8212917,"name":"7-Eleven","decorType":"convenience"},{"id":"node-3303466721","lat":24.5748734,"lon":120.8510539,"name":"7-Eleven","decorType":"convenience"},{"id":"node-3303466745","lat":24.6058365,"lon":120.8313073,"name":"7-Eleven","decorType":"convenience"},{"id":"node-3303466752","lat":24.6227429,"lon":120.8910579,"name":"7-Eleven","decorType":"convenience"},{"id":"node-3303496999","lat":24.6165093,"lon":120.7917215,"name":"7-Eleven","decorType":"convenience"},{"id":"node-3303577753","lat":24.4895248,"lon":120.7877484,"name":"OK-Mart","decorType":"convenience"},{"id":"node-3303577754","lat":24.5397261,"lon":120.8178189,"name":"OK超商","decorType":"convenience"},{"id":"node-3303577755","lat":24.555192,"lon":120.8257979,"name":"OK超商","decorType":"convenience"},{"id":"node-3303577756","lat":24.5562893,"lon":120.8187943,"name":"OK超商","decorType":"convenience"},{"id":"node-3303577757","lat":24.5595113,"lon":120.8257347,"name":"未命名便利商店","decorType":"convenience"},{"id":"node-3303577760","lat":24.5695348,"lon":120.8229005,"name":"OK超商","decorType":"convenience"},{"id":"node-3305124420","lat":24.5033713,"lon":120.8274569,"name":"萊爾富","decorType":"convenience"},{"id":"node-3305124421","lat":24.5206978,"lon":120.8216329,"name":"萊爾富","decorType":"convenience"},{"id":"node-3305124422","lat":24.5287605,"lon":120.8185581,"name":"萊爾富","decorType":"convenience"},{"id":"node-3305124423","lat":24.6125291,"lon":120.7939865,"name":"萊爾富","decorType":"convenience"},{"id":"node-3305124424","lat":24.6108936,"lon":120.7964077,"name":"萊爾富","decorType":"convenience"},{"id":"node-3305126549","lat":24.446785,"lon":120.9045366,"name":"萊爾富","decorType":"convenience"},{"id":"node-3305126554","lat":24.542878,"lon":120.8166946,"name":"萊爾富","decorType":"convenience"},{"id":"node-3305126555","lat":24.5554736,"lon":120.8163409,"name":"萊爾富","decorType":"convenience"},{"id":"node-3305126556","lat":24.5528905,"lon":120.8175393,"name":"萊爾富","decorType":"convenience"},{"id":"node-3305126557","lat":24.5598026,"lon":120.817869,"name":"萊爾富","decorType":"convenience"},{"id":"node-3305126558","lat":24.565516,"lon":120.8112447,"name":"萊爾富","decorType":"convenience"},{"id":"node-3305126559","lat":24.5698895,"lon":120.8235156,"name":"萊爾富","decorType":"convenience"},{"id":"node-3305126560","lat":24.5722684,"lon":120.8147763,"name":"萊爾富","decorType":"convenience"},{"id":"node-3305127161","lat":24.5754226,"lon":120.8250691,"name":"萊爾富","decorType":"convenience"},{"id":"node-3311149191","lat":24.51947,"lon":120.8217461,"name":"全家便利商店","decorType":"convenience"},{"id":"node-3311154351","lat":24.566499,"lon":120.8099017,"name":"全家便利商店","decorType":"convenience"},{"id":"node-3311154352","lat":24.5639883,"lon":120.8162187,"name":"全家便利商店","decorType":"convenience"},{"id":"node-3311154353","lat":24.5661912,"lon":120.8182979,"name":"全家便利商店","decorType":"convenience"},{"id":"node-3311154354","lat":24.5591535,"lon":120.8202806,"name":"全家便利商店","decorType":"convenience"},{"id":"node-3311154355","lat":24.5608106,"lon":120.8225312,"name":"全家便利商店","decorType":"convenience"},{"id":"node-3311154356","lat":24.5692971,"lon":120.8208368,"name":"全家便利商店","decorType":"convenience"},{"id":"node-3311154357","lat":24.574047,"lon":120.8303982,"name":"未命名便利商店","decorType":"convenience"},{"id":"node-3311154359","lat":24.5867567,"lon":120.8249449,"name":"全家便利商店","decorType":"convenience"},{"id":"node-3315903822","lat":24.4884446,"lon":120.9007732,"name":"玉虛宮","decorType":"shrine"},{"id":"node-3341415283","lat":24.5869313,"lon":120.8823197,"name":"明德","decorType":"bus_stop"},{"id":"node-3341415284","lat":24.5866694,"lon":120.8820719,"name":"明德","decorType":"bus_stop"},{"id":"node-3461643808","lat":24.4257177,"lon":120.869032,"name":"自由聯盟生鮮超市","decorType":"supermarket"},{"id":"node-3479105083","lat":24.4277333,"lon":120.8670167,"name":"麗味客家菜","decorType":"restaurant"},{"id":"node-3513757600","lat":24.6135485,"lon":120.7967391,"name":"大庄和興宮","decorType":"shrine"},{"id":"node-3513764146","lat":24.6144397,"lon":120.7937601,"name":"全聯福利中心","decorType":"supermarket"},{"id":"node-3513764147","lat":24.6141786,"lon":120.7944347,"name":"7-Eleven","decorType":"convenience"},{"id":"node-3513764148","lat":24.6163162,"lon":120.7925926,"name":"巧鄰生鮮超市","decorType":"supermarket"},{"id":"node-3513764149","lat":24.6164204,"lon":120.7922021,"name":"佑全保健藥妝","decorType":"pharmacy"},{"id":"node-3513764154","lat":24.6142343,"lon":120.7941509,"name":"怡珍喜餅","decorType":"bakery"},{"id":"node-3513868449","lat":24.6134488,"lon":120.7918765,"name":"秘密193","decorType":"restaurant"},{"id":"node-3513878374","lat":24.6148936,"lon":120.7897408,"name":"CoCo都可","decorType":"cafe"},{"id":"node-3513878375","lat":24.6139343,"lon":120.7913626,"name":"家樂福超市","decorType":"supermarket"},{"id":"node-3513880096","lat":24.6161276,"lon":120.7905024,"name":"天主教聖方濟","decorType":"shrine"},{"id":"node-3513882091","lat":24.6154739,"lon":120.7880994,"name":"屈臣氏","decorType":"pharmacy"},{"id":"node-3513884795","lat":24.615346,"lon":120.7875833,"name":"奇巧香餅家","decorType":"bakery"},{"id":"node-3641970536","lat":24.5604607,"lon":120.8181228,"name":"7-Eleven","decorType":"convenience"},{"id":"node-3663098125","lat":24.4303928,"lon":120.8091187,"name":"新雞隆","decorType":"bus_stop"},{"id":"node-3663146799","lat":24.447502,"lon":120.9059182,"name":"清安","decorType":"bus_stop"},{"id":"node-3664018212","lat":24.5702288,"lon":120.8229107,"name":"苗栗火車站","decorType":"bus_stop"},{"id":"node-3706521538","lat":24.5042569,"lon":120.8271446,"name":"全聯福利中心","decorType":"supermarket"},{"id":"node-3835275857","lat":24.4246297,"lon":120.8659877,"name":"全家便利商店","decorType":"convenience"},{"id":"node-3870833272","lat":24.6055644,"lon":120.8256849,"name":"苗栗","decorType":"station"},{"id":"node-3912667101","lat":24.5530517,"lon":120.8041932,"name":"明隆壇","decorType":"shrine"},{"id":"node-3912667112","lat":24.5529511,"lon":120.8031284,"name":"福德正神","decorType":"shrine"},{"id":"node-3953309436","lat":24.5557861,"lon":120.8337914,"name":"佛光山大明寺","decorType":"shrine"},{"id":"node-3965233596","lat":24.6055524,"lon":120.8251212,"name":"摩斯漢堡","decorType":"burger"},{"id":"node-3965365324","lat":24.5754207,"lon":120.8527455,"name":"竹苗區聯盟超市","decorType":"supermarket"},{"id":"node-3965372778","lat":24.5785067,"lon":120.8590637,"name":"7-Eleven","decorType":"convenience"},{"id":"node-3965442884","lat":24.5735616,"lon":120.817942,"name":"麥當勞","decorType":"burger"},{"id":"node-4076587824","lat":24.5389066,"lon":120.8165133,"name":"龜山口","decorType":"bus_stop"},{"id":"node-4076587833","lat":24.5409635,"lon":120.8191311,"name":"龍華小吃","decorType":"restaurant"},{"id":"node-4106909589","lat":24.5756207,"lon":120.8497848,"name":"福德祠（水頭伯公）","decorType":"shrine"},{"id":"node-4106941689","lat":24.5758239,"lon":120.8517856,"name":"楊家蛋黃麵","decorType":"restaurant"},{"id":"node-4107744105","lat":24.597092,"lon":120.7893308,"name":"台灣桑耶寺","decorType":"shrine"},{"id":"node-4107800490","lat":24.5745443,"lon":120.8295273,"name":"苗栗嘉盛郵局","decorType":"post_office"},{"id":"node-4107800689","lat":24.5719376,"lon":120.8284571,"name":"素食免費結緣中心","decorType":"restaurant"},{"id":"node-4107800889","lat":24.5563504,"lon":120.820175,"name":"海濤苗栗菩提道場","decorType":"shrine"},{"id":"node-4109097889","lat":24.5712298,"lon":120.8281831,"name":"藍鯨吐托魚羹","decorType":"restaurant"},{"id":"node-4109252203","lat":24.5774548,"lon":120.8490498,"name":"文德宮","decorType":"shrine"},{"id":"node-4109355589","lat":24.6144437,"lon":120.7879891,"name":"阿水飯店","decorType":"restaurant"},{"id":"node-4115443590","lat":24.5767304,"lon":120.8545625,"name":"牛肚大王","decorType":"restaurant"},{"id":"node-4115488489","lat":24.576833,"lon":120.8546389,"name":"頭屋大山塘福德祠","decorType":"shrine"},{"id":"node-4115821890","lat":24.5712346,"lon":120.8523596,"name":"慈願寺","decorType":"shrine"},{"id":"node-4117890689","lat":24.5821393,"lon":120.8470951,"name":"福德祠","decorType":"shrine"},{"id":"node-4117890690","lat":24.5780438,"lon":120.85124,"name":"瓦窯崗福德祠(瓦窯伯公)","decorType":"shrine"},{"id":"node-4240919203","lat":24.4300767,"lon":120.8687231,"name":"花間集","decorType":"restaurant"},{"id":"node-4253816577","lat":24.4387451,"lon":120.8360395,"name":"觀音山","decorType":"mountain"},{"id":"node-4253816578","lat":24.417115,"lon":120.8402538,"name":"打榷崠山","decorType":"mountain"},{"id":"node-4258047872","lat":24.5663645,"lon":120.854437,"name":"零功廟山","decorType":"mountain"},{"id":"node-4258047873","lat":24.5733611,"lon":120.8520252,"name":"頭屋南山","decorType":"mountain"},{"id":"node-4258047874","lat":24.582975,"lon":120.8475013,"name":"頭屋山","decorType":"mountain"},{"id":"node-4258047877","lat":24.6164075,"lon":120.8885351,"name":"七里香山","decorType":"mountain"},{"id":"node-4272445990","lat":24.5790691,"lon":120.862893,"name":"象山橋頭伯公","decorType":"shrine"},{"id":"node-4272528291","lat":24.5750522,"lon":120.8655264,"name":"玉衡宮","decorType":"shrine"},{"id":"node-4272573691","lat":24.5838232,"lon":120.8891509,"name":"佛光山明崇寺","decorType":"shrine"},{"id":"node-4304781711","lat":24.4231838,"lon":120.8680856,"name":"福德祠前","decorType":"bus_stop"},{"id":"node-4304781712","lat":24.4232083,"lon":120.8679931,"name":"福德祠前","decorType":"bus_stop"},{"id":"node-4304781732","lat":24.4229052,"lon":120.8660685,"name":"鄉公所前","decorType":"bus_stop"},{"id":"node-4350365291","lat":24.5814055,"lon":120.8509503,"name":"富康農場","decorType":"restaurant"},{"id":"node-4370587695","lat":24.5458235,"lon":120.8153454,"name":"租屋","decorType":"hotel"},{"id":"node-4460678692","lat":24.5734579,"lon":120.8423029,"name":"橋頭土地公","decorType":"shrine"},{"id":"node-4510417513","lat":24.4472972,"lon":120.9056878,"name":"Lung-Men Roadhouse","decorType":"restaurant"},{"id":"node-4510417514","lat":24.4462699,"lon":120.904868,"name":"未命名神社","decorType":"shrine"},{"id":"node-4510417757","lat":24.4464753,"lon":120.9053024,"name":"泰安郵局","decorType":"post_office"},{"id":"node-4510435926","lat":24.4442323,"lon":120.896061,"name":"未命名神社","decorType":"shrine"},{"id":"node-4510456129","lat":24.4936559,"lon":120.8010711,"name":"全家便利商店","decorType":"convenience"},{"id":"node-4545816490","lat":24.5536782,"lon":120.850028,"name":"長壽橋福德祠","decorType":"shrine"},{"id":"node-4545841789","lat":24.5471931,"lon":120.871914,"name":"天花湖民宿","decorType":"hotel"},{"id":"node-4552486889","lat":24.5583434,"lon":120.8502669,"name":"曲洞宮","decorType":"shrine"},{"id":"node-4559428389","lat":24.5855512,"lon":120.8845579,"name":"明德宮","decorType":"shrine"},{"id":"node-4564443894","lat":24.5601645,"lon":120.8569161,"name":"飛鳳村三尊福德祠","decorType":"shrine"},{"id":"node-4567949193","lat":24.5492684,"lon":120.877351,"name":"飛鳳水頭伯公福德祠","decorType":"shrine"},{"id":"node-4570549479","lat":24.5768588,"lon":120.914317,"name":"普光寺","decorType":"shrine"},{"id":"node-4570554655","lat":24.574427,"lon":120.8508957,"name":"涼心飲料店","decorType":"cafe"},{"id":"node-4599236090","lat":24.5811006,"lon":120.8975713,"name":"明德水庫釣魚臺民宿","decorType":"hotel"},{"id":"node-4603241889","lat":24.5862697,"lon":120.9131756,"name":"藝景度假莊院","decorType":"hotel"},{"id":"node-4614322782","lat":24.4198049,"lon":120.8636394,"name":"法寶寺","decorType":"bus_stop"},{"id":"node-4614322783","lat":24.4198598,"lon":120.8633746,"name":"大湖農工","decorType":"bus_stop"},{"id":"node-4614323556","lat":24.4171886,"lon":120.8630517,"name":"竹高屋","decorType":"bus_stop"},{"id":"node-4614323557","lat":24.417003,"lon":120.8627512,"name":"竹高屋","decorType":"bus_stop"},{"id":"node-4614323560","lat":24.41517,"lon":120.862695,"name":"草崠","decorType":"bus_stop"},{"id":"node-4614323561","lat":24.4152287,"lon":120.8629752,"name":"草崠","decorType":"bus_stop"},{"id":"node-4616074377","lat":24.4286199,"lon":120.867775,"name":"大湖酒莊","decorType":"bus_stop"},{"id":"node-4616074378","lat":24.428361,"lon":120.867832,"name":"大湖酒莊","decorType":"bus_stop"},{"id":"node-4616074379","lat":24.4266851,"lon":120.8670461,"name":"下街","decorType":"bus_stop"},{"id":"node-4616074380","lat":24.4265325,"lon":120.8671225,"name":"下街","decorType":"bus_stop"},{"id":"node-4616242504","lat":24.4386383,"lon":120.8717601,"name":"九寮坑口","decorType":"bus_stop"},{"id":"node-4616242505","lat":24.4386524,"lon":120.8715683,"name":"九寮坑口","decorType":"bus_stop"},{"id":"node-4616242506","lat":24.4354998,"lon":120.8703462,"name":"八寮灣","decorType":"bus_stop"},{"id":"node-4616242507","lat":24.43544,"lon":120.8705661,"name":"八寮灣","decorType":"bus_stop"},{"id":"node-4616242508","lat":24.4328222,"lon":120.8695985,"name":"富興","decorType":"bus_stop"},{"id":"node-4616242509","lat":24.4324693,"lon":120.8692458,"name":"富興","decorType":"bus_stop"},{"id":"node-4616252767","lat":24.444887,"lon":120.8739943,"name":"水尾","decorType":"bus_stop"},{"id":"node-4616252768","lat":24.4449334,"lon":120.8742384,"name":"水尾","decorType":"bus_stop"},{"id":"node-4616252769","lat":24.4436972,"lon":120.8739786,"name":"華興國小","decorType":"bus_stop"},{"id":"node-4616252770","lat":24.443497,"lon":120.8736641,"name":"華興國小","decorType":"bus_stop"},{"id":"node-4616253640","lat":24.4421845,"lon":120.8734576,"name":"鄉城社區","decorType":"bus_stop"},{"id":"node-4616253641","lat":24.4420392,"lon":120.8735917,"name":"鄉城社區","decorType":"bus_stop"},{"id":"node-4616375447","lat":24.4570153,"lon":120.8806351,"name":"三寮坑","decorType":"bus_stop"},{"id":"node-4616375448","lat":24.4568493,"lon":120.8807746,"name":"三寮坑","decorType":"bus_stop"},{"id":"node-4616375449","lat":24.451714,"lon":120.8740366,"name":"溫泉口","decorType":"bus_stop"},{"id":"node-4616375450","lat":24.4476632,"lon":120.8740017,"name":"天后宮","decorType":"bus_stop"},{"id":"node-4616375451","lat":24.44759,"lon":120.8738086,"name":"天后宮","decorType":"bus_stop"},{"id":"node-4616377331","lat":24.4589637,"lon":120.8834909,"name":"劉厝","decorType":"bus_stop"},{"id":"node-4616377332","lat":24.4589515,"lon":120.8836947,"name":"劉厝","decorType":"bus_stop"},{"id":"node-4617475190","lat":24.5659051,"lon":120.8252777,"name":"紫蝴蝶餐點坊","decorType":"restaurant"},{"id":"node-4617563230","lat":24.4667677,"lon":120.8864534,"name":"弘法院","decorType":"bus_stop"},{"id":"node-4617563231","lat":24.4666127,"lon":120.8860672,"name":"弘法院","decorType":"bus_stop"},{"id":"node-4617563246","lat":24.4656196,"lon":120.8837122,"name":"楊曦坪","decorType":"bus_stop"},{"id":"node-4617563247","lat":24.4652901,"lon":120.8834198,"name":"楊曦坪","decorType":"bus_stop"},{"id":"node-4617563267","lat":24.4614912,"lon":120.8857882,"name":"南庄","decorType":"bus_stop"},{"id":"node-4617563268","lat":24.461291,"lon":120.8859974,"name":"南庄","decorType":"bus_stop"},{"id":"node-4618345053","lat":24.4712776,"lon":120.8870081,"name":"北庄","decorType":"bus_stop"},{"id":"node-4618345054","lat":24.4707686,"lon":120.8869693,"name":"北庄","decorType":"bus_stop"},{"id":"node-4618701500","lat":24.4775149,"lon":120.8908712,"name":"大寮","decorType":"bus_stop"},{"id":"node-4618701501","lat":24.4777248,"lon":120.8907559,"name":"大寮","decorType":"bus_stop"},{"id":"node-4618701502","lat":24.4765265,"lon":120.889788,"name":"豐林國小","decorType":"bus_stop"},{"id":"node-4618701503","lat":24.4756755,"lon":120.889398,"name":"豐林國小","decorType":"bus_stop"},{"id":"node-4618748029","lat":24.4894503,"lon":120.8989608,"name":"鹽水坑","decorType":"bus_stop"},{"id":"node-4618748030","lat":24.4893411,"lon":120.8990775,"name":"鹽水坑","decorType":"bus_stop"},{"id":"node-4618748043","lat":24.4870576,"lon":120.900204,"name":"伯公潭","decorType":"bus_stop"},{"id":"node-4618748044","lat":24.487176,"lon":120.9005045,"name":"伯公潭","decorType":"bus_stop"},{"id":"node-4618748079","lat":24.4842114,"lon":120.8979456,"name":"楓樹崀","decorType":"bus_stop"},{"id":"node-4618748080","lat":24.4842163,"lon":120.898179,"name":"楓樹崀","decorType":"bus_stop"},{"id":"node-4618748081","lat":24.4817325,"lon":120.8961667,"name":"新豐","decorType":"bus_stop"},{"id":"node-4618748082","lat":24.4816068,"lon":120.8959507,"name":"新豐","decorType":"bus_stop"},{"id":"node-4618748086","lat":24.4794141,"lon":120.8939384,"name":"八角林","decorType":"bus_stop"},{"id":"node-4618748087","lat":24.4795557,"lon":120.8945553,"name":"八角林","decorType":"bus_stop"},{"id":"node-4619829455","lat":24.5004098,"lon":120.9030097,"name":"大坡塘","decorType":"bus_stop"},{"id":"node-4619829456","lat":24.4992822,"lon":120.9025785,"name":"大坡塘","decorType":"bus_stop"},{"id":"node-4619829457","lat":24.4959005,"lon":120.9016102,"name":"香圓窩","decorType":"bus_stop"},{"id":"node-4619829458","lat":24.495959,"lon":120.9014238,"name":"香圓窩","decorType":"bus_stop"},{"id":"node-4619829472","lat":24.4919195,"lon":120.9001357,"name":"豐福","decorType":"bus_stop"},{"id":"node-4619829473","lat":24.4918853,"lon":120.9003328,"name":"豐福","decorType":"bus_stop"},{"id":"node-4619866318","lat":24.5160848,"lon":120.9111813,"name":"下和興","decorType":"bus_stop"},{"id":"node-4619866319","lat":24.5159408,"lon":120.9110298,"name":"下和興","decorType":"bus_stop"},{"id":"node-4619866320","lat":24.5145095,"lon":120.91073,"name":"和興","decorType":"bus_stop"},{"id":"node-4619866321","lat":24.514468,"lon":120.9104886,"name":"和興","decorType":"bus_stop"},{"id":"node-4619866328","lat":24.5103046,"lon":120.9102673,"name":"上和興","decorType":"bus_stop"},{"id":"node-4619866329","lat":24.5102826,"lon":120.9100367,"name":"上和興","decorType":"bus_stop"},{"id":"node-4619866369","lat":24.5063668,"lon":120.9113235,"name":"湖塘","decorType":"bus_stop"},{"id":"node-4619866370","lat":24.5063875,"lon":120.9109774,"name":"湖塘","decorType":"bus_stop"},{"id":"node-4620339665","lat":24.5331717,"lon":120.9178782,"name":"新興","decorType":"bus_stop"},{"id":"node-4620339666","lat":24.5329777,"lon":120.9176006,"name":"新興","decorType":"bus_stop"},{"id":"node-4620339667","lat":24.5296214,"lon":120.9159652,"name":"黃厝","decorType":"bus_stop"},{"id":"node-4620339668","lat":24.5298349,"lon":120.9159075,"name":"黃厝","decorType":"bus_stop"},{"id":"node-4620339669","lat":24.5280353,"lon":120.913352,"name":"中興","decorType":"bus_stop"},{"id":"node-4620339670","lat":24.5279096,"lon":120.9131669,"name":"中興","decorType":"bus_stop"},{"id":"node-4620339671","lat":24.5360729,"lon":120.9184073,"name":"管理站","decorType":"bus_stop"},{"id":"node-4620339672","lat":24.5359485,"lon":120.9181981,"name":"管理站","decorType":"bus_stop"},{"id":"node-4620339673","lat":24.5261075,"lon":120.9133792,"name":"五文宮","decorType":"bus_stop"},{"id":"node-4620339674","lat":24.5258476,"lon":120.9132893,"name":"五文宮","decorType":"bus_stop"},{"id":"node-4620339678","lat":24.5245226,"lon":120.9129527,"name":"福興","decorType":"bus_stop"},{"id":"node-4620339679","lat":24.5243408,"lon":120.9130278,"name":"福興","decorType":"bus_stop"},{"id":"node-4620340201","lat":24.5201496,"lon":120.9122272,"name":"福興口","decorType":"bus_stop"},{"id":"node-4620340202","lat":24.5201289,"lon":120.9120421,"name":"福興口","decorType":"bus_stop"},{"id":"node-4620612503","lat":24.5379065,"lon":120.918532,"name":"大東勢口","decorType":"bus_stop"},{"id":"node-4681190003","lat":24.4681271,"lon":120.8851056,"name":"弘法寺","decorType":"shrine"},{"id":"node-4796009984","lat":24.4745434,"lon":120.8013867,"name":"水母娘娘廟","decorType":"shrine"},{"id":"node-4796009985","lat":24.4746196,"lon":120.8012084,"name":"泉水福德祠","decorType":"shrine"},{"id":"node-4812536322","lat":24.5834938,"lon":120.890277,"name":"樟樹伯公","decorType":"shrine"},{"id":"node-4831398162","lat":24.5019341,"lon":120.8281943,"name":"公館","decorType":"bus_stop"},{"id":"node-4831398163","lat":24.501956,"lon":120.8280361,"name":"公館","decorType":"bus_stop"},{"id":"node-4831398164","lat":24.5020329,"lon":120.8281956,"name":"屈臣氏","decorType":"pharmacy"},{"id":"node-4831398180","lat":24.5021183,"lon":120.8282084,"name":"7-Eleven","decorType":"convenience"},{"id":"node-4831398181","lat":24.5064419,"lon":120.8270631,"name":"燦坤3C","decorType":"electronics"},{"id":"node-4831398182","lat":24.5068739,"lon":120.8265313,"name":"清心福全","decorType":"cafe"},{"id":"node-4831398183","lat":24.507395,"lon":120.8266601,"name":"全國電子","decorType":"electronics"},{"id":"node-4831398184","lat":24.5074499,"lon":120.8266051,"name":"壹咖啡","decorType":"cafe"},{"id":"node-4831398188","lat":24.514908,"lon":120.8240483,"name":"樟樹伯公","decorType":"bus_stop"},{"id":"node-4831398189","lat":24.5148824,"lon":120.8238069,"name":"樟樹伯公","decorType":"bus_stop"},{"id":"node-4831398190","lat":24.5204501,"lon":120.8216812,"name":"五谷岡","decorType":"bus_stop"},{"id":"node-4831398191","lat":24.5204696,"lon":120.821409,"name":"五谷岡","decorType":"bus_stop"},{"id":"node-4831398192","lat":24.4950646,"lon":120.8281058,"name":"苗栗農改場","decorType":"bus_stop"},{"id":"node-4831398193","lat":24.4952086,"lon":120.827977,"name":"苗栗農改場","decorType":"bus_stop"},{"id":"node-4831398195","lat":24.4983475,"lon":120.8279623,"name":"公館國中","decorType":"bus_stop"},{"id":"node-4831398196","lat":24.4985647,"lon":120.8280964,"name":"公館國中","decorType":"bus_stop"},{"id":"node-4831398197","lat":24.5091363,"lon":120.82596,"name":"玉泉","decorType":"bus_stop"},{"id":"node-4831398198","lat":24.5090667,"lon":120.8258648,"name":"玉泉","decorType":"bus_stop"},{"id":"node-4831398199","lat":24.5066713,"lon":120.8269357,"name":"蠶絲廠","decorType":"bus_stop"},{"id":"node-4831398200","lat":24.5058781,"lon":120.8269464,"name":"蠶絲廠","decorType":"bus_stop"},{"id":"node-4831398201","lat":24.504897,"lon":120.8270852,"name":"CoCo 都可","decorType":"cafe"},{"id":"node-4831398202","lat":24.5048921,"lon":120.8272743,"name":"全家便利商店","decorType":"convenience"},{"id":"node-4831398204","lat":24.4895446,"lon":120.8279348,"name":"苗栗特色館","decorType":"art_gallery"},{"id":"node-4833327868","lat":24.4843561,"lon":120.8206657,"name":"棗莊","decorType":"restaurant"},{"id":"node-4833327869","lat":24.4998238,"lon":120.828039,"name":"秀菊小吃坊","decorType":"restaurant"},{"id":"node-4833327876","lat":24.4908588,"lon":120.8283408,"name":"苗栗特色館","decorType":"bus_stop"},{"id":"node-4833327877","lat":24.4909552,"lon":120.8281812,"name":"苗栗特色館","decorType":"bus_stop"},{"id":"node-4833327878","lat":24.4929213,"lon":120.8281007,"name":"館南","decorType":"bus_stop"},{"id":"node-4833327879","lat":24.4933814,"lon":120.8279157,"name":"館南","decorType":"bus_stop"},{"id":"node-4833327880","lat":24.4946787,"lon":120.8278567,"name":"7-Eleven","decorType":"convenience"},{"id":"node-4842905322","lat":24.6326916,"lon":120.8840543,"name":"藤坪","decorType":"bus_stop"},{"id":"node-4842905323","lat":24.6320552,"lon":120.8844258,"name":"藤坪","decorType":"bus_stop"},{"id":"node-4842915447","lat":24.6263133,"lon":120.8906069,"name":"崇佛寺","decorType":"bus_stop"},{"id":"node-4842915448","lat":24.6265376,"lon":120.8907169,"name":"崇佛寺","decorType":"bus_stop"},{"id":"node-4842915453","lat":24.6276202,"lon":120.8882426,"name":"上藤坪","decorType":"bus_stop"},{"id":"node-4842915454","lat":24.6278993,"lon":120.8881527,"name":"上藤坪","decorType":"bus_stop"},{"id":"node-4842935637","lat":24.6224047,"lon":120.8911166,"name":"大坪","decorType":"bus_stop"},{"id":"node-4842935638","lat":24.6226705,"lon":120.8913204,"name":"大坪","decorType":"bus_stop"},{"id":"node-4842935647","lat":24.6247247,"lon":120.8917442,"name":"美廉社","decorType":"supermarket"},{"id":"node-4842935648","lat":24.6247101,"lon":120.8916973,"name":"大西村","decorType":"bus_stop"},{"id":"node-4842935649","lat":24.6248003,"lon":120.8914947,"name":"大西村","decorType":"bus_stop"},{"id":"node-4842970372","lat":24.6055547,"lon":120.8890881,"name":"錦水","decorType":"bus_stop"},{"id":"node-4842970373","lat":24.6056029,"lon":120.8889057,"name":"錦水","decorType":"bus_stop"},{"id":"node-4842970378","lat":24.6083811,"lon":120.8906847,"name":"錦水社區","decorType":"bus_stop"},{"id":"node-4842970379","lat":24.6077263,"lon":120.890501,"name":"錦水社區","decorType":"bus_stop"},{"id":"node-4842970385","lat":24.6105722,"lon":120.8917777,"name":"錦水村","decorType":"bus_stop"},{"id":"node-4842970386","lat":24.6105868,"lon":120.891602,"name":"錦水村","decorType":"bus_stop"},{"id":"node-4842970525","lat":24.6149944,"lon":120.8918542,"name":"大坪加油站","decorType":"bus_stop"},{"id":"node-4842970526","lat":24.6151237,"lon":120.8920661,"name":"大坪加油站","decorType":"bus_stop"},{"id":"node-4842970528","lat":24.6183887,"lon":120.8917335,"name":"聯亞學院","decorType":"bus_stop"},{"id":"node-4842970529","lat":24.6185119,"lon":120.8919413,"name":"聯亞學院","decorType":"bus_stop"},{"id":"node-4843202928","lat":24.5983276,"lon":120.8846457,"name":"茄苳坑","decorType":"bus_stop"},{"id":"node-4843202929","lat":24.5983593,"lon":120.8845063,"name":"茄苳坑","decorType":"bus_stop"},{"id":"node-4843286633","lat":24.5795048,"lon":120.8606252,"name":"傳家堡","decorType":"bus_stop"},{"id":"node-4843286634","lat":24.5794304,"lon":120.8609109,"name":"傳家堡","decorType":"bus_stop"},{"id":"node-4843286654","lat":24.5797548,"lon":120.8638197,"name":"象山村","decorType":"bus_stop"},{"id":"node-4843286655","lat":24.5801073,"lon":120.8641255,"name":"象山村","decorType":"bus_stop"},{"id":"node-4843286677","lat":24.5804829,"lon":120.8670075,"name":"扒仔岡","decorType":"bus_stop"},{"id":"node-4843286678","lat":24.5803317,"lon":120.8668761,"name":"扒仔岡","decorType":"bus_stop"},{"id":"node-4843286693","lat":24.5807829,"lon":120.8710174,"name":"鳴鳳入口","decorType":"bus_stop"},{"id":"node-4843286694","lat":24.5808366,"lon":120.8706915,"name":"鳴鳳入口","decorType":"bus_stop"},{"id":"node-4843286715","lat":24.5824903,"lon":120.8777806,"name":"響隆橋","decorType":"bus_stop"},{"id":"node-4843286716","lat":24.5829586,"lon":120.8777618,"name":"響隆橋","decorType":"bus_stop"},{"id":"node-4843286766","lat":24.5784681,"lon":120.8585814,"name":"玻璃廠","decorType":"bus_stop"},{"id":"node-4843286767","lat":24.5784291,"lon":120.8589193,"name":"玻璃廠","decorType":"bus_stop"},{"id":"node-4843302319","lat":24.5764704,"lon":120.8540806,"name":"頭屋郵局","decorType":"bus_stop"},{"id":"node-4843302320","lat":24.576207,"lon":120.8540592,"name":"頭屋郵局","decorType":"bus_stop"},{"id":"node-4843309938","lat":24.5744971,"lon":120.848566,"name":"苗栗工務段","decorType":"bus_stop"},{"id":"node-4843309939","lat":24.5742336,"lon":120.8487725,"name":"苗栗工務段","decorType":"bus_stop"},{"id":"node-4843309940","lat":24.5747142,"lon":120.8512214,"name":"頭屋站","decorType":"bus_stop"},{"id":"node-4843309941","lat":24.5749935,"lon":120.8513407,"name":"頭屋站","decorType":"bus_stop"},{"id":"node-4843324507","lat":24.5728457,"lon":120.8352461,"name":"復興路口","decorType":"bus_stop"},{"id":"node-4843324508","lat":24.5730652,"lon":120.8349913,"name":"復興路口","decorType":"bus_stop"},{"id":"node-4843324509","lat":24.5733604,"lon":120.8371156,"name":"7-Eleven","decorType":"convenience"},{"id":"node-4843324516","lat":24.5744556,"lon":120.8409941,"name":"苗栗醫院","decorType":"bus_stop"},{"id":"node-4843324517","lat":24.5747069,"lon":120.8411416,"name":"苗栗醫院","decorType":"bus_stop"},{"id":"node-4843347676","lat":24.5642786,"lon":120.8232339,"name":"縣府前","decorType":"bus_stop"},{"id":"node-4843347679","lat":24.566085,"lon":120.8233894,"name":"水利會","decorType":"bus_stop"},{"id":"node-4843347682","lat":24.5690086,"lon":120.8235866,"name":"建中街","decorType":"bus_stop"},{"id":"node-4843347683","lat":24.5708357,"lon":120.8268991,"name":"7-Eleven","decorType":"convenience"},{"id":"node-4843347685","lat":24.5704357,"lon":120.8263157,"name":"北苗加油站","decorType":"bus_stop"},{"id":"node-4843347686","lat":24.570632,"lon":120.8262782,"name":"北苗加油站","decorType":"bus_stop"},{"id":"node-4843347697","lat":24.5712622,"lon":120.8295071,"name":"台電前","decorType":"bus_stop"},{"id":"node-4843347698","lat":24.5714553,"lon":120.8292863,"name":"台電前","decorType":"bus_stop"},{"id":"node-4843347699","lat":24.5721115,"lon":120.8323024,"name":"嘉盛","decorType":"bus_stop"},{"id":"node-4843347700","lat":24.5722249,"lon":120.8321857,"name":"嘉盛","decorType":"bus_stop"},{"id":"node-4843678795","lat":24.557659,"lon":120.8188216,"name":"中苗市場","decorType":"bus_stop"},{"id":"node-4843678796","lat":24.5575675,"lon":120.8186929,"name":"中苗市場","decorType":"bus_stop"},{"id":"node-4843678797","lat":24.56029,"lon":120.8154836,"name":"國立苗中","decorType":"bus_stop"},{"id":"node-4843678798","lat":24.5596985,"lon":120.8163379,"name":"國立苗中","decorType":"bus_stop"},{"id":"node-4843678799","lat":24.5517514,"lon":120.8161394,"name":"南苗","decorType":"bus_stop"},{"id":"node-4843678800","lat":24.5526638,"lon":120.8152905,"name":"南苗","decorType":"bus_stop"},{"id":"node-4843678801","lat":24.5541301,"lon":120.8154461,"name":"大同國小","decorType":"bus_stop"},{"id":"node-4843678804","lat":24.5555402,"lon":120.816696,"name":"光復路口","decorType":"bus_stop"},{"id":"node-4843678805","lat":24.5557329,"lon":120.8171962,"name":"南苗市場","decorType":"bus_stop"},{"id":"node-4843678817","lat":24.557154,"lon":120.819236,"name":"至公路","decorType":"bus_stop"},{"id":"node-4843678819","lat":24.5575651,"lon":120.8193862,"name":"麥當勞","decorType":"burger"},{"id":"node-4843678820","lat":24.5580432,"lon":120.8197081,"name":"中苗站","decorType":"bus_stop"},{"id":"node-4843679421","lat":24.5583713,"lon":120.8199411,"name":"中苗","decorType":"bus_stop"},{"id":"node-4843679422","lat":24.5609024,"lon":120.8216634,"name":"文化街","decorType":"bus_stop"},{"id":"node-4843679423","lat":24.5626051,"lon":120.8226961,"name":"同心公園","decorType":"bus_stop"},{"id":"node-4844029561","lat":24.5420203,"lon":120.817105,"name":"仁愛社區","decorType":"bus_stop"},{"id":"node-4844029562","lat":24.5422179,"lon":120.8169132,"name":"仁愛社區","decorType":"bus_stop"},{"id":"node-4844029563","lat":24.5438697,"lon":120.8166061,"name":"輔導中心","decorType":"bus_stop"},{"id":"node-4844029564","lat":24.5438709,"lon":120.8167201,"name":"輔導中心","decorType":"bus_stop"},{"id":"node-4844029565","lat":24.5462497,"lon":120.8163151,"name":"地方法院","decorType":"bus_stop"},{"id":"node-4844029566","lat":24.5466706,"lon":120.8162561,"name":"地方法院","decorType":"bus_stop"},{"id":"node-4844029567","lat":24.546967,"lon":120.8163647,"name":"地方法院","decorType":"bus_stop"},{"id":"node-4844029568","lat":24.5478783,"lon":120.8161435,"name":"勝利","decorType":"bus_stop"},{"id":"node-4852985504","lat":24.4544959,"lon":120.7940345,"name":"雙峰山北峰","decorType":"mountain"},{"id":"node-4853760316","lat":24.5287734,"lon":120.819,"name":"鶴岡口","decorType":"bus_stop"},{"id":"node-4853760317","lat":24.5290528,"lon":120.8185172,"name":"鶴岡口","decorType":"bus_stop"},{"id":"node-4853760318","lat":24.5308871,"lon":120.8181349,"name":"龜山","decorType":"bus_stop"},{"id":"node-4853760319","lat":24.5323006,"lon":120.8172619,"name":"龜山","decorType":"bus_stop"},{"id":"node-4853760426","lat":24.538996,"lon":120.8167335,"name":"龜山口","decorType":"bus_stop"},{"id":"node-4853760432","lat":24.5406271,"lon":120.8172002,"name":"育民工家","decorType":"bus_stop"},{"id":"node-4853760433","lat":24.540965,"lon":120.8173075,"name":"育民工家","decorType":"bus_stop"},{"id":"node-4890971231","lat":24.425026,"lon":120.8669714,"name":"大湖鄉老人文康中心","decorType":"art_gallery"},{"id":"node-5123352622","lat":24.5339094,"lon":120.8167681,"name":"未命名公車站","decorType":"bus_stop"},{"id":"node-5162305322","lat":24.562855,"lon":120.8321844,"name":"阿呆鳥(刀切麵食館)","decorType":"restaurant"},{"id":"node-5170709638","lat":24.5245784,"lon":120.8695122,"name":"釋迦山釋迦牟尼寺","decorType":"shrine"},{"id":"node-5170709646","lat":24.5304066,"lon":120.8693872,"name":"北河玉清寺","decorType":"shrine"},{"id":"node-5170709698","lat":24.5307179,"lon":120.8774185,"name":"福德祠(北河水尾伯公)","decorType":"shrine"},{"id":"node-5170709799","lat":24.5329844,"lon":120.8951813,"name":"茄冬老樹福德祠","decorType":"shrine"},{"id":"node-5175937460","lat":24.5412751,"lon":120.901132,"name":"三湖山","decorType":"mountain"},{"id":"node-5212665456","lat":24.4897829,"lon":120.7880191,"name":"銅鑼","decorType":"bus_stop"},{"id":"node-5212665457","lat":24.4913567,"lon":120.7881144,"name":"銅鑼天主堂","decorType":"bus_stop"},{"id":"node-5222681524","lat":24.4886902,"lon":120.7876613,"name":"韓鄉村牛肉麵","decorType":"restaurant"},{"id":"node-5243749621","lat":24.4749467,"lon":120.8295567,"name":"紅棗食府","decorType":"restaurant"},{"id":"node-5258240046","lat":24.4519299,"lon":120.8765942,"name":"雪霸國家公園管理處","decorType":"bus_stop"},{"id":"node-5263948845","lat":24.5483159,"lon":120.8150203,"name":"小蓉園","decorType":"restaurant"},{"id":"node-5263948846","lat":24.550204,"lon":120.8150203,"name":"7-Eleven","decorType":"convenience"},{"id":"node-5263948860","lat":24.551241,"lon":120.816008,"name":"八方雲集","decorType":"burger"},{"id":"node-5263948861","lat":24.550885,"lon":120.8159703,"name":"寶雅","decorType":"supermarket"},{"id":"node-5263948867","lat":24.5513952,"lon":120.81644,"name":"新竹客運南苗站","decorType":"station"},{"id":"node-5263948869","lat":24.5501562,"lon":120.8161112,"name":"苗栗南苗郵局","decorType":"post_office"},{"id":"node-5263948870","lat":24.5484178,"lon":120.8157159,"name":"楊文忠蛋黃麵","decorType":"restaurant"},{"id":"node-5263948872","lat":24.5480612,"lon":120.816064,"name":"全國電子","decorType":"electronics"},{"id":"node-5263948877","lat":24.5461331,"lon":120.8162929,"name":"美廉社","decorType":"supermarket"},{"id":"node-5263948878","lat":24.552248,"lon":120.8161078,"name":"麥當勞","decorType":"burger"},{"id":"node-5263948879","lat":24.5519552,"lon":120.8160395,"name":"肯德基","decorType":"burger"},{"id":"node-5265696978","lat":24.5454029,"lon":120.8163276,"name":"老先覺麻辣窯燒鍋","decorType":"restaurant"},{"id":"node-5265696979","lat":24.547404,"lon":120.8161545,"name":"里約烘焙","decorType":"sweetshop"},{"id":"node-5265696980","lat":24.5475367,"lon":120.8161334,"name":"麥味登","decorType":"restaurant"},{"id":"node-5265696981","lat":24.5476443,"lon":120.8163227,"name":"50嵐","decorType":"cafe"},{"id":"node-5265696982","lat":24.5477058,"lon":120.8161267,"name":"清心福全","decorType":"cafe"},{"id":"node-5265696983","lat":24.5483421,"lon":120.8162281,"name":"台灣大哥大","decorType":"electronics"},{"id":"node-5265696984","lat":24.5484589,"lon":120.816049,"name":"大碗公","decorType":"restaurant"},{"id":"node-5265696985","lat":24.549086,"lon":120.8161774,"name":"新竹夜市城","decorType":"restaurant"},{"id":"node-5265696986","lat":24.5493349,"lon":120.8161605,"name":"客家","decorType":"restaurant"},{"id":"node-5265696987","lat":24.5507366,"lon":120.8157854,"name":"三媽臭臭鍋","decorType":"restaurant"},{"id":"node-5265696988","lat":24.5512069,"lon":120.8157651,"name":"永和豆漿","decorType":"restaurant"},{"id":"node-5265696989","lat":24.5514651,"lon":120.8160185,"name":"85度C","decorType":"cafe"},{"id":"node-5265696990","lat":24.5515082,"lon":120.8162788,"name":"家樂福超市","decorType":"supermarket"},{"id":"node-5265696991","lat":24.5524057,"lon":120.8165761,"name":"天雲廟","decorType":"shrine"},{"id":"node-5265696996","lat":24.5586878,"lon":120.8213285,"name":"必勝客","decorType":"restaurant"},{"id":"node-5265696997","lat":24.5593891,"lon":120.8214434,"name":"家樂福超市","decorType":"supermarket"},{"id":"node-5265699535","lat":24.5686762,"lon":120.824545,"name":"7-Eleven","decorType":"convenience"},{"id":"node-5265699536","lat":24.5698986,"lon":120.8242784,"name":"八方雲集","decorType":"burger"},{"id":"node-5272518858","lat":24.457737,"lon":120.8756111,"name":"永和亭飯店","decorType":"restaurant"},{"id":"node-5272588749","lat":24.4582691,"lon":120.875905,"name":"謝孝德畫院","decorType":"art_gallery"},{"id":"node-5272628635","lat":24.4578692,"lon":120.8757057,"name":"汶水","decorType":"bus_stop"},{"id":"node-5272628636","lat":24.4576919,"lon":120.8756822,"name":"汶水","decorType":"bus_stop"},{"id":"node-5273484565","lat":24.5512438,"lon":120.813814,"name":"全家便利商店","decorType":"convenience"},{"id":"node-5273484577","lat":24.5527315,"lon":120.8173049,"name":"名悅現烤蛋糕","decorType":"sweetshop"},{"id":"node-5273484586","lat":24.5557684,"lon":120.8195893,"name":"全聯福利中心","decorType":"supermarket"},{"id":"node-5273484587","lat":24.5667395,"lon":120.8240375,"name":"苗栗北苗郵局","decorType":"post_office"},{"id":"node-5273484590","lat":24.5701618,"lon":120.8246449,"name":"台灣鐵路便當北苗站","decorType":"restaurant"},{"id":"node-5273484592","lat":24.5720074,"lon":120.824789,"name":"7-Eleven","decorType":"convenience"},{"id":"node-5273484735","lat":24.5734301,"lon":120.8248842,"name":"全聯福利中心","decorType":"supermarket"},{"id":"node-5273484736","lat":24.5743322,"lon":120.82475,"name":"一級棒鵝肉小吃店","decorType":"restaurant"},{"id":"node-5273484737","lat":24.5753863,"lon":120.8246599,"name":"全國電子","decorType":"electronics"},{"id":"node-5273484738","lat":24.5773084,"lon":120.8245061,"name":"7-Eleven","decorType":"convenience"},{"id":"node-5273484754","lat":24.5820074,"lon":120.8248557,"name":"苗栗安瀾宮","decorType":"shrine"},{"id":"node-5273484756","lat":24.5853346,"lon":120.8252582,"name":"弘爺漢堡","decorType":"burger"},{"id":"node-5273757573","lat":24.5690008,"lon":120.8208816,"name":"鞋全家福","decorType":"clothing"},{"id":"node-5273757582","lat":24.5664359,"lon":120.823534,"name":"肇久電器行(大同)","decorType":"electronics"},{"id":"node-5273757583","lat":24.5643456,"lon":120.8233436,"name":"吃飽飽鐵板燒小火鍋","decorType":"restaurant"},{"id":"node-5273757584","lat":24.5636362,"lon":120.8232952,"name":"井澤蔬食","decorType":"restaurant"},{"id":"node-5273757601","lat":24.5596331,"lon":120.8208268,"name":"陶板屋 - 苗栗中山店","decorType":"restaurant"},{"id":"node-5273757602","lat":24.5594952,"lon":120.8206977,"name":"麥味登","decorType":"restaurant"},{"id":"node-5273757613","lat":24.5576081,"lon":120.8196942,"name":"達美樂","decorType":"burger"},{"id":"node-5273757614","lat":24.5574643,"lon":120.8193263,"name":"7-Eleven","decorType":"convenience"},{"id":"node-5273757615","lat":24.5566425,"lon":120.8189326,"name":"我家麵店","decorType":"restaurant"},{"id":"node-5273757616","lat":24.5564371,"lon":120.8189972,"name":"boLo台灣-菠蘿麵包專賣店","decorType":"sweetshop"},{"id":"node-5273757617","lat":24.5559146,"lon":120.8176871,"name":"弘爺漢堡","decorType":"burger"},{"id":"node-5273757620","lat":24.5529092,"lon":120.8138699,"name":"苗栗三山國王廟","decorType":"shrine"},{"id":"node-5273759229","lat":24.5543392,"lon":120.8114235,"name":"福德宮","decorType":"shrine"},{"id":"node-5340542200","lat":24.5024564,"lon":120.8240978,"name":"館二休閒運動器材","decorType":"park"},{"id":"node-5442324824","lat":24.4295552,"lon":120.8683376,"name":"7-Eleven","decorType":"convenience"},{"id":"node-5444062721","lat":24.495284,"lon":120.8415328,"name":"行修寺","decorType":"shrine"},{"id":"node-5573605726","lat":24.4474083,"lon":120.9080062,"name":"泰安鄉立圖書館","decorType":"library"},{"id":"node-5600692455","lat":24.559241,"lon":120.8146816,"name":"OK超商","decorType":"convenience"},{"id":"node-5682684194","lat":24.5634542,"lon":120.8186934,"name":"佳福日用五金百貨店","decorType":"hardware"},{"id":"node-5684456059","lat":24.5050739,"lon":120.8281173,"name":"公館五金大批發","decorType":"hardware"},{"id":"node-5714299285","lat":24.5570662,"lon":120.8191989,"name":"三好飯店","decorType":"restaurant"},{"id":"node-5714299286","lat":24.5570715,"lon":120.819185,"name":"三好飯店","decorType":"restaurant"},{"id":"node-5714299287","lat":24.564603,"lon":120.8217276,"name":"品園自助餐","decorType":"restaurant"},{"id":"node-5714299288","lat":24.5656586,"lon":120.8194882,"name":"文化麵食館","decorType":"restaurant"},{"id":"node-5980608685","lat":24.5403499,"lon":120.8193337,"name":"KiKi廚房","decorType":"restaurant"},{"id":"node-5980620885","lat":24.4968712,"lon":120.82818,"name":"Mumu悠然時光","decorType":"restaurant"},{"id":"node-5982755085","lat":24.488591,"lon":120.787584,"name":"銅鑼蛋餅","decorType":"restaurant"},{"id":"node-6025074362","lat":24.5591544,"lon":120.8174723,"name":"CoCo都可","decorType":"cafe"},{"id":"node-6025074363","lat":24.5594321,"lon":120.8170869,"name":"元家香北平烤鴨","decorType":"restaurant"},{"id":"node-6025074365","lat":24.5597553,"lon":120.8176224,"name":"瑞士烘培坊","decorType":"bakery"},{"id":"node-6025074366","lat":24.5599147,"lon":120.8174973,"name":"阿忠小吃","decorType":"restaurant"},{"id":"node-6025074367","lat":24.5601241,"lon":120.8176775,"name":"大呼過癮臭臭鍋","decorType":"restaurant"},{"id":"node-6287806685","lat":24.6139402,"lon":120.8147746,"name":"萊爾富","decorType":"convenience"},{"id":"node-6288473885","lat":24.603384,"lon":120.8154951,"name":"7-Eleven","decorType":"convenience"},{"id":"node-6288968585","lat":24.527477,"lon":120.8194399,"name":"7-Eleven","decorType":"convenience"},{"id":"node-6304972786","lat":24.5670429,"lon":120.821206,"name":"未命名餐廳","decorType":"restaurant"},{"id":"node-6319049869","lat":24.4894667,"lon":120.7910737,"name":"未命名公園","decorType":"park"},{"id":"node-6319049923","lat":24.4892617,"lon":120.7876335,"name":"Linseed Baekery","decorType":"bakery"},{"id":"node-6319054159","lat":24.4893834,"lon":120.7876844,"name":"佑全","decorType":"pharmacy"},{"id":"node-6319061085","lat":24.4894499,"lon":120.7905691,"name":"高年福德祠","decorType":"shrine"},{"id":"node-6319067313","lat":24.4860755,"lon":120.7879745,"name":"未命名服飾店","decorType":"clothing"},{"id":"node-6321803949","lat":24.489006,"lon":120.7875295,"name":"未命名美髮院","decorType":"hair_salon"},{"id":"node-6356556459","lat":24.4534667,"lon":120.8748815,"name":"法雲寺口","decorType":"bus_stop"},{"id":"node-6356560995","lat":24.4534647,"lon":120.8748073,"name":"法雲寺口","decorType":"bus_stop"},{"id":"node-6356581396","lat":24.42331,"lon":120.8674904,"name":"未命名美術館","decorType":"art_gallery"},{"id":"node-6517548826","lat":24.6004722,"lon":120.8287713,"name":"杜記黑珍珠玉米","decorType":"restaurant"},{"id":"node-6720679899","lat":24.5824624,"lon":120.8353767,"name":"苗栗嘉盛興旺堂","decorType":"shrine"},{"id":"node-6776111810","lat":24.6043992,"lon":120.826295,"name":"豐富","decorType":"station"},{"id":"node-6787296050","lat":24.5200973,"lon":120.7886828,"name":"五湖口","decorType":"bus_stop"},{"id":"node-6787296051","lat":24.519653,"lon":120.789312,"name":"五湖口","decorType":"bus_stop"},{"id":"node-6787296052","lat":24.5196591,"lon":120.789607,"name":"五湖口","decorType":"bus_stop"},{"id":"node-6787300673","lat":24.5436669,"lon":120.810482,"name":"陽明山莊","decorType":"bus_stop"},{"id":"node-6787300674","lat":24.5439539,"lon":120.810307,"name":"陽明山莊","decorType":"bus_stop"},{"id":"node-6787300675","lat":24.5456178,"lon":120.8118814,"name":"國立聯合大學","decorType":"bus_stop"},{"id":"node-6787300676","lat":24.5455495,"lon":120.8121027,"name":"聯合大學","decorType":"bus_stop"},{"id":"node-6787322315","lat":24.5335914,"lon":120.8046797,"name":"坪頂","decorType":"bus_stop"},{"id":"node-6787322316","lat":24.5324177,"lon":120.8034566,"name":"上南勢","decorType":"bus_stop"},{"id":"node-6787322317","lat":24.5328423,"lon":120.8035317,"name":"上南勢","decorType":"bus_stop"},{"id":"node-6787322318","lat":24.5302924,"lon":120.8014289,"name":"坪頂社區","decorType":"bus_stop"},{"id":"node-6787322319","lat":24.5270226,"lon":120.7978132,"name":"新英國小","decorType":"bus_stop"},{"id":"node-6787322326","lat":24.5254926,"lon":120.7960001,"name":"豪榮社區","decorType":"bus_stop"},{"id":"node-6787322327","lat":24.5253925,"lon":120.7958847,"name":"7-Eleven","decorType":"convenience"},{"id":"node-6787322328","lat":24.5252583,"lon":120.7960993,"name":"豪榮社區","decorType":"bus_stop"},{"id":"node-6787322329","lat":24.5243383,"lon":120.7951283,"name":"福泰新村","decorType":"bus_stop"},{"id":"node-6787322330","lat":24.5240333,"lon":120.7951793,"name":"福泰新村","decorType":"bus_stop"},{"id":"node-6787322331","lat":24.5229791,"lon":120.7936773,"name":"南興","decorType":"bus_stop"},{"id":"node-6787322332","lat":24.5229181,"lon":120.7938918,"name":"南興","decorType":"bus_stop"},{"id":"node-6787322333","lat":24.5218993,"lon":120.7921779,"name":"南勢","decorType":"bus_stop"},{"id":"node-6787322334","lat":24.5218956,"lon":120.7916911,"name":"南勢","decorType":"bus_stop"},{"id":"node-6787331687","lat":24.5337524,"lon":120.8044758,"name":"坪頂","decorType":"bus_stop"},{"id":"node-6787331688","lat":24.5306877,"lon":120.801402,"name":"坪頂社區","decorType":"bus_stop"},{"id":"node-6832941375","lat":24.6080495,"lon":120.8147836,"name":"英才書院","decorType":"bus_stop"},{"id":"node-6832941376","lat":24.6077617,"lon":120.8145636,"name":"英才書院","decorType":"bus_stop"},{"id":"node-6832941377","lat":24.6102417,"lon":120.8097115,"name":"復興里","decorType":"bus_stop"},{"id":"node-6832941378","lat":24.6110001,"lon":120.8097947,"name":"復興里","decorType":"bus_stop"},{"id":"node-6832941379","lat":24.6161551,"lon":120.7989076,"name":"大庄里","decorType":"bus_stop"},{"id":"node-6832941380","lat":24.6160259,"lon":120.7988137,"name":"大庄里","decorType":"bus_stop"},{"id":"node-6832941381","lat":24.6163697,"lon":120.7930496,"name":"寶雅","decorType":"pharmacy"},{"id":"node-6832941382","lat":24.6164233,"lon":120.7927975,"name":"後龍加油站","decorType":"bus_stop"},{"id":"node-6832941383","lat":24.6165148,"lon":120.7927009,"name":"後龍加油站","decorType":"bus_stop"},{"id":"node-6832941384","lat":24.6163014,"lon":120.7909106,"name":"全聯福利中心","decorType":"supermarket"},{"id":"node-6832971285","lat":24.6164989,"lon":120.7905096,"name":"未命名公車站","decorType":"bus_stop"},{"id":"node-6832971286","lat":24.6163185,"lon":120.7900831,"name":"未命名公車站","decorType":"bus_stop"},{"id":"node-6832986822","lat":24.6328525,"lon":120.8260784,"name":"龍音湖","decorType":"bus_stop"},{"id":"node-6832986823","lat":24.6327452,"lon":120.8263385,"name":"龍音湖","decorType":"bus_stop"},{"id":"node-6832986849","lat":24.6287686,"lon":120.824056,"name":"中潭站","decorType":"bus_stop"},{"id":"node-6832986850","lat":24.6288198,"lon":120.8241847,"name":"中潭站","decorType":"bus_stop"},{"id":"node-6832986858","lat":24.6103173,"lon":120.8259736,"name":"新港國小","decorType":"bus_stop"},{"id":"node-6832986859","lat":24.6103905,"lon":120.8259818,"name":"新港國小","decorType":"bus_stop"},{"id":"node-6843943205","lat":24.4912315,"lon":120.8273564,"name":"荷塘居餐坊","decorType":"restaurant"},{"id":"node-6871042389","lat":24.5328862,"lon":120.8035558,"name":"大坪頂","decorType":"bus_stop"},{"id":"node-6871042390","lat":24.5322786,"lon":120.80336,"name":"大坪頂","decorType":"bus_stop"},{"id":"node-6871042391","lat":24.5306804,"lon":120.8013377,"name":"歐麗旺","decorType":"bus_stop"},{"id":"node-6871042392","lat":24.5303095,"lon":120.80152,"name":"歐麗旺","decorType":"bus_stop"},{"id":"node-6871087813","lat":24.5693136,"lon":120.8245656,"name":"北苗","decorType":"bus_stop"},{"id":"node-6871087814","lat":24.5664058,"lon":120.8243296,"name":"上苗","decorType":"bus_stop"},{"id":"node-6871087815","lat":24.5652007,"lon":120.8242384,"name":"建功國小","decorType":"bus_stop"},{"id":"node-6871087816","lat":24.5622141,"lon":120.8232141,"name":"民權街口","decorType":"bus_stop"},{"id":"node-6871087817","lat":24.5600607,"lon":120.8220524,"name":"文化街","decorType":"bus_stop"},{"id":"node-6871087818","lat":24.5605925,"lon":120.8223715,"name":"大川醫院","decorType":"bus_stop"},{"id":"node-6871087819","lat":24.558314,"lon":120.8211002,"name":"台銀前","decorType":"bus_stop"},{"id":"node-6871087820","lat":24.5542667,"lon":120.8187801,"name":"市場前","decorType":"bus_stop"},{"id":"node-6871087821","lat":24.5565526,"lon":120.8200997,"name":"苗栗市農會","decorType":"bus_stop"},{"id":"node-6871087822","lat":24.5526614,"lon":120.8172069,"name":"三角公園","decorType":"bus_stop"},{"id":"node-6875076129","lat":24.5711235,"lon":120.8247185,"name":"北苗市場","decorType":"bus_stop"},{"id":"node-6875102708","lat":24.5930292,"lon":120.8241633,"name":"經國路口","decorType":"bus_stop"},{"id":"node-6875102709","lat":24.5922292,"lon":120.8246621,"name":"經國路口","decorType":"bus_stop"},{"id":"node-6875106181","lat":24.5838464,"lon":120.8250296,"name":"彭厝","decorType":"bus_stop"},{"id":"node-6875106182","lat":24.5838464,"lon":120.8252656,"name":"彭厝","decorType":"bus_stop"},{"id":"node-6875106183","lat":24.5813463,"lon":120.8248714,"name":"田寮","decorType":"bus_stop"},{"id":"node-6875106184","lat":24.5813268,"lon":120.8246863,"name":"田寮","decorType":"bus_stop"},{"id":"node-6875106388","lat":24.5764607,"lon":120.8246005,"name":"國華路口","decorType":"bus_stop"},{"id":"node-6875106389","lat":24.5765802,"lon":120.8247587,"name":"國華路口","decorType":"bus_stop"},{"id":"node-6875444601","lat":24.6118195,"lon":120.8356351,"name":"豐湖","decorType":"bus_stop"},{"id":"node-6875444602","lat":24.6115756,"lon":120.8356512,"name":"豐湖","decorType":"bus_stop"},{"id":"node-6875482863","lat":24.6256915,"lon":120.8516479,"name":"崎頂","decorType":"bus_stop"},{"id":"node-6875482864","lat":24.625711,"lon":120.8512536,"name":"崎頂","decorType":"bus_stop"},{"id":"node-6875581354","lat":24.6319382,"lon":120.8558214,"name":"張厝","decorType":"bus_stop"},{"id":"node-6875581355","lat":24.6315578,"lon":120.8558831,"name":"張厝","decorType":"bus_stop"},{"id":"node-7108867228","lat":24.5572674,"lon":120.81763,"name":"車前福德祠","decorType":"shrine"},{"id":"node-7177469054","lat":24.5851841,"lon":120.8860181,"name":"阿賢麵點","decorType":"restaurant"},{"id":"node-7177469055","lat":24.5852798,"lon":120.8860579,"name":"明德飲食店","decorType":"restaurant"},{"id":"node-7177469056","lat":24.5863948,"lon":120.8878104,"name":"老田寮客家美食館","decorType":"restaurant"},{"id":"node-7177469057","lat":24.5856611,"lon":120.886585,"name":"元福小吃店","decorType":"restaurant"},{"id":"node-7177469058","lat":24.5860309,"lon":120.8873874,"name":"西餐廳","decorType":"restaurant"},{"id":"node-7177471195","lat":24.5291431,"lon":120.8191609,"name":"客家麵食館","decorType":"restaurant"},{"id":"node-7177471200","lat":24.5309729,"lon":120.8181622,"name":"首戶牛排","decorType":"restaurant"},{"id":"node-7180622611","lat":24.5564678,"lon":120.8200663,"name":"三統大飯店","decorType":"hotel"},{"id":"node-7309444612","lat":24.5562183,"lon":120.834468,"name":"苗栗農工","decorType":"bus_stop"},{"id":"node-7309444613","lat":24.5531054,"lon":120.8154917,"name":"苗栗站","decorType":"bus_stop"},{"id":"node-7343450087","lat":24.5523109,"lon":120.81727,"name":"江技舊記餛飩店","decorType":"restaurant"},{"id":"node-7368082731","lat":24.5467407,"lon":120.7972823,"name":"觀音宮","decorType":"shrine"},{"id":"node-7400853753","lat":24.5714455,"lon":120.8299997,"name":"萊爾富","decorType":"convenience"},{"id":"node-7400853754","lat":24.5716931,"lon":120.830048,"name":"85度C","decorType":"cafe"},{"id":"node-7400853759","lat":24.5670498,"lon":120.8271298,"name":"邱家粄條","decorType":"restaurant"},{"id":"node-7400853760","lat":24.5652555,"lon":120.8269814,"name":"玉清芒埔伯公祠","decorType":"shrine"},{"id":"node-7400860791","lat":24.5729774,"lon":120.8356377,"name":"全家便利商店","decorType":"convenience"},{"id":"node-7440307250","lat":24.5515269,"lon":120.8141559,"name":"南苗派出所","decorType":"bus_stop"},{"id":"node-7440307251","lat":24.5513025,"lon":120.8138797,"name":"南苗派出所","decorType":"bus_stop"},{"id":"node-7440329710","lat":24.538547,"lon":120.8110419,"name":"育民工家","decorType":"bus_stop"},{"id":"node-7440364513","lat":24.5903903,"lon":120.7936156,"name":"龍莊","decorType":"bus_stop"},{"id":"node-7440364514","lat":24.5903171,"lon":120.7938811,"name":"龍莊","decorType":"bus_stop"},{"id":"node-7440370018","lat":24.5733909,"lon":120.805766,"name":"新川","decorType":"bus_stop"},{"id":"node-7440370019","lat":24.5734628,"lon":120.8054642,"name":"新川","decorType":"bus_stop"},{"id":"node-7440370020","lat":24.572031,"lon":120.8073565,"name":"茶亭","decorType":"bus_stop"},{"id":"node-7440370021","lat":24.5716163,"lon":120.8075014,"name":"茶亭","decorType":"bus_stop"},{"id":"node-7440370056","lat":24.5672108,"lon":120.809918,"name":"監理站","decorType":"bus_stop"},{"id":"node-7440370057","lat":24.5669839,"lon":120.8097759,"name":"監理站","decorType":"bus_stop"},{"id":"node-7440370059","lat":24.5644421,"lon":120.811345,"name":"西山","decorType":"bus_stop"},{"id":"node-7440370060","lat":24.5641371,"lon":120.8116561,"name":"西山","decorType":"bus_stop"},{"id":"node-7440370061","lat":24.5640877,"lon":120.8117661,"name":"苗栗文山郵局","decorType":"post_office"},{"id":"node-7440370062","lat":24.5633199,"lon":120.8120477,"name":"福麗","decorType":"bus_stop"},{"id":"node-7440370063","lat":24.5631711,"lon":120.8119351,"name":"福麗","decorType":"bus_stop"},{"id":"node-7440370064","lat":24.5620928,"lon":120.8130214,"name":"鳳形","decorType":"bus_stop"},{"id":"node-7440370065","lat":24.5619465,"lon":120.8129811,"name":"鳳形","decorType":"bus_stop"},{"id":"node-7440389808","lat":24.5871586,"lon":120.7967886,"name":"圓墩","decorType":"bus_stop"},{"id":"node-7440389809","lat":24.5869819,"lon":120.796503,"name":"圓墩","decorType":"bus_stop"},{"id":"node-7440389821","lat":24.5839147,"lon":120.7982424,"name":"竹圍","decorType":"bus_stop"},{"id":"node-7440389822","lat":24.5840952,"lon":120.7983966,"name":"竹圍","decorType":"bus_stop"},{"id":"node-7440389824","lat":24.5822159,"lon":120.7996251,"name":"恩祖廟","decorType":"bus_stop"},{"id":"node-7440389825","lat":24.5824317,"lon":120.7998195,"name":"恩祖廟","decorType":"bus_stop"},{"id":"node-7440389826","lat":24.5813951,"lon":120.8003104,"name":"葉屋","decorType":"bus_stop"},{"id":"node-7440389827","lat":24.5812805,"lon":120.8000556,"name":"葉屋","decorType":"bus_stop"},{"id":"node-7440389828","lat":24.5787303,"lon":120.8032648,"name":"南勢坑","decorType":"bus_stop"},{"id":"node-7440389829","lat":24.5789047,"lon":120.8033225,"name":"南勢坑","decorType":"bus_stop"},{"id":"node-7440409829","lat":24.5956769,"lon":120.7888704,"name":"後龍底","decorType":"bus_stop"},{"id":"node-7440409830","lat":24.5955425,"lon":120.7886582,"name":"後龍底","decorType":"bus_stop"},{"id":"node-7440409831","lat":24.5937822,"lon":120.791213,"name":"無極聖宮","decorType":"bus_stop"},{"id":"node-7440409832","lat":24.5933719,"lon":120.7913129,"name":"無極聖宮","decorType":"bus_stop"},{"id":"node-7440420209","lat":24.6166404,"lon":120.7936853,"name":"成功牛排","decorType":"restaurant"},{"id":"node-7440448601","lat":24.6057864,"lon":120.8256546,"name":"全家便利商店","decorType":"convenience"},{"id":"node-7440448602","lat":24.6057574,"lon":120.8256088,"name":"星巴克","decorType":"cafe"},{"id":"node-7440448603","lat":24.6300706,"lon":120.8234203,"name":"中潭","decorType":"bus_stop"},{"id":"node-7440448604","lat":24.6299852,"lon":120.8229053,"name":"中潭","decorType":"bus_stop"},{"id":"node-7440448607","lat":24.6257842,"lon":120.8178708,"name":"草潭","decorType":"bus_stop"},{"id":"node-7440448608","lat":24.625711,"lon":120.8175087,"name":"草潭","decorType":"bus_stop"},{"id":"node-7440448609","lat":24.6229606,"lon":120.8149123,"name":"埔頂里","decorType":"bus_stop"},{"id":"node-7440448610","lat":24.6211563,"lon":120.8090463,"name":"台灣國寶","decorType":"bus_stop"},{"id":"node-7440448611","lat":24.6212721,"lon":120.8085112,"name":"台灣國寶","decorType":"bus_stop"},{"id":"node-7440448612","lat":24.6197932,"lon":120.8026573,"name":"竹子崙","decorType":"bus_stop"},{"id":"node-7440448613","lat":24.6199005,"lon":120.8018231,"name":"竹子崙","decorType":"bus_stop"},{"id":"node-7561340586","lat":24.6156037,"lon":120.7902044,"name":"排骨麵","decorType":"restaurant"},{"id":"node-7705066330","lat":24.612217,"lon":120.7897478,"name":"未命名郵局","decorType":"post_office"},{"id":"node-7705066364","lat":24.6133826,"lon":120.7920143,"name":"後龍鎮公所","decorType":"bus_stop"},{"id":"node-7705066365","lat":24.6135777,"lon":120.7920116,"name":"後龍鎮公所","decorType":"bus_stop"},{"id":"node-7705066366","lat":24.6169549,"lon":120.7917997,"name":"田心","decorType":"bus_stop"},{"id":"node-7705082787","lat":24.6249698,"lon":120.7952088,"name":"路尾","decorType":"bus_stop"},{"id":"node-7705082788","lat":24.6253563,"lon":120.7957198,"name":"路尾","decorType":"bus_stop"},{"id":"node-7705082791","lat":24.6304022,"lon":120.7989559,"name":"詹厝","decorType":"bus_stop"},{"id":"node-7705082792","lat":24.6306252,"lon":120.7992978,"name":"詹厝","decorType":"bus_stop"},{"id":"node-7713747964","lat":24.4727119,"lon":120.8302948,"name":"福基","decorType":"bus_stop"},{"id":"node-7713747965","lat":24.4752361,"lon":120.8300775,"name":"福園","decorType":"bus_stop"},{"id":"node-7713747966","lat":24.4794715,"lon":120.8299676,"name":"福星","decorType":"bus_stop"},{"id":"node-7713747967","lat":24.479557,"lon":120.8297583,"name":"福星","decorType":"bus_stop"},{"id":"node-7713747971","lat":24.4863821,"lon":120.8289483,"name":"全家便利商店","decorType":"convenience"},{"id":"node-7713747972","lat":24.4834431,"lon":120.8291388,"name":"福全","decorType":"bus_stop"},{"id":"node-7713747973","lat":24.4836897,"lon":120.8292782,"name":"福全","decorType":"bus_stop"},{"id":"node-7713763791","lat":24.483924,"lon":120.8167335,"name":"石墻","decorType":"bus_stop"},{"id":"node-7713763792","lat":24.4836384,"lon":120.8166933,"name":"石墻","decorType":"bus_stop"},{"id":"node-7713831744","lat":24.4660228,"lon":120.8793229,"name":"桂竹林","decorType":"bus_stop"},{"id":"node-7713831745","lat":24.4661473,"lon":120.8791029,"name":"桂竹林","decorType":"bus_stop"},{"id":"node-7713831758","lat":24.466743,"lon":120.86824,"name":"東坑","decorType":"bus_stop"},{"id":"node-7713831759","lat":24.4665818,"lon":120.8679664,"name":"東坑","decorType":"bus_stop"},{"id":"node-7713833280","lat":24.4653978,"lon":120.8623713,"name":"福德","decorType":"bus_stop"},{"id":"node-7713833281","lat":24.465659,"lon":120.8620387,"name":"福德","decorType":"bus_stop"},{"id":"node-7713833282","lat":24.4638573,"lon":120.8520395,"name":"出礦坑","decorType":"bus_stop"},{"id":"node-7713833283","lat":24.4642113,"lon":120.8518785,"name":"出礦坑","decorType":"bus_stop"},{"id":"node-7713833284","lat":24.4656614,"lon":120.8489791,"name":"精米所","decorType":"bus_stop"},{"id":"node-7713839281","lat":24.466389,"lon":120.8432847,"name":"楊喜崎","decorType":"bus_stop"},{"id":"node-7713839282","lat":24.4662669,"lon":120.8432445,"name":"楊喜崎","decorType":"bus_stop"},{"id":"node-7713844211","lat":24.4519475,"lon":120.8753076,"name":"清安入口","decorType":"bus_stop"},{"id":"node-7713845286","lat":24.4667161,"lon":120.8349632,"name":"上福基","decorType":"bus_stop"},{"id":"node-7713845287","lat":24.4666368,"lon":120.8348384,"name":"上福基","decorType":"bus_stop"},{"id":"node-7713845338","lat":24.47009,"lon":120.8311236,"name":"黃金小鎮","decorType":"bus_stop"},{"id":"node-7713845339","lat":24.4701364,"lon":120.8312644,"name":"黃金小鎮","decorType":"bus_stop"},{"id":"node-7771940292","lat":24.6243824,"lon":120.8471906,"name":"香格里拉","decorType":"bus_stop"},{"id":"node-7771940293","lat":24.6240606,"lon":120.8465233,"name":"香格里拉","decorType":"bus_stop"},{"id":"node-7771940294","lat":24.6160423,"lon":120.8383547,"name":"大衛營","decorType":"bus_stop"},{"id":"node-7771940295","lat":24.6159684,"lon":120.838254,"name":"大衛營","decorType":"bus_stop"},{"id":"node-7771940298","lat":24.6073263,"lon":120.8320826,"name":"新蓮寺","decorType":"bus_stop"},{"id":"node-7771940299","lat":24.6073967,"lon":120.8322867,"name":"新蓮寺","decorType":"bus_stop"},{"id":"node-7771940300","lat":24.605525,"lon":120.8246904,"name":"高鐵苗栗站","decorType":"bus_stop"},{"id":"node-7771940301","lat":24.6055113,"lon":120.8246448,"name":"高鐵苗栗站","decorType":"bus_stop"},{"id":"node-7771940302","lat":24.6054911,"lon":120.8246049,"name":"高鐵苗栗站","decorType":"bus_stop"},{"id":"node-7771940303","lat":24.605469,"lon":120.8245593,"name":"高鐵苗栗站","decorType":"bus_stop"},{"id":"node-7771940304","lat":24.6054507,"lon":120.824512,"name":"高鐵苗栗站","decorType":"bus_stop"},{"id":"node-7771940305","lat":24.6054325,"lon":120.8244605,"name":"高鐵苗栗站","decorType":"bus_stop"},{"id":"node-7771940306","lat":24.6054115,"lon":120.8244122,"name":"高鐵苗栗站","decorType":"bus_stop"},{"id":"node-7771940307","lat":24.6006529,"lon":120.8290521,"name":"二張犁","decorType":"bus_stop"},{"id":"node-7771940308","lat":24.6006874,"lon":120.8292183,"name":"二張犁","decorType":"bus_stop"},{"id":"node-7771940309","lat":24.5859068,"lon":120.8250799,"name":"福星新村","decorType":"bus_stop"},{"id":"node-7771940310","lat":24.5859553,"lon":120.8252073,"name":"福星新村","decorType":"bus_stop"},{"id":"node-7771940311","lat":24.5708362,"lon":120.8245537,"name":"北苗市場","decorType":"bus_stop"},{"id":"node-7771940312","lat":24.5553552,"lon":120.8192742,"name":"合作金庫","decorType":"bus_stop"},{"id":"node-7772364439","lat":24.6230606,"lon":120.8142226,"name":"埔頂里","decorType":"bus_stop"},{"id":"node-7794847689","lat":24.5283953,"lon":120.8186368,"name":"艾葛來牛肉麵","decorType":"restaurant"},{"id":"node-7984663515","lat":24.5669418,"lon":120.8209842,"name":"找餐殿","decorType":"restaurant"},{"id":"node-7984668002","lat":24.5643467,"lon":120.8135191,"name":"7-Eleven","decorType":"convenience"},{"id":"node-8058964376","lat":24.564479,"lon":120.82314,"name":"福星大旅社","decorType":"hotel"},{"id":"node-8058964377","lat":24.559853,"lon":120.82143,"name":"綠庭商務旅館","decorType":"hotel"},{"id":"node-8058964379","lat":24.556775,"lon":120.820545,"name":"園霖大飯店","decorType":"hotel"},{"id":"node-8058964380","lat":24.556416,"lon":120.818697,"name":"丸松大旅社","decorType":"hotel"},{"id":"node-8058964381","lat":24.551627,"lon":120.815963,"name":"南苗大旅社","decorType":"hotel"},{"id":"node-8059094179","lat":24.4237439,"lon":120.8681443,"name":"采莓行館","decorType":"hotel"},{"id":"node-8059094184","lat":24.413796,"lon":120.862634,"name":"太湖民宿","decorType":"hotel"},{"id":"node-8059100997","lat":24.4336959,"lon":120.9146746,"name":"天然居民宿","decorType":"hotel"},{"id":"node-8059101010","lat":24.418282,"lon":120.861306,"name":"竹高屋民宿","decorType":"hotel"},{"id":"node-8059101011","lat":24.4255835,"lon":120.8954785,"name":"日光森林","decorType":"hotel"},{"id":"node-8059101019","lat":24.423668,"lon":120.867234,"name":"錦興旅社","decorType":"hotel"},{"id":"node-8118272777","lat":24.5696214,"lon":120.8224729,"name":"全家便利商店","decorType":"convenience"},{"id":"node-8118272918","lat":24.6149408,"lon":120.7885086,"name":"全家便利商店","decorType":"convenience"},{"id":"node-8229955283","lat":24.6170863,"lon":120.7920126,"name":"田心","decorType":"bus_stop"},{"id":"node-8229955284","lat":24.614496,"lon":120.7901586,"name":"後龍站","decorType":"bus_stop"},{"id":"node-8229955285","lat":24.6145646,"lon":120.7901791,"name":"後龍站","decorType":"bus_stop"},{"id":"node-8230578321","lat":24.527153,"lon":120.7976155,"name":"新英國小","decorType":"bus_stop"},{"id":"node-8230578322","lat":24.4912804,"lon":120.7879109,"name":"銅鑼天主堂","decorType":"bus_stop"},{"id":"node-8230578323","lat":24.4897533,"lon":120.7878225,"name":"銅鑼","decorType":"bus_stop"},{"id":"node-8234360633","lat":24.5457856,"lon":120.8124282,"name":"二坪山","decorType":"bus_stop"},{"id":"node-8234360634","lat":24.5380032,"lon":120.8117896,"name":"育民工家","decorType":"bus_stop"},{"id":"node-8234360635","lat":24.5392069,"lon":120.7898011,"name":"八甲校區2","decorType":"bus_stop"},{"id":"node-8234360636","lat":24.539274,"lon":120.7901613,"name":"八甲校區2","decorType":"bus_stop"},{"id":"node-8234360637","lat":24.5364519,"lon":120.788117,"name":"八甲校區1","decorType":"bus_stop"},{"id":"node-8234360638","lat":24.5199975,"lon":120.7886759,"name":"五湖口","decorType":"bus_stop"},{"id":"node-8234360660","lat":24.5604502,"lon":120.8151612,"name":"建臺高中","decorType":"bus_stop"},{"id":"node-8234360665","lat":24.600333,"lon":120.8279982,"name":"二張犁","decorType":"bus_stop"},{"id":"node-8234360666","lat":24.6004882,"lon":120.8282187,"name":"二張犁","decorType":"bus_stop"},{"id":"node-8234360667","lat":24.6014245,"lon":120.8230541,"name":"豐富","decorType":"bus_stop"},{"id":"node-8234360668","lat":24.6013044,"lon":120.8230127,"name":"豐富","decorType":"bus_stop"},{"id":"node-8234360671","lat":24.603854,"lon":120.8187757,"name":"下庄","decorType":"bus_stop"},{"id":"node-8234360672","lat":24.6039124,"lon":120.8188053,"name":"下庄","decorType":"bus_stop"},{"id":"node-8234360673","lat":24.6050601,"lon":120.8151357,"name":"伯公下","decorType":"bus_stop"},{"id":"node-8234360674","lat":24.6050695,"lon":120.8150546,"name":"伯公下","decorType":"bus_stop"},{"id":"node-8234360679","lat":24.611112,"lon":120.8137688,"name":"新港","decorType":"bus_stop"},{"id":"node-8234360680","lat":24.6108651,"lon":120.8138668,"name":"新港","decorType":"bus_stop"},{"id":"node-8234360681","lat":24.6107616,"lon":120.8110843,"name":"社下","decorType":"bus_stop"},{"id":"node-8234360682","lat":24.6106458,"lon":120.8111046,"name":"社下","decorType":"bus_stop"},{"id":"node-8234360683","lat":24.6108615,"lon":120.8061753,"name":"田尾","decorType":"bus_stop"},{"id":"node-8234360684","lat":24.6107095,"lon":120.806166,"name":"田尾","decorType":"bus_stop"},{"id":"node-8234360685","lat":24.6117294,"lon":120.7982075,"name":"民族路口","decorType":"bus_stop"},{"id":"node-8234360686","lat":24.6115291,"lon":120.7982937,"name":"民族路口","decorType":"bus_stop"},{"id":"node-8234360687","lat":24.6135375,"lon":120.7958882,"name":"大庄","decorType":"bus_stop"},{"id":"node-8234360688","lat":24.6135938,"lon":120.7959731,"name":"大庄","decorType":"bus_stop"},{"id":"node-8234360689","lat":24.6164989,"lon":120.7883717,"name":"金龍旅社","decorType":"bus_stop"},{"id":"node-8234360690","lat":24.6163888,"lon":120.7882639,"name":"金龍旅社","decorType":"bus_stop"},{"id":"node-8234360716","lat":24.569384,"lon":120.8230555,"name":"新竹客運苗栗站","decorType":"bus_stop"},{"id":"node-8236875351","lat":24.4860017,"lon":120.7884128,"name":"圖書館","decorType":"bus_stop"},{"id":"node-8236875352","lat":24.4861019,"lon":120.788433,"name":"圖書館","decorType":"bus_stop"},{"id":"node-8236875353","lat":24.4854481,"lon":120.7924756,"name":"黃泥崎","decorType":"bus_stop"},{"id":"node-8236875354","lat":24.4854972,"lon":120.7927263,"name":"黃泥崎","decorType":"bus_stop"},{"id":"node-8236875361","lat":24.4835248,"lon":120.7948742,"name":"工業社區","decorType":"bus_stop"},{"id":"node-8236875362","lat":24.483565,"lon":120.7949692,"name":"工業社區","decorType":"bus_stop"},{"id":"node-8236875363","lat":24.4801233,"lon":120.7964115,"name":"雙峰口","decorType":"bus_stop"},{"id":"node-8236875364","lat":24.4801646,"lon":120.79653,"name":"雙峰口","decorType":"bus_stop"},{"id":"node-8236875365","lat":24.4729465,"lon":120.8041835,"name":"七十份","decorType":"bus_stop"},{"id":"node-8236875366","lat":24.4725546,"lon":120.8043086,"name":"七十份","decorType":"bus_stop"},{"id":"node-8236875367","lat":24.4661093,"lon":120.806954,"name":"河底","decorType":"bus_stop"},{"id":"node-8236875368","lat":24.4661829,"lon":120.8070771,"name":"河底","decorType":"bus_stop"},{"id":"node-8236875369","lat":24.4650114,"lon":120.811292,"name":"老雞隆","decorType":"bus_stop"},{"id":"node-8236875370","lat":24.4647986,"lon":120.8114674,"name":"老雞隆","decorType":"bus_stop"},{"id":"node-8236875371","lat":24.4631365,"lon":120.8123059,"name":"興隆國小","decorType":"bus_stop"},{"id":"node-8236875372","lat":24.4628061,"lon":120.8123659,"name":"興隆國小","decorType":"bus_stop"},{"id":"node-8236875373","lat":24.4607521,"lon":120.8139723,"name":"廖屋","decorType":"bus_stop"},{"id":"node-8236875374","lat":24.4602748,"lon":120.8138073,"name":"廖屋","decorType":"bus_stop"},{"id":"node-8236875375","lat":24.4573984,"lon":120.8139134,"name":"汴頭","decorType":"bus_stop"},{"id":"node-8236875376","lat":24.4575377,"lon":120.8140356,"name":"汴頭","decorType":"bus_stop"},{"id":"node-8236875377","lat":24.4545545,"lon":120.8152219,"name":"圓墩","decorType":"bus_stop"},{"id":"node-8236875378","lat":24.4544268,"lon":120.8153589,"name":"圓墩","decorType":"bus_stop"},{"id":"node-8236875379","lat":24.4503071,"lon":120.8152035,"name":"社寮","decorType":"bus_stop"},{"id":"node-8236875380","lat":24.4501443,"lon":120.8154528,"name":"社寮","decorType":"bus_stop"},{"id":"node-8236875381","lat":24.4485678,"lon":120.8132021,"name":"高橋坑","decorType":"bus_stop"},{"id":"node-8236875382","lat":24.4482641,"lon":120.8132985,"name":"高橋坑","decorType":"bus_stop"},{"id":"node-8236875383","lat":24.4459272,"lon":120.8109605,"name":"盛隆口","decorType":"bus_stop"},{"id":"node-8236875384","lat":24.4458046,"lon":120.8111112,"name":"盛隆口","decorType":"bus_stop"},{"id":"node-8236875385","lat":24.4437325,"lon":120.8106601,"name":"盛隆","decorType":"bus_stop"},{"id":"node-8236875386","lat":24.4437933,"lon":120.8108332,"name":"盛隆","decorType":"bus_stop"},{"id":"node-8236875387","lat":24.4409441,"lon":120.8124876,"name":"彭屋","decorType":"bus_stop"},{"id":"node-8236875388","lat":24.4406345,"lon":120.8127024,"name":"彭屋","decorType":"bus_stop"},{"id":"node-8236875389","lat":24.4386191,"lon":120.8122621,"name":"茄苳坑","decorType":"bus_stop"},{"id":"node-8236875390","lat":24.4386445,"lon":120.8124212,"name":"茄苳坑","decorType":"bus_stop"},{"id":"node-8236875392","lat":24.434548,"lon":120.8104326,"name":"福德","decorType":"bus_stop"},{"id":"node-8236875393","lat":24.4343945,"lon":120.8104902,"name":"福德","decorType":"bus_stop"},{"id":"node-8236875394","lat":24.432775,"lon":120.8096003,"name":"辦事處","decorType":"bus_stop"},{"id":"node-8236875395","lat":24.4327359,"lon":120.8097512,"name":"辦事處","decorType":"bus_stop"},{"id":"node-8236875398","lat":24.5289176,"lon":120.8190023,"name":"鶴岡口","decorType":"bus_stop"},{"id":"node-8236875399","lat":24.5290156,"lon":120.8191039,"name":"鶴岡口","decorType":"bus_stop"},{"id":"node-8236875405","lat":24.5293335,"lon":120.8218663,"name":"新珠廠","decorType":"bus_stop"},{"id":"node-8236875406","lat":24.5294179,"lon":120.8218121,"name":"新珠廠","decorType":"bus_stop"},{"id":"node-8236875407","lat":24.530203,"lon":120.8234279,"name":"德馨社區","decorType":"bus_stop"},{"id":"node-8236875408","lat":24.5305332,"lon":120.8237414,"name":"德馨社區","decorType":"bus_stop"},{"id":"node-8236875409","lat":24.5311742,"lon":120.8252286,"name":"高禾程","decorType":"bus_stop"},{"id":"node-8236875410","lat":24.5312433,"lon":120.8252126,"name":"高禾程","decorType":"bus_stop"},{"id":"node-8236875411","lat":24.5313931,"lon":120.8312663,"name":"鶴岡","decorType":"bus_stop"},{"id":"node-8236875412","lat":24.5315047,"lon":120.831291,"name":"鶴岡","decorType":"bus_stop"},{"id":"node-8236875413","lat":24.5318135,"lon":120.8280573,"name":"宏福社區","decorType":"bus_stop"},{"id":"node-8236875414","lat":24.531017,"lon":120.8335835,"name":"胡厝","decorType":"bus_stop"},{"id":"node-8236875415","lat":24.5310436,"lon":120.8336935,"name":"胡厝","decorType":"bus_stop"},{"id":"node-8236875416","lat":24.5280479,"lon":120.836615,"name":"東西橋","decorType":"bus_stop"},{"id":"node-8236875417","lat":24.5281494,"lon":120.8366139,"name":"東西橋","decorType":"bus_stop"},{"id":"node-8236875418","lat":24.528211,"lon":120.8397814,"name":"寬仁","decorType":"bus_stop"},{"id":"node-8236875419","lat":24.5283118,"lon":120.8398029,"name":"寬仁","decorType":"bus_stop"},{"id":"node-8236875420","lat":24.5244887,"lon":120.849244,"name":"善西橋","decorType":"bus_stop"},{"id":"node-8236875421","lat":24.5245183,"lon":120.8491522,"name":"善西橋","decorType":"bus_stop"},{"id":"node-8236875429","lat":24.5276463,"lon":120.8502242,"name":"新庄角","decorType":"bus_stop"},{"id":"node-8236875430","lat":24.5278512,"lon":120.850194,"name":"新庄角","decorType":"bus_stop"},{"id":"node-8236875433","lat":24.5298249,"lon":120.8528933,"name":"南河國小","decorType":"bus_stop"},{"id":"node-8236875434","lat":24.5298933,"lon":120.8528229,"name":"南河國小","decorType":"bus_stop"},{"id":"node-8236875442","lat":24.5333288,"lon":120.8561932,"name":"玉清寺口","decorType":"bus_stop"},{"id":"node-8236875443","lat":24.5332209,"lon":120.8563278,"name":"玉清寺口","decorType":"bus_stop"},{"id":"node-8236875444","lat":24.5352372,"lon":120.8596001,"name":"北河活動中心","decorType":"bus_stop"},{"id":"node-8236875445","lat":24.5209437,"lon":120.8097486,"name":"張厝","decorType":"bus_stop"},{"id":"node-8236875446","lat":24.520984,"lon":120.8096676,"name":"張厝","decorType":"bus_stop"},{"id":"node-8236875447","lat":24.5225373,"lon":120.810984,"name":"葉厝","decorType":"bus_stop"},{"id":"node-8236875448","lat":24.5224657,"lon":120.8108713,"name":"葉厝","decorType":"bus_stop"},{"id":"node-8236875449","lat":24.5184639,"lon":120.8083996,"name":"和平","decorType":"bus_stop"},{"id":"node-8236875450","lat":24.5184176,"lon":120.8085361,"name":"和平","decorType":"bus_stop"},{"id":"node-8236875451","lat":24.5164086,"lon":120.8079993,"name":"友全陶瓷","decorType":"bus_stop"},{"id":"node-8236875452","lat":24.5163818,"lon":120.8081338,"name":"友全陶瓷","decorType":"bus_stop"},{"id":"node-8236875453","lat":24.5143148,"lon":120.8075791,"name":"復安","decorType":"bus_stop"},{"id":"node-8236875454","lat":24.5141473,"lon":120.8076922,"name":"復安","decorType":"bus_stop"},{"id":"node-8236875455","lat":24.5093697,"lon":120.8093286,"name":"東岡","decorType":"bus_stop"},{"id":"node-8236875456","lat":24.5093451,"lon":120.809412,"name":"東岡","decorType":"bus_stop"},{"id":"node-8236875457","lat":24.5036658,"lon":120.8096008,"name":"中興","decorType":"bus_stop"},{"id":"node-8236875458","lat":24.5035411,"lon":120.8094856,"name":"中興","decorType":"bus_stop"},{"id":"node-8236875460","lat":24.5000879,"lon":120.8089388,"name":"下中興","decorType":"bus_stop"},{"id":"node-8236875461","lat":24.5000374,"lon":120.8090689,"name":"下中興","decorType":"bus_stop"},{"id":"node-8236875462","lat":24.4984431,"lon":120.8090129,"name":"中興國小","decorType":"bus_stop"},{"id":"node-8236875463","lat":24.4984293,"lon":120.8089242,"name":"中興國小","decorType":"bus_stop"},{"id":"node-8236875464","lat":24.4956047,"lon":120.8086975,"name":"中平","decorType":"bus_stop"},{"id":"node-8236875465","lat":24.4956867,"lon":120.8088278,"name":"中平","decorType":"bus_stop"},{"id":"node-8236875466","lat":24.4913204,"lon":120.8092211,"name":"天神宮","decorType":"bus_stop"},{"id":"node-8236875467","lat":24.4912051,"lon":120.8091558,"name":"天神宮","decorType":"bus_stop"},{"id":"node-8236875470","lat":24.487016,"lon":120.8101466,"name":"南爺","decorType":"bus_stop"},{"id":"node-8236875471","lat":24.4869204,"lon":120.8102764,"name":"南爺","decorType":"bus_stop"},{"id":"node-8236875472","lat":24.4841301,"lon":120.8098033,"name":"水頭伯公","decorType":"bus_stop"},{"id":"node-8236875473","lat":24.4841725,"lon":120.8099494,"name":"水頭伯公","decorType":"bus_stop"},{"id":"node-8236875482","lat":24.482673,"lon":120.8100787,"name":"七十份","decorType":"bus_stop"},{"id":"node-8236875483","lat":24.4825172,"lon":120.8101604,"name":"七十份","decorType":"bus_stop"},{"id":"node-8236875484","lat":24.4768554,"lon":120.8095959,"name":"堤防","decorType":"bus_stop"},{"id":"node-8236875485","lat":24.4769654,"lon":120.8096488,"name":"堤防","decorType":"bus_stop"},{"id":"node-8236875486","lat":24.4748632,"lon":120.812997,"name":"鄉界","decorType":"bus_stop"},{"id":"node-8236875487","lat":24.4747541,"lon":120.8129389,"name":"鄉界","decorType":"bus_stop"},{"id":"node-8236875488","lat":24.4727644,"lon":120.8175631,"name":"關爺宮","decorType":"bus_stop"},{"id":"node-8236875489","lat":24.4728484,"lon":120.817605,"name":"關爺宮","decorType":"bus_stop"},{"id":"node-8236875490","lat":24.4721825,"lon":120.8193096,"name":"石圍牆","decorType":"bus_stop"},{"id":"node-8236875491","lat":24.472001,"lon":120.8193895,"name":"石圍牆","decorType":"bus_stop"},{"id":"node-8236875492","lat":24.4725004,"lon":120.8259078,"name":"香埔","decorType":"bus_stop"},{"id":"node-8236875493","lat":24.4724006,"lon":120.8259114,"name":"香埔","decorType":"bus_stop"},{"id":"node-8236875494","lat":24.4722125,"lon":120.8300524,"name":"福基","decorType":"bus_stop"},{"id":"node-8239476328","lat":24.5270834,"lon":120.8192232,"name":"交流道口","decorType":"bus_stop"},{"id":"node-8239476329","lat":24.5270016,"lon":120.8195216,"name":"交流道口","decorType":"bus_stop"},{"id":"node-8239476333","lat":24.4860775,"lon":120.828765,"name":"枋屋","decorType":"bus_stop"},{"id":"node-8239476334","lat":24.4860944,"lon":120.8288894,"name":"枋屋","decorType":"bus_stop"},{"id":"node-8239476335","lat":24.4752582,"lon":120.8302577,"name":"福園","decorType":"bus_stop"},{"id":"node-8239476336","lat":24.4726497,"lon":120.8304745,"name":"福基","decorType":"bus_stop"},{"id":"node-8239476337","lat":24.4655544,"lon":120.8488989,"name":"精米所","decorType":"bus_stop"},{"id":"node-8239476343","lat":24.4254975,"lon":120.8691714,"name":"新竹客運大湖站","decorType":"bus_stop"},{"id":"node-8239476344","lat":24.4303421,"lon":120.8684103,"name":"活動中心","decorType":"bus_stop"},{"id":"node-8239476345","lat":24.430299,"lon":120.86861,"name":"活動中心","decorType":"bus_stop"},{"id":"node-8239476346","lat":24.4202183,"lon":120.8634856,"name":"法寶寺","decorType":"bus_stop"},{"id":"node-8239891942","lat":24.4221009,"lon":120.8680671,"name":"郵局前","decorType":"bus_stop"},{"id":"node-8239891943","lat":24.42214,"lon":120.8681513,"name":"郵局前","decorType":"bus_stop"},{"id":"node-8239891944","lat":24.4237045,"lon":120.869648,"name":"改良場前","decorType":"bus_stop"},{"id":"node-8239891945","lat":24.4237363,"lon":120.8695354,"name":"改良場前","decorType":"bus_stop"},{"id":"node-8239891946","lat":24.4253441,"lon":120.8703214,"name":"國中前","decorType":"bus_stop"},{"id":"node-8239891947","lat":24.4253772,"lon":120.8702439,"name":"國中前","decorType":"bus_stop"},{"id":"node-8239891948","lat":24.4292243,"lon":120.8799117,"name":"社寮角","decorType":"bus_stop"},{"id":"node-8239891949","lat":24.4293654,"lon":120.879918,"name":"社寮角","decorType":"bus_stop"},{"id":"node-8239891950","lat":24.4303325,"lon":120.8830974,"name":"橫坑","decorType":"bus_stop"},{"id":"node-8239891951","lat":24.430455,"lon":120.883092,"name":"橫坑","decorType":"bus_stop"},{"id":"node-8239891952","lat":24.4290694,"lon":120.8866806,"name":"屯兵營","decorType":"bus_stop"},{"id":"node-8239891953","lat":24.4291613,"lon":120.8867024,"name":"屯兵營","decorType":"bus_stop"},{"id":"node-8239891954","lat":24.4297593,"lon":120.8911022,"name":"香林","decorType":"bus_stop"},{"id":"node-8239891955","lat":24.4296139,"lon":120.8910519,"name":"香林","decorType":"bus_stop"},{"id":"node-8239891956","lat":24.4269459,"lon":120.8938118,"name":"茄苳樹下","decorType":"bus_stop"},{"id":"node-8239891957","lat":24.4270057,"lon":120.8938767,"name":"茄苳樹下","decorType":"bus_stop"},{"id":"node-8239891964","lat":24.4221822,"lon":120.8979305,"name":"小南勢","decorType":"bus_stop"},{"id":"node-8239891965","lat":24.4222876,"lon":120.8979962,"name":"小南勢","decorType":"bus_stop"},{"id":"node-8239891966","lat":24.4181262,"lon":120.8990013,"name":"活動中心","decorType":"bus_stop"},{"id":"node-8239891967","lat":24.4180139,"lon":120.8991246,"name":"活動中心","decorType":"bus_stop"},{"id":"node-8239891968","lat":24.4164915,"lon":120.8997247,"name":"蔗蔀坑","decorType":"bus_stop"},{"id":"node-8239891969","lat":24.416641,"lon":120.8997769,"name":"蔗蔀坑","decorType":"bus_stop"},{"id":"node-8239891970","lat":24.4144902,"lon":120.9001862,"name":"下反水","decorType":"bus_stop"},{"id":"node-8239891971","lat":24.4143612,"lon":120.9003123,"name":"下反水","decorType":"bus_stop"},{"id":"node-8239891982","lat":24.4491827,"lon":120.8777166,"name":"蠶種廠","decorType":"bus_stop"},{"id":"node-8239891983","lat":24.4491646,"lon":120.8778723,"name":"蠶種廠","decorType":"bus_stop"},{"id":"node-8239891984","lat":24.4528863,"lon":120.8752257,"name":"上溫泉口","decorType":"bus_stop"},{"id":"node-8239891985","lat":24.4457467,"lon":120.8815175,"name":"水尾坪","decorType":"bus_stop"},{"id":"node-8239891986","lat":24.4457791,"lon":120.8817631,"name":"水尾坪","decorType":"bus_stop"},{"id":"node-8239891987","lat":24.4451389,"lon":120.8838555,"name":"上坪","decorType":"bus_stop"},{"id":"node-8239891988","lat":24.4449251,"lon":120.8839445,"name":"上坪","decorType":"bus_stop"},{"id":"node-8239891989","lat":24.4435987,"lon":120.8933149,"name":"龍美","decorType":"bus_stop"},{"id":"node-8239891990","lat":24.4434929,"lon":120.8936828,"name":"龍美","decorType":"bus_stop"},{"id":"node-8239891991","lat":24.4441806,"lon":120.8961108,"name":"爆石","decorType":"bus_stop"},{"id":"node-8239891992","lat":24.4440152,"lon":120.8960875,"name":"爆石","decorType":"bus_stop"},{"id":"node-8241992020","lat":24.5883981,"lon":120.8163285,"name":"西山尾","decorType":"bus_stop"},{"id":"node-8241992021","lat":24.5875513,"lon":120.8171768,"name":"西山尾","decorType":"bus_stop"},{"id":"node-8241992023","lat":24.5747998,"lon":120.820085,"name":"國華路口","decorType":"bus_stop"},{"id":"node-8241992024","lat":24.574751,"lon":120.8202431,"name":"國華路口","decorType":"bus_stop"},{"id":"node-8241992025","lat":24.569999,"lon":120.820824,"name":"苗栗火車站(西站)","decorType":"bus_stop"},{"id":"node-8241992026","lat":24.5700161,"lon":120.8209382,"name":"苗栗火車站(西站)","decorType":"bus_stop"},{"id":"node-8241992027","lat":24.5634024,"lon":120.8214873,"name":"縣政府","decorType":"bus_stop"},{"id":"node-8241992028","lat":24.5634708,"lon":120.8216237,"name":"苗栗縣政府","decorType":"bus_stop"},{"id":"node-8241992029","lat":24.5640808,"lon":120.8149085,"name":"小巨蛋","decorType":"bus_stop"},{"id":"node-8241992030","lat":24.5641276,"lon":120.8152844,"name":"小巨蛋","decorType":"bus_stop"},