{"bbox":{"south":24.4125,"north":24.634375,"west":120.7875,"east":120.91875},"pois":[{"id":"node-10018735970","lat":24.472699,"lon":120.804111,"name":"福德祠","decorType":"shrine"},{"id":"node-10026992624","lat":24.619658,"lon":120.834169,"name":"豐湖福德正神","decorType":"shrine"},{"id":"node-10026992631","lat":24.625855,"lon":120.832493,"name":"苗栗開基玉上寺","decorType":"shrine"},{"id":"node-10033100882","lat":24.578308,"lon":120.824277,"name":"南門彌陀寺","decorType":"shrine"},{"id":"node-10060446665","lat":24.442091,"lon":120.873307,"name":"Route3 三號公路","decorType":"restaurant"},{"id":"node-10110791332","lat":24.589403,"lon":120.911719,"name":"永春宮客家文物館","decorType":"art_gallery"},{"id":"node-10138860468","lat":24.558048,"lon":120.816741,"name":"無油無慮低Gi便當-苗栗苗中店","decorType":"restaurant"},{"id":"node-10180478517","lat":24.577859,"lon":120.914536,"name":"水塞下山","decorType":"mountain"},{"id":"node-10252811163","lat":24.553602,"lon":120.818767,"name":"榕樹福德詞","decorType":"shrine"},{"id":"node-10287647488","lat":24.628436,"lon":120.789678,"name":"未命名神社","decorType":"shrine"},{"id":"node-10287647489","lat":24.627944,"lon":120.790729,"name":"八中廟","decorType":"shrine"},{"id":"node-10287647490","lat":24.624219,"lon":120.795709,"name":"未命名神社","decorType":"shrine"},{"id":"node-10287647491","lat":24.625522,"lon":120.796069,"name":"賜德廟","decorType":"shrine"},{"id":"node-10287647498","lat":24.632753,"lon":120.797745,"name":"福德宮","decorType":"shrine"},{"id":"node-10287647502","lat":24.585615,"lon":120.829954,"name":"未命名神社","decorType":"shrine"},{"id":"node-10293308835","lat":24.618403,"lon":120.792579,"name":"未命名神社","decorType":"shrine"},{"id":"node-10293308836","lat":24.625219,"lon":120.803944,"name":"未命名神社","decorType":"shrine"},{"id":"node-10293308837","lat":24.623624,"lon":120.804155,"name":"未命名神社","decorType":"shrine"},{"id":"node-10293308842","lat":24.622501,"lon":120.80921,"name":"未命名神社","decorType":"shrine"},{"id":"node-10293308854","lat":24.622593,"lon":120.814743,"name":"未命名神社","decorType":"shrine"},{"id":"node-10293308856","lat":24.625914,"lon":120.805908,"name":"未命名神社","decorType":"shrine"},{"id":"node-10293308857","lat":24.632966,"lon":120.80721,"name":"未命名神社","decorType":"shrine"},{"id":"node-10293308858","lat":24.632986,"lon":120.805841,"name":"未命名神社","decorType":"shrine"},{"id":"node-10293308876","lat":24.632644,"lon":120.810342,"name":"福德祠","decorType":"shrine"},{"id":"node-10293308877","lat":24.633643,"lon":120.811856,"name":"未命名神社","decorType":"shrine"},{"id":"node-10293308878","lat":24.63357,"lon":120.814414,"name":"福德宮","decorType":"shrine"},{"id":"node-10296206371","lat":24.634082,"lon":120.815468,"name":"未命名神社","decorType":"shrine"},{"id":"node-10296439837","lat":24.62508,"lon":120.811767,"name":"羊寮山","decorType":"mountain"},{"id":"node-10296439838","lat":24.62699,"lon":120.809486,"name":"未命名山丘","decorType":"mountain"},{"id":"node-10312933556","lat":24.545199,"lon":120.834936,"name":"福德祠","decorType":"shrine"},{"id":"node-10586259303","lat":24.575536,"lon":120.85308,"name":"7-Eleven","decorType":"convenience"},{"id":"node-10586259304","lat":24.574168,"lon":120.848681,"name":"吃香喝辣牛肉麵","decorType":"restaurant"},{"id":"node-10593251371","lat":24.527772,"lon":120.819335,"name":"康董一品牛肉麵","decorType":"restaurant"},{"id":"node-10593251372","lat":24.527717,"lon":120.819358,"name":"清心福全","decorType":"cafe"},{"id":"node-10698222497","lat":24.503816,"lon":120.878858,"name":"新田山","decorType":"mountain"},{"id":"node-10698253465","lat":24.515815,"lon":120.885837,"name":"銃庫山(高點峰)","decorType":"mountain"},{"id":"node-10706772947","lat":24.525536,"lon":120.911989,"name":"福興山","decorType":"mountain"},{"id":"node-10715716904","lat":24.456174,"lon":120.853446,"name":"廢棄纜車機房","decorType":"station"},{"id":"node-10744701365","lat":24.553626,"lon":120.800205,"name":"福德祠","decorType":"shrine"},{"id":"node-10744701390","lat":24.555149,"lon":120.795988,"name":"福德祠","decorType":"shrine"},{"id":"node-10744704260","lat":24.56024,"lon":120.797069,"name":"福德正神","decorType":"shrine"},{"id":"node-10744704288","lat":24.563896,"lon":120.801542,"name":"羊寮坑福德祠","decorType":"shrine"},{"id":"node-10748366134","lat":24.582141,"lon":120.823641,"name":"未命名神社","decorType":"shrine"},{"id":"node-10748406963","lat":24.559373,"lon":120.806285,"name":"吉祥福德祠","decorType":"shrine"},{"id":"node-10759070760","lat":24.566031,"lon":120.828595,"name":"玉霖宮","decorType":"shrine"},{"id":"node-10766357597","lat":24.589225,"lon":120.792259,"name":"福德祠","decorType":"shrine"},{"id":"node-10777379280","lat":24.571973,"lon":120.832352,"name":"福德祠","decorType":"shrine"},{"id":"node-10779130945","lat":24.632318,"lon":120.822537,"name":"福德祠","decorType":"shrine"},{"id":"node-10783331436","lat":24.587782,"lon":120.831324,"name":"苗邑天威堂","decorType":"shrine"},{"id":"node-10826777155","lat":24.564639,"lon":120.809264,"name":"未命名神社","decorType":"shrine"},{"id":"node-10826777182","lat":24.562633,"lon":120.810038,"name":"鳳形伯公","decorType":"shrine"},{"id":"node-10826777195","lat":24.563285,"lon":120.808369,"name":"文麗福德祠","decorType":"shrine"},{"id":"node-10832126216","lat":24.556901,"lon":120.811141,"name":"菩提圖書館","decorType":"library"},{"id":"node-10833540129","lat":24.581144,"lon":120.817889,"name":"未命名神社","decorType":"shrine"},{"id":"node-10833540146","lat":24.575805,"lon":120.820383,"name":"聖慈宮","decorType":"shrine"},{"id":"node-10833876614","lat":24.601631,"lon":120.810943,"name":"水流娘娘","decorType":"shrine"},{"id":"node-10915613104","lat":24.605262,"lon":120.829475,"name":"未命名神社","decorType":"shrine"},{"id":"node-10968432399","lat":24.570462,"lon":120.790474,"name":"下南勢坑山","decorType":"mountain"},{"id":"node-11013582097","lat":24.48607,"lon":120.78998,"name":"7-Eleven","decorType":"convenience"},{"id":"node-11067371679","lat":24.525868,"lon":120.836349,"name":"六沐森","decorType":"hotel"},{"id":"node-11070926879","lat":24.486479,"lon":120.82206,"name":"苗栗桐馨莊園民宿","decorType":"hotel"},{"id":"node-11078420059","lat":24.430698,"lon":120.808695,"name":"天佑宮","decorType":"shrine"},{"id":"node-11082229325","lat":24.561634,"lon":120.819479,"name":"美廉社","decorType":"supermarket"},{"id":"node-11099395983","lat":24.527659,"lon":120.818464,"name":"福德祠","decorType":"shrine"},{"id":"node-11099441571","lat":24.567805,"lon":120.824806,"name":"紫玄宮","decorType":"shrine"},{"id":"node-11187867854","lat":24.580322,"lon":120.86031,"name":"象山傳家堡福德祠","decorType":"shrine"},{"id":"node-11197356329","lat":24.560747,"lon":120.833295,"name":"福德祠(五張犁伯公)","decorType":"shrine"},{"id":"node-11230546970","lat":24.563793,"lon":120.8444,"name":"天賜堂","decorType":"shrine"},{"id":"node-11347588942","lat":24.603786,"lon":120.845524,"name":"未命名山丘","decorType":"mountain"},{"id":"node-11373812792","lat":24.572408,"lon":120.863423,"name":"合成庄福德祠","decorType":"shrine"},{"id":"node-11373812800","lat":24.556599,"lon":120.816245,"name":"福德祠","decorType":"shrine"},{"id":"node-11373812805","lat":24.556505,"lon":120.816971,"name":"福德正神","decorType":"shrine"},{"id":"node-11397099446","lat":24.582449,"lon":120.808819,"name":"營頭頂","decorType":"mountain"},{"id":"node-11711058014","lat":24.50173,"lon":120.835179,"name":"下大坑福德祠","decorType":"shrine"},{"id":"node-11757025436","lat":24.602494,"lon":120.803456,"name":"未命名神社","decorType":"shrine"},{"id":"node-11757025440","lat":24.518704,"lon":120.789217,"name":"未命名神社","decorType":"shrine"},{"id":"node-11761377073","lat":24.590734,"lon":120.895258,"name":"未命名神社","decorType":"shrine"},{"id":"node-11932117348","lat":24.567698,"lon":120.847234,"name":"未命名神社","decorType":"shrine"},{"id":"node-11959281698","lat":24.423706,"lon":120.820291,"name":"鯉魚石下山","decorType":"mountain"},{"id":"node-11959281699","lat":24.440411,"lon":120.801379,"name":"碑頭坑山","decorType":"mountain"},{"id":"node-11964933431","lat":24.459135,"lon":120.904932,"name":"未命名山丘","decorType":"mountain"},{"id":"node-11964933432","lat":24.450653,"lon":120.891609,"name":"未命名山丘","decorType":"mountain"},{"id":"node-11964933433","lat":24.457044,"lon":120.896013,"name":"未命名山丘","decorType":"mountain"},{"id":"node-11964933434","lat":24.453565,"lon":120.883552,"name":"未命名山丘","decorType":"mountain"},{"id":"node-11964933437","lat":24.51204,"lon":120.885917,"name":"未命名山丘","decorType":"mountain"},{"id":"node-11964933447","lat":24.503418,"lon":120.903341,"name":"未命名山丘","decorType":"mountain"},{"id":"node-11964933448","lat":24.507459,"lon":120.908164,"name":"未命名山丘","decorType":"mountain"},{"id":"node-11964933449","lat":24.505551,"lon":120.907552,"name":"未命名山丘","decorType":"mountain"},{"id":"node-12016125967","lat":24.502003,"lon":120.843094,"name":"大坑山","decorType":"mountain"},{"id":"node-12016137836","lat":24.520483,"lon":120.887997,"name":"沖庫山","decorType":"mountain"},{"id":"node-12095594328","lat":24.588207,"lon":120.810659,"name":"福德祠","decorType":"shrine"},{"id":"node-12271081026","lat":24.560137,"lon":120.81969,"name":"府前福德正神","decorType":"shrine"},{"id":"node-12308528840","lat":24.617868,"lon":120.788829,"name":"運勝公","decorType":"shrine"},{"id":"node-12336881238","lat":24.531362,"lon":120.831318,"name":"美廉社","decorType":"supermarket"},{"id":"node-12345970867","lat":24.491565,"lon":120.788628,"name":"臺灣基督長老教會 銅鑼教會","decorType":"shrine"},{"id":"node-12345970868","lat":24.489562,"lon":120.789033,"name":"銅鑼鄉召會","decorType":"shrine"},{"id":"node-12345970869","lat":24.493962,"lon":120.788643,"name":"天爵寺(觀音宮)","decorType":"shrine"},{"id":"node-12345970870","lat":24.491973,"lon":120.790071,"name":"銅鑼五福廟","decorType":"shrine"},{"id":"node-12780038501","lat":24.569696,"lon":120.824028,"name":"新興大旅社","decorType":"hotel"},{"id":"node-12816737208","lat":24.558886,"lon":120.816576,"name":"國立苗中","decorType":"bus_stop"},{"id":"node-12877013645","lat":24.531564,"lon":120.831833,"name":"公館鶴岡郵局","decorType":"post_office"},{"id":"node-12877013696","lat":24.622733,"lon":120.890878,"name":"造橋大西郵局","decorType":"post_office"},{"id":"node-13130643624","lat":24.621557,"lon":120.891291,"name":"全家便利商店","decorType":"convenience"},{"id":"node-13149242972","lat":24.560501,"lon":120.814689,"name":"建台國中警衛室","decorType":"park"},{"id":"node-13253681892","lat":24.552767,"lon":120.817069,"name":"庫魯咖啡烘焙","decorType":"cafe"},{"id":"node-13290854998","lat":24.479301,"lon":120.829945,"name":"萊爾富","decorType":"convenience"},{"id":"node-13305948020","lat":24.585772,"lon":120.880751,"name":"福德祠","decorType":"shrine"},{"id":"node-13339910605","lat":24.572532,"lon":120.812602,"name":"樹爺","decorType":"shrine"},{"id":"node-13339910606","lat":24.573592,"lon":120.835321,"name":"台灣基督長老教會山城教會","decorType":"shrine"},{"id":"node-13339910607","lat":24.554174,"lon":120.841586,"name":"福德祠","decorType":"shrine"},{"id":"node-13339910608","lat":24.5241,"lon":120.828622,"name":"公館本境伯公","decorType":"shrine"},{"id":"node-13339910609","lat":24.467665,"lon":120.849381,"name":"坑口石板福德祠","decorType":"shrine"},{"id":"node-13339910610","lat":24.477651,"lon":120.85543,"name":"坑尾福德祠","decorType":"shrine"},{"id":"node-13339910611","lat":24.490564,"lon":120.822435,"name":"朴仔樹下福德祠","decorType":"shrine"},{"id":"node-13339910612","lat":24.490922,"lon":120.823868,"name":"未命名神社","decorType":"shrine"},{"id":"node-13339910613","lat":24.494813,"lon":120.822333,"name":"小圍牆福德祠","decorType":"shrine"},{"id":"node-13339910615","lat":24.534976,"lon":120.860226,"name":"福德祠","decorType":"shrine"},{"id":"node-13339910616","lat":24.55677,"lon":120.803471,"name":"未命名神社","decorType":"shrine"},{"id":"node-13339910617","lat":24.5636,"lon":120.799637,"name":"未命名神社","decorType":"shrine"},{"id":"node-13339910618","lat":24.58249,"lon":120.880453,"name":"福德祠","decorType":"shrine"},{"id":"node-13339910619","lat":24.580703,"lon":120.886838,"name":"未命名神社","decorType":"shrine"},{"id":"node-13339910620","lat":24.583256,"lon":120.893929,"name":"太平福德祠","decorType":"shrine"},{"id":"node-13339910621","lat":24.558099,"lon":120.853741,"name":"未命名神社","decorType":"shrine"},{"id":"node-13339910622","lat":24.547706,"lon":120.871663,"name":"未命名神社","decorType":"shrine"},{"id":"node-13339910623","lat":24.548194,"lon":120.867547,"name":"未命名神社","decorType":"shrine"},{"id":"node-13340396931","lat":24.513725,"lon":120.805566,"name":"未命名神社","decorType":"shrine"},{"id":"node-13340396932","lat":24.521127,"lon":120.839313,"name":"久靈祠","decorType":"shrine"},{"id":"node-13340396933","lat":24.494369,"lon":120.842296,"name":"大坑村瓦窯福德祠","decorType":"shrine"},{"id":"node-13340396934","lat":24.497596,"lon":120.839032,"name":"大坑村內橫崗橋頭福德祠","decorType":"shrine"},{"id":"node-13340396935","lat":24.508129,"lon":120.834288,"name":"田心福德祠","decorType":"shrine"},{"id":"node-13340396936","lat":24.507664,"lon":120.830974,"name":"福德祠","decorType":"shrine"},{"id":"node-13340396937","lat":24.508276,"lon":120.83073,"name":"路東福德祠","decorType":"shrine"},{"id":"node-13340396938","lat":24.578139,"lon":120.879742,"name":"聯合福神廟","decorType":"shrine"},{"id":"node-13340396939","lat":24.52001,"lon":120.808131,"name":"未命名神社","decorType":"shrine"},{"id":"node-13340396940","lat":24.517121,"lon":120.807437,"name":"福德祠","decorType":"shrine"},{"id":"node-1741147816","lat":24.522633,"lon":120.791428,"name":"南勢","decorType":"station"},{"id":"node-1948085765","lat":24.537185,"lon":120.918286,"name":"全家便利商店","decorType":"convenience"},{"id":"node-1948085843","lat":24.538938,"lon":120.885557,"name":"福德祠","decorType":"shrine"},{"id":"node-1948086342","lat":24.585946,"lon":120.887479,"name":"明湖水漾會館","decorType":"hotel"},{"id":"node-1948086719","lat":24.592118,"lon":120.89283,"name":"明永堂","decorType":"shrine"},{"id":"node-1962555695","lat":24.412705,"lon":120.788665,"name":"未命名神社","decorType":"shrine"},{"id":"node-2009106293","lat":24.502254,"lon":120.826674,"name":"未命名神社","decorType":"shrine"},{"id":"node-2028866713","lat":24.491549,"lon":120.809854,"name":"未命名神社","decorType":"shrine"},{"id":"node-2141961685","lat":24.583027,"lon":120.850345,"name":"水尾伯公廟（土地公）","decorType":"shrine"},{"id":"node-2476563250","lat":24.626048,"lon":120.814981,"name":"聖皇宮","decorType":"shrine"},{"id":"node-2482533047","lat":24.555811,"lon":120.846273,"name":"墨硯山南峰","decorType":"mountain"},{"id":"node-2482534041","lat":24.434244,"lon":120.909441,"name":"鷂婆山","decorType":"mountain"},{"id":"node-2482543244","lat":24.487584,"lon":120.872987,"name":"八角崠山","decorType":"mountain"},{"id":"node-2482604437","lat":24.559078,"lon":120.914495,"name":"蕃子寮山","decorType":"mountain"},{"id":"node-2482604865","lat":24.631355,"lon":120.903584,"name":"上果作園山","decorType":"mountain"},{"id":"node-2482605324","lat":24.630031,"lon":120.848463,"name":"石頂山","decorType":"mountain"},{"id":"node-2482606051","lat":24.508606,"lon":120.788648,"name":"大薰山","decorType":"mountain"},{"id":"node-2482606199","lat":24.468332,"lon":120.795271,"name":"員屯山","decorType":"mountain"},{"id":"node-2482625407","lat":24.546941,"lon":120.861917,"name":"友應山","decorType":"mountain"},{"id":"node-2482636632","lat":24.629081,"lon":120.832478,"name":"登校血","decorType":"mountain"},{"id":"node-2482637240","lat":24.416934,"lon":120.872462,"name":"四寮坪山","decorType":"mountain"},{"id":"node-2482637383","lat":24.448645,"lon":120.823265,"name":"社寮坑山","decorType":"mountain"},{"id":"node-2482637433","lat":24.460142,"lon":120.827501,"name":"油房坑山","decorType":"mountain"},{"id":"node-2482638057","lat":24.621521,"lon":120.918533,"name":"外大坪","decorType":"mountain"},{"id":"node-2482638101","lat":24.623695,"lon":120.856357,"name":"加東山","decorType":"mountain"},{"id":"node-2482638102","lat":24.615378,"lon":120.907362,"name":"三百六坑山","decorType":"mountain"},{"id":"node-2482638106","lat":24.599867,"lon":120.894796,"name":"茄苳坑山","decorType":"mountain"},{"id":"node-2482638116","lat":24.587339,"lon":120.864475,"name":"北坑","decorType":"mountain"},{"id":"node-2482638118","lat":24.567234,"lon":120.867325,"name":"片山","decorType":"mountain"},{"id":"node-2482638119","lat":24.578722,"lon":120.878867,"name":"天山","decorType":"mountain"},{"id":"node-2482638121","lat":24.585839,"lon":120.902465,"name":"箭竹凸山","decorType":"mountain"},{"id":"node-2482638122","lat":24.57012,"lon":120.895257,"name":"好樹山","decorType":"mountain"},{"id":"node-2482638123","lat":24.531612,"lon":120.850024,"name":"棉子埔山","decorType":"mountain"},{"id":"node-2482638308","lat":24.561687,"lon":120.806528,"name":"將軍山","decorType":"mountain"},{"id":"node-2482640892","lat":24.414207,"lon":120.832965,"name":"黃麻園山","decorType":"mountain"},{"id":"node-2482643438","lat":24.512859,"lon":120.863061,"name":"山羊凸山","decorType":"mountain"},{"id":"node-2482643768","lat":24.436484,"lon":120.789837,"name":"三角山北峰","decorType":"mountain"},{"id":"node-2482643769","lat":24.446821,"lon":120.865889,"name":"玉女山","decorType":"mountain"},{"id":"node-2482643770","lat":24.436706,"lon":120.896492,"name":"砲石山","decorType":"mountain"},{"id":"node-2482643773","lat":24.47758,"lon":120.860496,"name":"打鹿坑山","decorType":"mountain"},{"id":"node-2482643774","lat":24.474688,"lon":120.876789,"name":"東坑山南峰","decorType":"mountain"},{"id":"node-2482643775","lat":24.501982,"lon":120.880444,"name":"新石門山","decorType":"mountain"},{"id":"node-2482643776","lat":24.476976,"lon":120.906962,"name":"十一分山北峰","decorType":"mountain"},{"id":"node-2482643833","lat":24.518593,"lon":120.897474,"name":"和興山","decorType":"mountain"},{"id":"node-2482644040","lat":24.531151,"lon":120.915427,"name":"錫隘山","decorType":"mountain"},{"id":"node-2482644041","lat":24.506505,"lon":120.905289,"name":"湖塘山","decorType":"mountain"},{"id":"node-2482644042","lat":24.482299,"lon":120.891736,"name":"八角林山","decorType":"mountain"},{"id":"node-2484717956","lat":24.595915,"lon":120.794289,"name":"無極聖宮","decorType":"shrine"},{"id":"node-2490521737","lat":24.44675,"lon":120.792033,"name":"雙峰山","decorType":"mountain"},{"id":"node-2539230908","lat":24.586558,"lon":120.896706,"name":"薰衣草森林(明德店)","decorType":"restaurant"},{"id":"node-2553247500","lat":24.498681,"lon":120.805017,"name":"五穀宮","decorType":"shrine"},{"id":"node-2642212734","lat":24.419813,"lon":120.864654,"name":"龜山","decorType":"mountain"},{"id":"node-2647661663","lat":24.496358,"lon":120.877294,"name":"協雲宮","decorType":"shrine"},{"id":"node-2647711647","lat":24.564832,"lon":120.826614,"name":"玉清宮","decorType":"shrine"},{"id":"node-2686162581","lat":24.549073,"lon":120.90352,"name":"雲洞宮","decorType":"shrine"},{"id":"node-2686164404","lat":24.574141,"lon":120.84951,"name":"全家便利商店","decorType":"convenience"},{"id":"node-2752224693","lat":24.589539,"lon":120.911729,"name":"永春宮","decorType":"shrine"},{"id":"node-2752224695","lat":24.590689,"lon":120.888256,"name":"法明寺","decorType":"shrine"},{"id":"node-2753427150","lat":24.588468,"lon":120.890002,"name":"水榭樓台","decorType":"restaurant"},{"id":"node-2843248399","lat":24.456415,"lon":120.87116,"name":"金童山","decorType":"mountain"},{"id":"node-2843250445","lat":24.458862,"lon":120.87204,"name":"汶水山","decorType":"mountain"},{"id":"node-2881830802","lat":24.551174,"lon":120.82109,"name":"清心福全","decorType":"cafe"},{"id":"node-2881830810","lat":24.563575,"lon":120.827668,"name":"全家便利商店","decorType":"convenience"},{"id":"node-2881831235","lat":24.568248,"lon":120.82504,"name":"未命名餐廳","decorType":"restaurant"},{"id":"node-2881831236","lat":24.568687,"lon":120.82521,"name":"未命名餐廳","decorType":"restaurant"},{"id":"node-2881831237","lat":24.570245,"lon":120.82515,"name":"傳香飯糰","decorType":"restaurant"},{"id":"node-2881831238","lat":24.570381,"lon":120.825244,"name":"未命名超市","decorType":"supermarket"},{"id":"node-290976531","lat":24.569232,"lon":120.822265,"name":"苗栗","decorType":"station"},{"id":"node-2910438202","lat":24.546423,"lon":120.81625,"name":"全家便利商店","decorType":"convenience"},{"id":"node-2910438203","lat":24.551104,"lon":120.82117,"name":"全家便利商店","decorType":"convenience"},{"id":"node-2910438516","lat":24.548525,"lon":120.8163,"name":"7-Eleven","decorType":"convenience"},{"id":"node-2910438517","lat":24.550709,"lon":120.822968,"name":"7-Eleven","decorType":"convenience"},{"id":"node-2910438518","lat":24.551557,"lon":120.816069,"name":"7-Eleven","decorType":"convenience"},{"id":"node-2956940750","lat":24.422813,"lon":120.866014,"name":"鄉公所前","decorType":"bus_stop"},{"id":"node-2956962736","lat":24.422768,"lon":120.86611,"name":"7-Eleven","decorType":"convenience"},{"id":"node-2956964860","lat":24.42845,"lon":120.867641,"name":"萊爾富","decorType":"convenience"},{"id":"node-3235745528","lat":24.53197,"lon":120.817275,"name":"7-Eleven","decorType":"convenience"},{"id":"node-3302237290","lat":24.492312,"lon":120.788863,"name":"全家便利商店","decorType":"convenience"},{"id":"node-3302237292","lat":24.494415,"lon":120.80143,"name":"7-Eleven","decorType":"convenience"},{"id":"node-3302237310","lat":24.503264,"lon":120.823955,"name":"7-Eleven","decorType":"convenience"},{"id":"node-3303466718","lat":24.520617,"lon":120.821292,"name":"7-Eleven","decorType":"convenience"},{"id":"node-3303466721","lat":24.574873,"lon":120.851054,"name":"7-Eleven","decorType":"convenience"},{"id":"node-3303466745","lat":24.605837,"lon":120.831307,"name":"7-Eleven","decorType":"convenience"},{"id":"node-3303466752","lat":24.622743,"lon":120.891058,"name":"7-Eleven","decorType":"convenience"},{"id":"node-3303496999","lat":24.616509,"lon":120.791722,"name":"7-Eleven","decorType":"convenience"},{"id":"node-3303577753","lat":24.489525,"lon":120.787748,"name":"OK-Mart","decorType":"convenience"},{"id":"node-3303577754","lat":24.539726,"lon":120.817819,"name":"OK超商","decorType":"convenience"},{"id":"node-3303577755","lat":24.555192,"lon":120.825798,"name":"OK超商","decorType":"convenience"},{"id":"node-3303577756","lat":24.556289,"lon":120.818794,"name":"OK超商","decorType":"convenience"},{"id":"node-3303577757","lat":24.559511,"lon":120.825735,"name":"未命名便利商店","decorType":"convenience"},{"id":"node-3303577760","lat":24.569535,"lon":120.822901,"name":"OK超商","decorType":"convenience"},{"id":"node-3305124420","lat":24.503371,"lon":120.827457,"name":"萊爾富","decorType":"convenience"},{"id":"node-3305124421","lat":24.520698,"lon":120.821633,"name":"萊爾富","decorType":"convenience"},{"id":"node-3305124422","lat":24.528761,"lon":120.818558,"name":"萊爾富","decorType":"convenience"},{"id":"node-3305124423","lat":24.612529,"lon":120.793987,"name":"萊爾富","decorType":"convenience"},{"id":"node-3305124424","lat":24.610894,"lon":120.796408,"name":"萊爾富","decorType":"convenience"},{"id":"node-3305126549","lat":24.446785,"lon":120.904537,"name":"萊爾富","decorType":"convenience"},{"id":"node-3305126554","lat":24.542878,"lon":120.816695,"name":"萊爾富","decorType":"convenience"},{"id":"node-3305126555","lat":24.555474,"lon":120.816341,"name":"萊爾富","decorType":"convenience"},{"id":"node-3305126556","lat":24.552891,"lon":120.817539,"name":"萊爾富","decorType":"convenience"},{"id":"node-3305126557","lat":24.559803,"lon":120.817869,"name":"萊爾富","decorType":"convenience"},{"id":"node-3305126558","lat":24.565516,"lon":120.811245,"name":"萊爾富","decorType":"convenience"},{"id":"node-3305126559","lat":24.56989,"lon":120.823516,"name":"萊爾富","decorType":"convenience"},{"id":"node-3305126560","lat":24.572268,"lon":120.814776,"name":"萊爾富","decorType":"convenience"},{"id":"node-3305127161","lat":24.575423,"lon":120.825069,"name":"萊爾富","decorType":"convenience"},{"id":"node-3311149191","lat":24.51947,"lon":120.821746,"name":"全家便利商店","decorType":"convenience"},{"id":"node-3311154351","lat":24.566499,"lon":120.809902,"name":"全家便利商店","decorType":"convenience"},{"id":"node-3311154352","lat":24.563988,"lon":120.816219,"name":"全家便利商店","decorType":"convenience"},{"id":"node-3311154353","lat":24.566191,"lon":120.818298,"name":"全家便利商店","decorType":"convenience"},{"id":"node-3311154354","lat":24.559154,"lon":120.820281,"name":"全家便利商店","decorType":"convenience"},{"id":"node-3311154355","lat":24.560811,"lon":120.822531,"name":"全家便利商店","decorType":"convenience"},{"id":"node-3311154356","lat":24.569297,"lon":120.820837,"name":"全家便利商店","decorType":"convenience"},{"id":"node-3311154357","lat":24.574047,"lon":120.830398,"name":"未命名便利商店","decorType":"convenience"},{"id":"node-3311154359","lat":24.586757,"lon":120.824945,"name":"全家便利商店","decorType":"convenience"},{"id":"node-3315903822","lat":24.488445,"lon":120.900773,"name":"玉虛宮","decorType":"shrine"},{"id":"node-3341415283","lat":24.586931,"lon":120.88232,"name":"明德","decorType":"bus_stop"},{"id":"node-3341415284","lat":24.586669,"lon":120.882072,"name":"明德","decorType":"bus_stop"},{"id":"node-3461643808","lat":24.425718,"lon":120.869032,"name":"自由聯盟生鮮超市","decorType":"supermarket"},{"id":"node-3479105083","lat":24.427733,"lon":120.867017,"name":"麗味客家菜","decorType":"restaurant"},{"id":"node-3513757600","lat":24.613549,"lon":120.796739,"name":"大庄和興宮","decorType":"shrine"},{"id":"node-3513764146","lat":24.61444,"lon":120.79376,"name":"全聯福利中心","decorType":"supermarket"},{"id":"node-3513764147","lat":24.614179,"lon":120.794435,"name":"7-Eleven","decorType":"convenience"},{"id":"node-3513764148","lat":24.616316,"lon":120.792593,"name":"巧鄰生鮮超市","decorType":"supermarket"},{"id":"node-3513764149","lat":24.61642,"lon":120.792202,"name":"佑全保健藥妝","decorType":"pharmacy"},{"id":"node-3513764154","lat":24.614234,"lon":120.794151,"name":"怡珍喜餅","decorType":"bakery"},{"id":"node-3513868449","lat":24.613449,"lon":120.791877,"name":"秘密193","decorType":"restaurant"},{"id":"node-3513878374","lat":24.614894,"lon":120.789741,"name":"CoCo都可","decorType":"cafe"},{"id":"node-3513878375","lat":24.613934,"lon":120.791363,"name":"家樂福超市","decorType":"supermarket"},{"id":"node-3513880096","lat":24.616128,"lon":120.790502,"name":"天主教聖方濟","decorType":"shrine"},{"id":"node-3513882091","lat":24.615474,"lon":120.788099,"name":"屈臣氏","decorType":"pharmacy"},{"id":"node-3513884795","lat":24.615346,"lon":120.787583,"name":"奇巧香餅家","decorType":"bakery"},{"id":"node-3641970536","lat":24.560461,"lon":120.818123,"name":"7-Eleven","decorType":"convenience"},{"id":"node-3663098125","lat":24.430393,"lon":120.809119,"name":"新雞隆","decorType":"bus_stop"},{"id":"node-3663146799","lat":24.447502,"lon":120.905918,"name":"清安","decorType":"bus_stop"},{"id":"node-3664018212","lat":24.570229,"lon":120.822911,"name":"苗栗火車站","decorType":"bus_stop"},{"id":"node-3706521538","lat":24.504257,"lon":120.827145,"name":"全聯福利中心","decorType":"supermarket"},{"id":"node-3835275857","lat":24.42463,"lon":120.865988,"name":"全家便利商店","decorType":"convenience"},{"id":"node-3870833272","lat":24.605564,"lon":120.825685,"name":"苗栗","decorType":"station"},{"id":"node-3912667101","lat":24.553052,"lon":120.804193,"name":"明隆壇","decorType":"shrine"},{"id":"node-3912667112","lat":24.552951,"lon":120.803128,"name":"福德正神","decorType":"shrine"},{"id":"node-3953309436","lat":24.555786,"lon":120.833791,"name":"佛光山大明寺","decorType":"shrine"},{"id":"node-3965233596","lat":24.605552,"lon":120.825121,"name":"摩斯漢堡","decorType":"burger"},{"id":"node-3965365324","lat":24.575421,"lon":120.852746,"name":"竹苗區聯盟超市","decorType":"supermarket"},{"id":"node-3965372778","lat":24.578507,"lon":120.859064,"name":"7-Eleven","decorType":"convenience"},{"id":"node-3965442884","lat":24.573562,"lon":120.817942,"name":"麥當勞","decorType":"burger"},{"id":"node-4076587824","lat":24.538907,"lon":120.816513,"name":"龜山口","decorType":"bus_stop"},{"id":"node-4076587833","lat":24.540964,"lon":120.819131,"name":"龍華小吃","decorType":"restaurant"},{"id":"node-4106909589","lat":24.575621,"lon":120.849785,"name":"福德祠（水頭伯公）","decorType":"shrine"},{"id":"node-4106941689","lat":24.575824,"lon":120.851786,"name":"楊家蛋黃麵","decorType":"restaurant"},{"id":"node-4107744105","lat":24.597092,"lon":120.789331,"name":"台灣桑耶寺","decorType":"shrine"},{"id":"node-4107800490","lat":24.574544,"lon":120.829527,"name":"苗栗嘉盛郵局","decorType":"post_office"},{"id":"node-4107800689","lat":24.571938,"lon":120.828457,"name":"素食免費結緣中心","decorType":"restaurant"},{"id":"node-4107800889","lat":24.55635,"lon":120.820175,"name":"海濤苗栗菩提道場","decorType":"shrine"},{"id":"node-4109097889","lat":24.57123,"lon":120.828183,"name":"藍鯨吐托魚羹","decorType":"restaurant"},{"id":"node-4109252203","lat":24.577455,"lon":120.84905,"name":"文德宮","decorType":"shrine"},{"id":"node-4109355589","lat":24.614444,"lon":120.787989,"name":"阿水飯店","decorType":"restaurant"},{"id":"node-4115443590","lat":24.57673,"lon":120.854563,"name":"牛肚大王","decorType":"restaurant"},{"id":"node-4115488489","lat":24.576833,"lon":120.854639,"name":"頭屋大山塘福德祠","decorType":"shrine"},{"id":"node-4115821890","lat":24.571235,"lon":120.85236,"name":"慈願寺","decorType":"shrine"},{"id":"node-4117890689","lat":24.582139,"lon":120.847095,"name":"福德祠","decorType":"shrine"},{"id":"node-4117890690","lat":24.578044,"lon":120.85124,"name":"瓦窯崗福德祠(瓦窯伯公)","decorType":"shrine"},{"id":"node-4240919203","lat":24.430077,"lon":120.868723,"name":"花間集","decorType":"restaurant"},{"id":"node-4253816577","lat":24.438745,"lon":120.83604,"name":"觀音山","decorType":"mountain"},{"id":"node-4253816578","lat":24.417115,"lon":120.840254,"name":"打榷崠山","decorType":"mountain"},{"id":"node-4258047872","lat":24.566365,"lon":120.854437,"name":"零功廟山","decorType":"mountain"},{"id":"node-4258047873","lat":24.573361,"lon":120.852025,"name":"頭屋南山","decorType":"mountain"},{"id":"node-4258047874","lat":24.582975,"lon":120.847501,"name":"頭屋山","decorType":"mountain"},{"id":"node-4258047877","lat":24.616408,"lon":120.888535,"name":"七里香山","decorType":"mountain"},{"id":"node-4272445990","lat":24.579069,"lon":120.862893,"name":"象山橋頭伯公","decorType":"shrine"},{"id":"node-4272528291","lat":24.575052,"lon":120.865526,"name":"玉衡宮","decorType":"shrine"},{"id":"node-4272573691","lat":24.583823,"lon":120.889151,"name":"佛光山明崇寺","decorType":"shrine"},{"id":"node-4304781711","lat":24.423184,"lon":120.868086,"name":"福德祠前","decorType":"bus_stop"},{"id":"node-4304781712","lat":24.423208,"lon":120.867993,"name":"福德祠前","decorType":"bus_stop"},{"id":"node-4304781732","lat":24.422905,"lon":120.866069,"name":"鄉公所前","decorType":"bus_stop"},{"id":"node-4350365291","lat":24.581406,"lon":120.85095,"name":"富康農場","decorType":"restaurant"},{"id":"node-4370587695","lat":24.545824,"lon":120.815345,"name":"租屋","decorType":"hotel"},{"id":"node-4460678692","lat":24.573458,"lon":120.842303,"name":"橋頭土地公","decorType":"shrine"},{"id":"node-4510417513","lat":24.447297,"lon":120.905688,"name":"Lung-Men Roadhouse","decorType":"restaurant"},{"id":"node-4510417514","lat":24.44627,"lon":120.904868,"name":"未命名神社","decorType":"shrine"},{"id":"node-4510417757","lat":24.446475,"lon":120.905302,"name":"泰安郵局","decorType":"post_office"},{"id":"node-4510435926","lat":24.444232,"lon":120.896061,"name":"未命名神社","decorType":"shrine"},{"id":"node-4510456129","lat":24.493656,"lon":120.801071,"name":"全家便利商店","decorType":"convenience"},{"id":"node-4545816490","lat":24.553678,"lon":120.850028,"name":"長壽橋福德祠","decorType":"shrine"},{"id":"node-4545841789","lat":24.547193,"lon":120.871914,"name":"天花湖民宿","decorType":"hotel"},{"id":"node-4552486889","lat":24.558343,"lon":120.850267,"name":"曲洞宮","decorType":"shrine"},{"id":"node-4559428389","lat":24.585551,"lon":120.884558,"name":"明德宮","decorType":"shrine"},{"id":"node-4564443894","lat":24.560165,"lon":120.856916,"name":"飛鳳村三尊福德祠","decorType":"shrine"},{"id":"node-4567949193","lat":24.549268,"lon":120.877351,"name":"飛鳳水頭伯公福德祠","decorType":"shrine"},{"id":"node-4570549479","lat":24.576859,"lon":120.914317,"name":"普光寺","decorType":"shrine"},{"id":"node-4570554655","lat":24.574427,"lon":120.850896,"name":"涼心飲料店","decorType":"cafe"},{"id":"node-4599236090","lat":24.581101,"lon":120.897571,"name":"明德水庫釣魚臺民宿","decorType":"hotel"},{"id":"node-4603241889","lat":24.58627,"lon":120.913176,"name":"藝景度假莊院","decorType":"hotel"},{"id":"node-4614322782","lat":24.419805,"lon":120.863639,"name":"法寶寺","decorType":"bus_stop"},{"id":"node-4614322783","lat":24.41986,"lon":120.863375,"name":"大湖農工","decorType":"bus_stop"},{"id":"node-4614323556","lat":24.417189,"lon":120.863052,"name":"竹高屋","decorType":"bus_stop"},{"id":"node-4614323557","lat":24.417003,"lon":120.862751,"name":"竹高屋","decorType":"bus_stop"},{"id":"node-4614323560","lat":24.41517,"lon":120.862695,"name":"草崠","decorType":"bus_stop"},{"id":"node-4614323561","lat":24.415229,"lon":120.862975,"name":"草崠","decorType":"bus_stop"},{"id":"node-4616074377","lat":24.42862,"lon":120.867775,"name":"大湖酒莊","decorType":"bus_stop"},{"id":"node-4616074378","lat":24.428361,"lon":120.867832,"name":"大湖酒莊","decorType":"bus_stop"},{"id":"node-4616074379","lat":24.426685,"lon":120.867046,"name":"下街","decorType":"bus_stop"},{"id":"node-4616074380","lat":24.426533,"lon":120.867123,"name":"下街","decorType":"bus_stop"},{"id":"node-4616242504","lat":24.438638,"lon":120.87176,"name":"九寮坑口","decorType":"bus_stop"},{"id":"node-4616242505","lat":24.438652,"lon":120.871568,"name":"九寮坑口","decorType":"bus_stop"},{"id":"node-4616242506","lat":24.4355,"lon":120.870346,"name":"八寮灣","decorType":"bus_stop"},{"id":"node-4616242507","lat":24.43544,"lon":120.870566,"name":"八寮灣","decorType":"bus_stop"},{"id":"node-4616242508","lat":24.432822,"lon":120.869599,"name":"富興","decorType":"bus_stop"},{"id":"node-4616242509","lat":24.432469,"lon":120.869246,"name":"富興","decorType":"bus_stop"},{"id":"node-4616252767","lat":24.444887,"lon":120.873994,"name":"水尾","decorType":"bus_stop"},{"id":"node-4616252768","lat":24.444933,"lon":120.874238,"name":"水尾","decorType":"bus_stop"},{"id":"node-4616252769","lat":24.443697,"lon":120.873979,"name":"華興國小","decorType":"bus_stop"},{"id":"node-4616252770","lat":24.443497,"lon":120.873664,"name":"華興國小","decorType":"bus_stop"},{"id":"node-4616253640","lat":24.442185,"lon":120.873458,"name":"鄉城社區","decorType":"bus_stop"},{"id":"node-4616253641","lat":24.442039,"lon":120.873592,"name":"鄉城社區","decorType":"bus_stop"},{"id":"node-4616375447","lat":24.457015,"lon":120.880635,"name":"三寮坑","decorType":"bus_stop"},{"id":"node-4616375448","lat":24.456849,"lon":120.880775,"name":"三寮坑","decorType":"bus_stop"},{"id":"node-4616375449","lat":24.451714,"lon":120.874037,"name":"溫泉口","decorType":"bus_stop"},{"id":"node-4616375450","lat":24.447663,"lon":120.874002,"name":"天后宮","decorType":"bus_stop"},{"id":"node-4616375451","lat":24.44759,"lon":120.873809,"name":"天后宮","decorType":"bus_stop"},{"id":"node-4616377331","lat":24.458964,"lon":120.883491,"name":"劉厝","decorType":"bus_stop"},{"id":"node-4616377332","lat":24.458952,"lon":120.883695,"name":"劉厝","decorType":"bus_stop"},{"id":"node-4617475190","lat":24.565905,"lon":120.825278,"name":"紫蝴蝶餐點坊","decorType":"restaurant"},{"id":"node-4617563230","lat":24.466768,"lon":120.886453,"name":"弘法院","decorType":"bus_stop"},{"id":"node-4617563231","lat":24.466613,"lon":120.886067,"name":"弘法院","decorType":"bus_stop"},{"id":"node-4617563246","lat":24.46562,"lon":120.883712,"name":"楊曦坪","decorType":"bus_stop"},{"id":"node-4617563247","lat":24.46529,"lon":120.88342,"name":"楊曦坪","decorType":"bus_stop"},{"id":"node-4617563267","lat":24.461491,"lon":120.885788,"name":"南庄","decorType":"bus_stop"},{"id":"node-4617563268","lat":24.461291,"lon":120.885997,"name":"南庄","decorType":"bus_stop"},{"id":"node-4618345053","lat":24.471278,"lon":120.887008,"name":"北庄","decorType":"bus_stop"},{"id":"node-4618345054","lat":24.470769,"lon":120.886969,"name":"北庄","decorType":"bus_stop"},{"id":"node-4618701500","lat":24.477515,"lon":120.890871,"name":"大寮","decorType":"bus_stop"},{"id":"node-4618701501","lat":24.477725,"lon":120.890756,"name":"大寮","decorType":"bus_stop"},{"id":"node-4618701502","lat":24.476527,"lon":120.889788,"name":"豐林國小","decorType":"bus_stop"},{"id":"node-4618701503","lat":24.475676,"lon":120.889398,"name":"豐林國小","decorType":"bus_stop"},{"id":"node-4618748029","lat":24.48945,"lon":120.898961,"name":"鹽水坑","decorType":"bus_stop"},{"id":"node-4618748030","lat":24.489341,"lon":120.899078,"name":"鹽水坑","decorType":"bus_stop"},{"id":"node-4618748043","lat":24.487058,"lon":120.900204,"name":"伯公潭","decorType":"bus_stop"},{"id":"node-4618748044","lat":24.487176,"lon":120.900505,"name":"伯公潭","decorType":"bus_stop"},{"id":"node-4618748079","lat":24.484211,"lon":120.897946,"name":"楓樹崀","decorType":"bus_stop"},{"id":"node-4618748080","lat":24.484216,"lon":120.898179,"name":"楓樹崀","decorType":"bus_stop"},{"id":"node-4618748081","lat":24.481733,"lon":120.896167,"name":"新豐","decorType":"bus_stop"},{"id":"node-4618748082","lat":24.481607,"lon":120.895951,"name":"新豐","decorType":"bus_stop"},{"id":"node-4618748086","lat":24.479414,"lon":120.893938,"name":"八角林","decorType":"bus_stop"},{"id":"node-4618748087","lat":24.479556,"lon":120.894555,"name":"八角林","decorType":"bus_stop"},{"id":"node-4619829455","lat":24.50041,"lon":120.90301,"name":"大坡塘","decorType":"bus_stop"},{"id":"node-4619829456","lat":24.499282,"lon":120.902579,"name":"大坡塘","decorType":"bus_stop"},{"id":"node-4619829457","lat":24.495901,"lon":120.90161,"name":"香圓窩","decorType":"bus_stop"},{"id":"node-4619829458","lat":24.495959,"lon":120.901424,"name":"香圓窩","decorType":"bus_stop"},{"id":"node-4619829472","lat":24.49192,"lon":120.900136,"name":"豐福","decorType":"bus_stop"},{"id":"node-4619829473","lat":24.491885,"lon":120.900333,"name":"豐福","decorType":"bus_stop"},{"id":"node-4619866318","lat":24.516085,"lon":120.911181,"name":"下和興","decorType":"bus_stop"},{"id":"node-4619866319","lat":24.515941,"lon":120.91103,"name":"下和興","decorType":"bus_stop"},{"id":"node-4619866320","lat":24.51451,"lon":120.91073,"name":"和興","decorType":"bus_stop"},{"id":"node-4619866321","lat":24.514468,"lon":120.910489,"name":"和興","decorType":"bus_stop"},{"id":"node-4619866328","lat":24.510305,"lon":120.910267,"name":"上和興","decorType":"bus_stop"},{"id":"node-4619866329","lat":24.510283,"lon":120.910037,"name":"上和興","decorType":"bus_stop"},{"id":"node-4619866369","lat":24.506367,"lon":120.911324,"name":"湖塘","decorType":"bus_stop"},{"id":"node-4619866370","lat":24.506388,"lon":120.910977,"name":"湖塘","decorType":"bus_stop"},{"id":"node-4620339665","lat":24.533172,"lon":120.917878,"name":"新興","decorType":"bus_stop"},{"id":"node-4620339666","lat":24.532978,"lon":120.917601,"name":"新興","decorType":"bus_stop"},{"id":"node-4620339667","lat":24.529621,"lon":120.915965,"name":"黃厝","decorType":"bus_stop"},{"id":"node-4620339668","lat":24.529835,"lon":120.915908,"name":"黃厝","decorType":"bus_stop"},{"id":"node-4620339669","lat":24.528035,"lon":120.913352,"name":"中興","decorType":"bus_stop"},{"id":"node-4620339670","lat":24.52791,"lon":120.913167,"name":"中興","decorType":"bus_stop"},{"id":"node-4620339671","lat":24.536073,"lon":120.918407,"name":"管理站","decorType":"bus_stop"},{"id":"node-4620339672","lat":24.535949,"lon":120.918198,"name":"管理站","decorType":"bus_stop"},{"id":"node-4620339673","lat":24.526108,"lon":120.913379,"name":"五文宮","decorType":"bus_stop"},{"id":"node-4620339674","lat":24.525848,"lon":120.913289,"name":"五文宮","decorType":"bus_stop"},{"id":"node-4620339678","lat":24.524523,"lon":120.912953,"name":"福興","decorType":"bus_stop"},{"id":"node-4620339679","lat":24.524341,"lon":120.913028,"name":"福興","decorType":"bus_stop"},{"id":"node-4620340201","lat":24.52015,"lon":120.912227,"name":"福興口","decorType":"bus_stop"},{"id":"node-4620340202","lat":24.520129,"lon":120.912042,"name":"福興口","decorType":"bus_stop"},{"id":"node-4620612503","lat":24.537907,"lon":120.918532,"name":"大東勢口","decorType":"bus_stop"},{"id":"node-4681190003","lat":24.468127,"lon":120.885106,"name":"弘法寺","decorType":"shrine"},{"id":"node-4796009984","lat":24.474543,"lon":120.801387,"name":"水母娘娘廟","decorType":"shrine"},{"id":"node-4796009985","lat":24.47462,"lon":120.801208,"name":"泉水福德祠","decorType":"shrine"},{"id":"node-4812536322","lat":24.583494,"lon":120.890277,"name":"樟樹伯公","decorType":"shrine"},{"id":"node-4831398162","lat":24.501934,"lon":120.828194,"name":"公館","decorType":"bus_stop"},{"id":"node-4831398163","lat":24.501956,"lon":120.828036,"name":"公館","decorType":"bus_stop"},{"id":"node-4831398164","lat":24.502033,"lon":120.828196,"name":"屈臣氏","decorType":"pharmacy"},{"id":"node-4831398180","lat":24.502118,"lon":120.828208,"name":"7-Eleven","decorType":"convenience"},{"id":"node-4831398181","lat":24.506442,"lon":120.827063,"name":"燦坤3C","decorType":"electronics"},{"id":"node-4831398182","lat":24.506874,"lon":120.826531,"name":"清心福全","decorType":"cafe"},{"id":"node-4831398183","lat":24.507395,"lon":120.82666,"name":"全國電子","decorType":"electronics"},{"id":"node-4831398184","lat":24.50745,"lon":120.826605,"name":"壹咖啡","decorType":"cafe"},{"id":"node-4831398188","lat":24.514908,"lon":120.824048,"name":"樟樹伯公","decorType":"bus_stop"},{"id":"node-4831398189","lat":24.514882,"lon":120.823807,"name":"樟樹伯公","decorType":"bus_stop"},{"id":"node-4831398190","lat":24.52045,"lon":120.821681,"name":"五谷岡","decorType":"bus_stop"},{"id":"node-4831398191","lat":24.52047,"lon":120.821409,"name":"五谷岡","decorType":"bus_stop"},{"id":"node-4831398192","lat":24.495065,"lon":120.828106,"name":"苗栗農改場","decorType":"bus_stop"},{"id":"node-4831398193","lat":24.495209,"lon":120.827977,"name":"苗栗農改場","decorType":"bus_stop"},{"id":"node-4831398195","lat":24.498348,"lon":120.827962,"name":"公館國中","decorType":"bus_stop"},{"id":"node-4831398196","lat":24.498565,"lon":120.828096,"name":"公館國中","decorType":"bus_stop"},{"id":"node-4831398197","lat":24.509136,"lon":120.82596,"name":"玉泉","decorType":"bus_stop"},{"id":"node-4831398198","lat":24.509067,"lon":120.825865,"name":"玉泉","decorType":"bus_stop"},{"id":"node-4831398199","lat":24.506671,"lon":120.826936,"name":"蠶絲廠","decorType":"bus_stop"},{"id":"node-4831398200","lat":24.505878,"lon":120.826946,"name":"蠶絲廠","decorType":"bus_stop"},{"id":"node-4831398201","lat":24.504897,"lon":120.827085,"name":"CoCo 都可","decorType":"cafe"},{"id":"node-4831398202","lat":24.504892,"lon":120.827274,"name":"全家便利商店","decorType":"convenience"},{"id":"node-4831398204","lat":24.489545,"lon":120.827935,"name":"苗栗特色館","decorType":"art_gallery"},{"id":"node-4833327868","lat":24.484356,"lon":120.820666,"name":"棗莊","decorType":"restaurant"},{"id":"node-4833327869","lat":24.499824,"lon":120.828039,"name":"秀菊小吃坊","decorType":"restaurant"},{"id":"node-4833327876","lat":24.490859,"lon":120.828341,"name":"苗栗特色館","decorType":"bus_stop"},{"id":"node-4833327877","lat":24.490955,"lon":120.828181,"name":"苗栗特色館","decorType":"bus_stop"},{"id":"node-4833327878","lat":24.492921,"lon":120.828101,"name":"館南","decorType":"bus_stop"},{"id":"node-4833327879","lat":24.493381,"lon":120.827916,"name":"館南","decorType":"bus_stop"},{"id":"node-4833327880","lat":24.494679,"lon":120.827857,"name":"7-Eleven","decorType":"convenience"},{"id":"node-4842905322","lat":24.632692,"lon":120.884054,"name":"藤坪","decorType":"bus_stop"},{"id":"node-4842905323","lat":24.632055,"lon":120.884426,"name":"藤坪","decorType":"bus_stop"},{"id":"node-4842915447","lat":24.626313,"lon":120.890607,"name":"崇佛寺","decorType":"bus_stop"},{"id":"node-4842915448","lat":24.626538,"lon":120.890717,"name":"崇佛寺","decorType":"bus_stop"},{"id":"node-4842915453","lat":24.62762,"lon":120.888243,"name":"上藤坪","decorType":"bus_stop"},{"id":"node-4842915454","lat":24.627899,"lon":120.888153,"name":"上藤坪","decorType":"bus_stop"},{"id":"node-4842935637","lat":24.622405,"lon":120.891117,"name":"大坪","decorType":"bus_stop"},{"id":"node-4842935638","lat":24.622671,"lon":120.89132,"name":"大坪","decorType":"bus_stop"},{"id":"node-4842935647","lat":24.624725,"lon":120.891744,"name":"美廉社","decorType":"supermarket"},{"id":"node-4842935648","lat":24.62471,"lon":120.891697,"name":"大西村","decorType":"bus_stop"},{"id":"node-4842935649","lat":24.6248,"lon":120.891495,"name":"大西村","decorType":"bus_stop"},{"id":"node-4842970372","lat":24.605555,"lon":120.889088,"name":"錦水","decorType":"bus_stop"},{"id":"node-4842970373","lat":24.605603,"lon":120.888906,"name":"錦水","decorType":"bus_stop"},{"id":"node-4842970378","lat":24.608381,"lon":120.890685,"name":"錦水社區","decorType":"bus_stop"},{"id":"node-4842970379","lat":24.607726,"lon":120.890501,"name":"錦水社區","decorType":"bus_stop"},{"id":"node-4842970385","lat":24.610572,"lon":120.891778,"name":"錦水村","decorType":"bus_stop"},{"id":"node-4842970386","lat":24.610587,"lon":120.891602,"name":"錦水村","decorType":"bus_stop"},{"id":"node-4842970525","lat":24.614994,"lon":120.891854,"name":"大坪加油站","decorType":"bus_stop"},{"id":"node-4842970526","lat":24.615124,"lon":120.892066,"name":"大坪加油站","decorType":"bus_stop"},{"id":"node-4842970528","lat":24.618389,"lon":120.891734,"name":"聯亞學院","decorType":"bus_stop"},{"id":"node-4842970529","lat":24.618512,"lon":120.891941,"name":"聯亞學院","decorType":"bus_stop"},{"id":"node-4843202928","lat":24.598328,"lon":120.884646,"name":"茄苳坑","decorType":"bus_stop"},{"id":"node-4843202929","lat":24.598359,"lon":120.884506,"name":"茄苳坑","decorType":"bus_stop"},{"id":"node-4843286633","lat":24.579505,"lon":120.860625,"name":"傳家堡","decorType":"bus_stop"},{"id":"node-4843286634","lat":24.57943,"lon":120.860911,"name":"傳家堡","decorType":"bus_stop"},{"id":"node-4843286654","lat":24.579755,"lon":120.86382,"name":"象山村","decorType":"bus_stop"},{"id":"node-4843286655","lat":24.580107,"lon":120.864126,"name":"象山村","decorType":"bus_stop"},{"id":"node-4843286677","lat":24.580483,"lon":120.867008,"name":"扒仔岡","decorType":"bus_stop"},{"id":"node-4843286678","lat":24.580332,"lon":120.866876,"name":"扒仔岡","decorType":"bus_stop"},{"id":"node-4843286693","lat":24.580783,"lon":120.871017,"name":"鳴鳳入口","decorType":"bus_stop"},{"id":"node-4843286694","lat":24.580837,"lon":120.870692,"name":"鳴鳳入口","decorType":"bus_stop"},{"id":"node-4843286715","lat":24.58249,"lon":120.877781,"name":"響隆橋","decorType":"bus_stop"},{"id":"node-4843286716","lat":24.582959,"lon":120.877762,"name":"響隆橋","decorType":"bus_stop"},{"id":"node-4843286766","lat":24.578468,"lon":120.858581,"name":"玻璃廠","decorType":"bus_stop"},{"id":"node-4843286767","lat":24.578429,"lon":120.858919,"name":"玻璃廠","decorType":"bus_stop"},{"id":"node-4843302319","lat":24.57647,"lon":120.854081,"name":"頭屋郵局","decorType":"bus_stop"},{"id":"node-4843302320","lat":24.576207,"lon":120.854059,"name":"頭屋郵局","decorType":"bus_stop"},{"id":"node-4843309938","lat":24.574497,"lon":120.848566,"name":"苗栗工務段","decorType":"bus_stop"},{"id":"node-4843309939","lat":24.574234,"lon":120.848773,"name":"苗栗工務段","decorType":"bus_stop"},{"id":"node-4843309940","lat":24.574714,"lon":120.851221,"name":"頭屋站","decorType":"bus_stop"},{"id":"node-4843309941","lat":24.574994,"lon":120.851341,"name":"頭屋站","decorType":"bus_stop"},{"id":"node-4843324507","lat":24.572846,"lon":120.835246,"name":"復興路口","decorType":"bus_stop"},{"id":"node-4843324508","lat":24.573065,"lon":120.834991,"name":"復興路口","decorType":"bus_stop"},{"id":"node-4843324509","lat":24.57336,"lon":120.837116,"name":"7-Eleven","decorType":"convenience"},{"id":"node-4843324516","lat":24.574456,"lon":120.840994,"name":"苗栗醫院","decorType":"bus_stop"},{"id":"node-4843324517","lat":24.574707,"lon":120.841142,"name":"苗栗醫院","decorType":"bus_stop"},{"id":"node-4843347676","lat":24.564279,"lon":120.823234,"name":"縣府前","decorType":"bus_stop"},{"id":"node-4843347679","lat":24.566085,"lon":120.823389,"name":"水利會","decorType":"bus_stop"},{"id":"node-4843347682","lat":24.569009,"lon":120.823587,"name":"建中街","decorType":"bus_stop"},{"id":"node-4843347683","lat":24.570836,"lon":120.826899,"name":"7-Eleven","decorType":"convenience"},{"id":"node-4843347685","lat":24.570436,"lon":120.826316,"name":"北苗加油站","decorType":"bus_stop"},{"id":"node-4843347686","lat":24.570632,"lon":120.826278,"name":"北苗加油站","decorType":"bus_stop"},{"id":"node-4843347697","lat":24.571262,"lon":120.829507,"name":"台電前","decorType":"bus_stop"},{"id":"node-4843347698","lat":24.571455,"lon":120.829286,"name":"台電前","decorType":"bus_stop"},{"id":"node-4843347699","lat":24.572112,"lon":120.832302,"name":"嘉盛","decorType":"bus_stop"},{"id":"node-4843347700","lat":24.572225,"lon":120.832186,"name":"嘉盛","decorType":"bus_stop"},{"id":"node-4843678795","lat":24.557659,"lon":120.818822,"name":"中苗市場","decorType":"bus_stop"},{"id":"node-4843678796","lat":24.557568,"lon":120.818693,"name":"中苗市場","decorType":"bus_stop"},{"id":"node-4843678797","lat":24.56029,"lon":120.815484,"name":"國立苗中","decorType":"bus_stop"},{"id":"node-4843678798","lat":24.559699,"lon":120.816338,"name":"國立苗中","decorType":"bus_stop"},{"id":"node-4843678799","lat":24.551751,"lon":120.816139,"name":"南苗","decorType":"bus_stop"},{"id":"node-4843678800","lat":24.552664,"lon":120.815291,"name":"南苗","decorType":"bus_stop"},{"id":"node-4843678801","lat":24.55413,"lon":120.815446,"name":"大同國小","decorType":"bus_stop"},{"id":"node-4843678804","lat":24.55554,"lon":120.816696,"name":"光復路口","decorType":"bus_stop"},{"id":"node-4843678805","lat":24.555733,"lon":120.817196,"name":"南苗市場","decorType":"bus_stop"},{"id":"node-4843678817","lat":24.557154,"lon":120.819236,"name":"至公路","decorType":"bus_stop"},{"id":"node-4843678819","lat":24.557565,"lon":120.819386,"name":"麥當勞","decorType":"burger"},{"id":"node-4843678820","lat":24.558043,"lon":120.819708,"name":"中苗站","decorType":"bus_stop"},{"id":"node-4843679421","lat":24.558371,"lon":120.819941,"name":"中苗","decorType":"bus_stop"},{"id":"node-4843679422","lat":24.560902,"lon":120.821663,"name":"文化街","decorType":"bus_stop"},{"id":"node-4843679423","lat":24.562605,"lon":120.822696,"name":"同心公園","decorType":"bus_stop"},{"id":"node-4844029561","lat":24.54202,"lon":120.817105,"name":"仁愛社區","decorType":"bus_stop"},{"id":"node-4844029562","lat":24.542218,"lon":120.816913,"name":"仁愛社區","decorType":"bus_stop"},{"id":"node-4844029563","lat":24.54387,"lon":120.816606,"name":"輔導中心","decorType":"bus_stop"},{"id":"node-4844029564","lat":24.543871,"lon":120.81672,"name":"輔導中心","decorType":"bus_stop"},{"id":"node-4844029565","lat":24.54625,"lon":120.816315,"name":"地方法院","decorType":"bus_stop"},{"id":"node-4844029566","lat":24.546671,"lon":120.816256,"name":"地方法院","decorType":"bus_stop"},{"id":"node-4844029567","lat":24.546967,"lon":120.816365,"name":"地方法院","decorType":"bus_stop"},{"id":"node-4844029568","lat":24.547878,"lon":120.816144,"name":"勝利","decorType":"bus_stop"},{"id":"node-4852985504","lat":24.454496,"lon":120.794035,"name":"雙峰山北峰","decorType":"mountain"},{"id":"node-4853760316","lat":24.528773,"lon":120.819,"name":"鶴岡口","decorType":"bus_stop"},{"id":"node-4853760317","lat":24.529053,"lon":120.818517,"name":"鶴岡口","decorType":"bus_stop"},{"id":"node-4853760318","lat":24.530887,"lon":120.818135,"name":"龜山","decorType":"bus_stop"},{"id":"node-4853760319","lat":24.532301,"lon":120.817262,"name":"龜山","decorType":"bus_stop"},{"id":"node-4853760426","lat":24.538996,"lon":120.816734,"name":"龜山口","decorType":"bus_stop"},{"id":"node-4853760432","lat":24.540627,"lon":120.8172,"name":"育民工家","decorType":"bus_stop"},{"id":"node-4853760433","lat":24.540965,"lon":120.817308,"name":"育民工家","decorType":"bus_stop"},{"id":"node-4890971231","lat":24.425026,"lon":120.866971,"name":"大湖鄉老人文康中心","decorType":"art_gallery"},{"id":"node-5123352622","lat":24.533909,"lon":120.816768,"name":"未命名公車站","decorType":"bus_stop"},{"id":"node-5162305322","lat":24.562855,"lon":120.832184,"name":"阿呆鳥(刀切麵食館)","decorType":"restaurant"},{"id":"node-5170709638","lat":24.524578,"lon":120.869512,"name":"釋迦山釋迦牟尼寺","decorType":"shrine"},{"id":"node-5170709646","lat":24.530407,"lon":120.869387,"name":"北河玉清寺","decorType":"shrine"},{"id":"node-5170709698","lat":24.530718,"lon":120.877419,"name":"福德祠(北河水尾伯公)","decorType":"shrine"},{"id":"node-5170709799","lat":24.532984,"lon":120.895181,"name":"茄冬老樹福德祠","decorType":"shrine"},{"id":"node-5175937460","lat":24.541275,"lon":120.901132,"name":"三湖山","decorType":"mountain"},{"id":"node-5212665456","lat":24.489783,"lon":120.788019,"name":"銅鑼","decorType":"bus_stop"},{"id":"node-5212665457","lat":24.491357,"lon":120.788114,"name":"銅鑼天主堂","decorType":"bus_stop"},{"id":"node-5222681524","lat":24.48869,"lon":120.787661,"name":"韓鄉村牛肉麵","decorType":"restaurant"},{"id":"node-5243749621","lat":24.474947,"lon":120.829557,"name":"紅棗食府","decorType":"restaurant"},{"id":"node-5258240046","lat":24.45193,"lon":120.876594,"name":"雪霸國家公園管理處","decorType":"bus_stop"},{"id":"node-5263948845","lat":24.548316,"lon":120.81502,"name":"小蓉園","decorType":"restaurant"},{"id":"node-5263948846","lat":24.550204,"lon":120.81502,"name":"7-Eleven","decorType":"convenience"},{"id":"node-5263948860","lat":24.551241,"lon":120.816008,"name":"八方雲集","decorType":"burger"},{"id":"node-5263948861","lat":24.550885,"lon":120.81597,"name":"寶雅","decorType":"supermarket"},{"id":"node-5263948867","lat":24.551395,"lon":120.81644,"name":"新竹客運南苗站","decorType":"station"},{"id":"node-5263948869","lat":24.550156,"lon":120.816111,"name":"苗栗南苗郵局","decorType":"post_office"},{"id":"node-5263948870","lat":24.548418,"lon":120.815716,"name":"楊文忠蛋黃麵","decorType":"restaurant"},{"id":"node-5263948872","lat":24.548061,"lon":120.816064,"name":"全國電子","decorType":"electronics"},{"id":"node-5263948877","lat":24.546133,"lon":120.816293,"name":"美廉社","decorType":"supermarket"},{"id":"node-5263948878","lat":24.552248,"lon":120.816108,"name":"麥當勞","decorType":"burger"},{"id":"node-5263948879","lat":24.551955,"lon":120.81604,"name":"肯德基","decorType":"burger"},{"id":"node-5265696978","lat":24.545403,"lon":120.816328,"name":"老先覺麻辣窯燒鍋","decorType":"restaurant"},{"id":"node-5265696979","lat":24.547404,"lon":120.816155,"name":"里約烘焙","decorType":"sweetshop"},{"id":"node-5265696980","lat":24.547537,"lon":120.816133,"name":"麥味登","decorType":"restaurant"},{"id":"node-5265696981","lat":24.547644,"lon":120.816323,"name":"50嵐","decorType":"cafe"},{"id":"node-5265696982","lat":24.547706,"lon":120.816127,"name":"清心福全","decorType":"cafe"},{"id":"node-5265696983","lat":24.548342,"lon":120.816228,"name":"台灣大哥大","decorType":"electronics"},{"id":"node-5265696984","lat":24.548459,"lon":120.816049,"name":"大碗公","decorType":"restaurant"},{"id":"node-5265696985","lat":24.549086,"lon":120.816177,"name":"新竹夜市城","decorType":"restaurant"},{"id":"node-5265696986","lat":24.549335,"lon":120.816161,"name":"客家","decorType":"restaurant"},{"id":"node-5265696987","lat":24.550737,"lon":120.815785,"name":"三媽臭臭鍋","decorType":"restaurant"},{"id":"node-5265696988","lat":24.551207,"lon":120.815765,"name":"永和豆漿","decorType":"restaurant"},{"id":"node-5265696989","lat":24.551465,"lon":120.816019,"name":"85度C","decorType":"cafe"},{"id":"node-5265696990","lat":24.551508,"lon":120.816279,"name":"家樂福超市","decorType":"supermarket"},{"id":"node-5265696991","lat":24.552406,"lon":120.816576,"name":"天雲廟","decorType":"shrine"},{"id":"node-5265696996","lat":24.558688,"lon":120.821329,"name":"必勝客","decorType":"restaurant"},{"id":"node-5265696997","lat":24.559389,"lon":120.821443,"name":"家樂福超市","decorType":"supermarket"},{"id":"node-5265699535","lat":24.568676,"lon":120.824545,"name":"7-Eleven","decorType":"convenience"},{"id":"node-5265699536","lat":24.569899,"lon":120.824278,"name":"八方雲集","decorType":"burger"},{"id":"node-5272518858","lat":24.457737,"lon":120.875611,"name":"永和亭飯店","decorType":"restaurant"},{"id":"node-5272588749","lat":24.458269,"lon":120.875905,"name":"謝孝德畫院","decorType":"art_gallery"},{"id":"node-5272628635","lat":24.457869,"lon":120.875706,"name":"汶水","decorType":"bus_stop"},{"id":"node-5272628636","lat":24.457692,"lon":120.875682,"name":"汶水","decorType":"bus_stop"},{"id":"node-5273484565","lat":24.551244,"lon":120.813814,"name":"全家便利商店","decorType":"convenience"},{"id":"node-5273484577","lat":24.552732,"lon":120.817305,"name":"名悅現烤蛋糕","decorType":"sweetshop"},{"id":"node-5273484586","lat":24.555768,"lon":120.819589,"name":"全聯福利中心","decorType":"supermarket"},{"id":"node-5273484587","lat":24.56674,"lon":120.824038,"name":"苗栗北苗郵局","decorType":"post_office"},{"id":"node-5273484590","lat":24.570162,"lon":120.824645,"name":"台灣鐵路便當北苗站","decorType":"restaurant"},{"id":"node-5273484592","lat":24.572007,"lon":120.824789,"name":"7-Eleven","decorType":"convenience"},{"id":"node-5273484735","lat":24.57343,"lon":120.824884,"name":"全聯福利中心","decorType":"supermarket"},{"id":"node-5273484736","lat":24.574332,"lon":120.82475,"name":"一級棒鵝肉小吃店","decorType":"restaurant"},{"id":"node-5273484737","lat":24.575386,"lon":120.82466,"name":"全國電子","decorType":"electronics"},{"id":"node-5273484738","lat":24.577308,"lon":120.824506,"name":"7-Eleven","decorType":"convenience"},{"id":"node-5273484754","lat":24.582007,"lon":120.824856,"name":"苗栗安瀾宮","decorType":"shrine"},{"id":"node-5273484756","lat":24.585335,"lon":120.825258,"name":"弘爺漢堡","decorType":"burger"},{"id":"node-5273757573","lat":24.569001,"lon":120.820882,"name":"鞋全家福","decorType":"clothing"},{"id":"node-5273757582","lat":24.566436,"lon":120.823534,"name":"肇久電器行(大同)","decorType":"electronics"},{"id":"node-5273757583","lat":24.564346,"lon":120.823344,"name":"吃飽飽鐵板燒小火鍋","decorType":"restaurant"},{"id":"node-5273757584","lat":24.563636,"lon":120.823295,"name":"井澤蔬食","decorType":"restaurant"},{"id":"node-5273757601","lat":24.559633,"lon":120.820827,"name":"陶板屋 - 苗栗中山店","decorType":"restaurant"},{"id":"node-5273757602","lat":24.559495,"lon":120.820698,"name":"麥味登","decorType":"restaurant"},{"id":"node-5273757613","lat":24.557608,"lon":120.819694,"name":"達美樂","decorType":"burger"},{"id":"node-5273757614","lat":24.557464,"lon":120.819326,"name":"7-Eleven","decorType":"convenience"},{"id":"node-5273757615","lat":24.556643,"lon":120.818933,"name":"我家麵店","decorType":"restaurant"},{"id":"node-5273757616","lat":24.556437,"lon":120.818997,"name":"boLo台灣-菠蘿麵包專賣店","decorType":"sweetshop"},{"id":"node-5273757617","lat":24.555915,"lon":120.817687,"name":"弘爺漢堡","decorType":"burger"},{"id":"node-5273757620","lat":24.552909,"lon":120.81387,"name":"苗栗三山國王廟","decorType":"shrine"},{"id":"node-5273759229","lat":24.554339,"lon":120.811424,"name":"福德宮","decorType":"shrine"},{"id":"node-5340542200","lat":24.502456,"lon":120.824098,"name":"館二休閒運動器材","decorType":"park"},{"id":"node-5442324824","lat":24.429555,"lon":120.868338,"name":"7-Eleven","decorType":"convenience"},{"id":"node-5444062721","lat":24.495284,"lon":120.841533,"name":"行修寺","decorType":"shrine"},{"id":"node-5573605726","lat":24.447408,"lon":120.908006,"name":"泰安鄉立圖書館","decorType":"library"},{"id":"node-5600692455","lat":24.559241,"lon":120.814682,"name":"OK超商","decorType":"convenience"},{"id":"node-5682684194","lat":24.563454,"lon":120.818693,"name":"佳福日用五金百貨店","decorType":"hardware"},{"id":"node-5684456059","lat":24.505074,"lon":120.828117,"name":"公館五金大批發","decorType":"hardware"},{"id":"node-5714299285","lat":24.557066,"lon":120.819199,"name":"三好飯店","decorType":"restaurant"},{"id":"node-5714299286","lat":24.557072,"lon":120.819185,"name":"三好飯店","decorType":"restaurant"},{"id":"node-5714299287","lat":24.564603,"lon":120.821728,"name":"品園自助餐","decorType":"restaurant"},{"id":"node-5714299288","lat":24.565659,"lon":120.819488,"name":"文化麵食館","decorType":"restaurant"},{"id":"node-5980608685","lat":24.54035,"lon":120.819334,"name":"KiKi廚房","decorType":"restaurant"},{"id":"node-5980620885","lat":24.496871,"lon":120.82818,"name":"Mumu悠然時光","decorType":"restaurant"},{"id":"node-5982755085","lat":24.488591,"lon":120.787584,"name":"銅鑼蛋餅","decorType":"restaurant"},{"id":"node-6025074362","lat":24.559154,"lon":120.817472,"name":"CoCo都可","decorType":"cafe"},{"id":"node-6025074363","lat":24.559432,"lon":120.817087,"name":"元家香北平烤鴨","decorType":"restaurant"},{"id":"node-6025074365","lat":24.559755,"lon":120.817622,"name":"瑞士烘培坊","decorType":"bakery"},{"id":"node-6025074366","lat":24.559915,"lon":120.817497,"name":"阿忠小吃","decorType":"restaurant"},{"id":"node-6025074367","lat":24.560124,"lon":120.817678,"name":"大呼過癮臭臭鍋","decorType":"restaurant"},{"id":"node-6287806685","lat":24.61394,"lon":120.814775,"name":"萊爾富","decorType":"convenience"},{"id":"node-6288473885","lat":24.603384,"lon":120.815495,"name":"7-Eleven","decorType":"convenience"},{"id":"node-6288968585","lat":24.527477,"lon":120.81944,"name":"7-Eleven","decorType":"convenience"},{"id":"node-6304972786","lat":24.567043,"lon":120.821206,"name":"未命名餐廳","decorType":"restaurant"},{"id":"node-6319049869","lat":24.489467,"lon":120.791074,"name":"未命名公園","decorType":"park"},{"id":"node-6319049923","lat":24.489262,"lon":120.787634,"name":"Linseed Baekery","decorType":"bakery"},{"id":"node-6319054159","lat":24.489383,"lon":120.787684,"name":"佑全","decorType":"pharmacy"},{"id":"node-6319061085","lat":24.48945,"lon":120.790569,"name":"高年福德祠","decorType":"shrine"},{"id":"node-6319067313","lat":24.486076,"lon":120.787975,"name":"未命名服飾店","decorType":"clothing"},{"id":"node-6321803949","lat":24.489006,"lon":120.78753,"name":"未命名美髮院","decorType":"hair_salon"},{"id":"node-6356556459","lat":24.453467,"lon":120.874882,"name":"法雲寺口","decorType":"bus_stop"},{"id":"node-6356560995","lat":24.453465,"lon":120.874807,"name":"法雲寺口","decorType":"bus_stop"},{"id":"node-6356581396","lat":24.42331,"lon":120.86749,"name":"未命名美術館","decorType":"art_gallery"},{"id":"node-6517548826","lat":24.600472,"lon":120.828771,"name":"杜記黑珍珠玉米","decorType":"restaurant"},{"id":"node-6720679899","lat":24.582462,"lon":120.835377,"name":"苗栗嘉盛興旺堂","decorType":"shrine"},{"id":"node-6776111810","lat":24.604399,"lon":120.826295,"name":"豐富","decorType":"station"},{"id":"node-6787296050","lat":24.520097,"lon":120.788683,"name":"五湖口","decorType":"bus_stop"},{"id":"node-6787296051","lat":24.519653,"lon":120.789312,"name":"五湖口","decorType":"bus_stop"},{"id":"node-6787296052","lat":24.519659,"lon":120.789607,"name":"五湖口","decorType":"bus_stop"},{"id":"node-6787300673","lat":24.543667,"lon":120.810482,"name":"陽明山莊","decorType":"bus_stop"},{"id":"node-6787300674","lat":24.543954,"lon":120.810307,"name":"陽明山莊","decorType":"bus_stop"},{"id":"node-6787300675","lat":24.545618,"lon":120.811881,"name":"國立聯合大學","decorType":"bus_stop"},{"id":"node-6787300676","lat":24.54555,"lon":120.812103,"name":"聯合大學","decorType":"bus_stop"},{"id":"node-6787322315","lat":24.533591,"lon":120.80468,"name":"坪頂","decorType":"bus_stop"},{"id":"node-6787322316","lat":24.532418,"lon":120.803457,"name":"上南勢","decorType":"bus_stop"},{"id":"node-6787322317","lat":24.532842,"lon":120.803532,"name":"上南勢","decorType":"bus_stop"},{"id":"node-6787322318","lat":24.530292,"lon":120.801429,"name":"坪頂社區","decorType":"bus_stop"},{"id":"node-6787322319","lat":24.527023,"lon":120.797813,"name":"新英國小","decorType":"bus_stop"},{"id":"node-6787322326","lat":24.525493,"lon":120.796,"name":"豪榮社區","decorType":"bus_stop"},{"id":"node-6787322327","lat":24.525393,"lon":120.795885,"name":"7-Eleven","decorType":"convenience"},{"id":"node-6787322328","lat":24.525258,"lon":120.796099,"name":"豪榮社區","decorType":"bus_stop"},{"id":"node-6787322329","lat":24.524338,"lon":120.795128,"name":"福泰新村","decorType":"bus_stop"},{"id":"node-6787322330","lat":24.524033,"lon":120.795179,"name":"福泰新村","decorType":"bus_stop"},{"id":"node-6787322331","lat":24.522979,"lon":120.793677,"name":"南興","decorType":"bus_stop"},{"id":"node-6787322332","lat":24.522918,"lon":120.793892,"name":"南興","decorType":"bus_stop"},{"id":"node-6787322333","lat":24.521899,"lon":120.792178,"name":"南勢","decorType":"bus_stop"},{"id":"node-6787322334","lat":24.521896,"lon":120.791691,"name":"南勢","decorType":"bus_stop"},{"id":"node-6787331687","lat":24.533752,"lon":120.804476,"name":"坪頂","decorType":"bus_stop"},{"id":"node-6787331688","lat":24.530688,"lon":120.801402,"name":"坪頂社區","decorType":"bus_stop"},{"id":"node-6832941375","lat":24.60805,"lon":120.814784,"name":"英才書院","decorType":"bus_stop"},{"id":"node-6832941376","lat":24.607762,"lon":120.814564,"name":"英才書院","decorType":"bus_stop"},{"id":"node-6832941377","lat":24.610242,"lon":120.809712,"name":"復興里","decorType":"bus_stop"},{"id":"node-6832941378","lat":24.611,"lon":120.809795,"name":"復興里","decorType":"bus_stop"},{"id":"node-6832941379","lat":24.616155,"lon":120.798908,"name":"大庄里","decorType":"bus_stop"},{"id":"node-6832941380","lat":24.616026,"lon":120.798814,"name":"大庄里","decorType":"bus_stop"},{"id":"node-6832941381","lat":24.61637,"lon":120.79305,"name":"寶雅","decorType":"pharmacy"},{"id":"node-6832941382","lat":24.616423,"lon":120.792798,"name":"後龍加油站","decorType":"bus_stop"},{"id":"node-6832941383","lat":24.616515,"lon":120.792701,"name":"後龍加油站","decorType":"bus_stop"},{"id":"node-6832941384","lat":24.616301,"lon":120.790911,"name":"全聯福利中心","decorType":"supermarket"},{"id":"node-6832971285","lat":24.616499,"lon":120.79051,"name":"未命名公車站","decorType":"bus_stop"},{"id":"node-6832971286","lat":24.616319,"lon":120.790083,"name":"未命名公車站","decorType":"bus_stop"},{"id":"node-6832986822","lat":24.632853,"lon":120.826078,"name":"龍音湖","decorType":"bus_stop"},{"id":"node-6832986823","lat":24.632745,"lon":120.826339,"name":"龍音湖","decorType":"bus_stop"},{"id":"node-6832986849","lat":24.628769,"lon":120.824056,"name":"中潭站","decorType":"bus_stop"},{"id":"node-6832986850","lat":24.62882,"lon":120.824185,"name":"中潭站","decorType":"bus_stop"},{"id":"node-6832986858","lat":24.610317,"lon":120.825974,"name":"新港國小","decorType":"bus_stop"},{"id":"node-6832986859","lat":24.610391,"lon":120.825982,"name":"新港國小","decorType":"bus_stop"},{"id":"node-6843943205","lat":24.491232,"lon":120.827356,"name":"荷塘居餐坊","decorType":"restaurant"},{"id":"node-6871042389","lat":24.532886,"lon":120.803556,"name":"大坪頂","decorType":"bus_stop"},{"id":"node-6871042390","lat":24.532279,"lon":120.80336,"name":"大坪頂","decorType":"bus_stop"},{"id":"node-6871042391","lat":24.53068,"lon":120.801338,"name":"歐麗旺","decorType":"bus_stop"},{"id":"node-6871042392","lat":24.53031,"lon":120.80152,"name":"歐麗旺","decorType":"bus_stop"},{"id":"node-6871087813","lat":24.569314,"lon":120.824566,"name":"北苗","decorType":"bus_stop"},{"id":"node-6871087814","lat":24.566406,"lon":120.82433,"name":"上苗","decorType":"bus_stop"},{"id":"node-6871087815","lat":24.565201,"lon":120.824238,"name":"建功國小","decorType":"bus_stop"},{"id":"node-6871087816","lat":24.562214,"lon":120.823214,"name":"民權街口","decorType":"bus_stop"},{"id":"node-6871087817","lat":24.560061,"lon":120.822052,"name":"文化街","decorType":"bus_stop"},{"id":"node-6871087818","lat":24.560593,"lon":120.822372,"name":"大川醫院","decorType":"bus_stop"},{"id":"node-6871087819","lat":24.558314,"lon":120.8211,"name":"台銀前","decorType":"bus_stop"},{"id":"node-6871087820","lat":24.554267,"lon":120.81878,"name":"市場前","decorType":"bus_stop"},{"id":"node-6871087821","lat":24.556553,"lon":120.8201,"name":"苗栗市農會","decorType":"bus_stop"},{"id":"node-6871087822","lat":24.552661,"lon":120.817207,"name":"三角公園","decorType":"bus_stop"},{"id":"node-6875076129","lat":24.571124,"lon":120.824719,"name":"北苗市場","decorType":"bus_stop"},{"id":"node-6875102708","lat":24.593029,"lon":120.824163,"name":"經國路口","decorType":"bus_stop"},{"id":"node-6875102709","lat":24.592229,"lon":120.824662,"name":"經國路口","decorType":"bus_stop"},{"id":"node-6875106181","lat":24.583846,"lon":120.82503,"name":"彭厝","decorType":"bus_stop"},{"id":"node-6875106182","lat":24.583846,"lon":120.825266,"name":"彭厝","decorType":"bus_stop"},{"id":"node-6875106183","lat":24.581346,"lon":120.824871,"name":"田寮","decorType":"bus_stop"},{"id":"node-6875106184","lat":24.581327,"lon":120.824686,"name":"田寮","decorType":"bus_stop"},{"id":"node-6875106388","lat":24.576461,"lon":120.824601,"name":"國華路口","decorType":"bus_stop"},{"id":"node-6875106389","lat":24.57658,"lon":120.824759,"name":"國華路口","decorType":"bus_stop"},{"id":"node-6875444601","lat":24.61182,"lon":120.835635,"name":"豐湖","decorType":"bus_stop"},{"id":"node-6875444602","lat":24.611576,"lon":120.835651,"name":"豐湖","decorType":"bus_stop"},{"id":"node-6875482863","lat":24.625692,"lon":120.851648,"name":"崎頂","decorType":"bus_stop"},{"id":"node-6875482864","lat":24.625711,"lon":120.851254,"name":"崎頂","decorType":"bus_stop"},{"id":"node-6875581354","lat":24.631938,"lon":120.855821,"name":"張厝","decorType":"bus_stop"},{"id":"node-6875581355","lat":24.631558,"lon":120.855883,"name":"張厝","decorType":"bus_stop"},{"id":"node-7108867228","lat":24.557267,"lon":120.81763,"name":"車前福德祠","decorType":"shrine"},{"id":"node-7177469054","lat":24.585184,"lon":120.886018,"name":"阿賢麵點","decorType":"restaurant"},{"id":"node-7177469055","lat":24.58528,"lon":120.886058,"name":"明德飲食店","decorType":"restaurant"},{"id":"node-7177469056","lat":24.586395,"lon":120.88781,"name":"老田寮客家美食館","decorType":"restaurant"},{"id":"node-7177469057","lat":24.585661,"lon":120.886585,"name":"元福小吃店","decorType":"restaurant"},{"id":"node-7177469058","lat":24.586031,"lon":120.887387,"name":"西餐廳","decorType":"restaurant"},{"id":"node-7177471195","lat":24.529143,"lon":120.819161,"name":"客家麵食館","decorType":"restaurant"},{"id":"node-7177471200","lat":24.530973,"lon":120.818162,"name":"首戶牛排","decorType":"restaurant"},{"id":"node-7180622611","lat":24.556468,"lon":120.820066,"name":"三統大飯店","decorType":"hotel"},{"id":"node-7309444612","lat":24.556218,"lon":120.834468,"name":"苗栗農工","decorType":"bus_stop"},{"id":"node-7309444613","lat":24.553105,"lon":120.815492,"name":"苗栗站","decorType":"bus_stop"},{"id":"node-7343450087","lat":24.552311,"lon":120.81727,"name":"江技舊記餛飩店","decorType":"restaurant"},{"id":"node-7368082731","lat":24.546741,"lon":120.797282,"name":"觀音宮","decorType":"shrine"},{"id":"node-7400853753","lat":24.571446,"lon":120.83,"name":"萊爾富","decorType":"convenience"},{"id":"node-7400853754","lat":24.571693,"lon":120.830048,"name":"85度C","decorType":"cafe"},{"id":"node-7400853759","lat":24.56705,"lon":120.82713,"name":"邱家粄條","decorType":"restaurant"},{"id":"node-7400853760","lat":24.565256,"lon":120.826981,"name":"玉清芒埔伯公祠","decorType":"shrine"},{"id":"node-7400860791","lat":24.572977,"lon":120.835638,"name":"全家便利商店","decorType":"convenience"},{"id":"node-7440307250","lat":24.551527,"lon":120.814156,"name":"南苗派出所","decorType":"bus_stop"},{"id":"node-7440307251","lat":24.551303,"lon":120.81388,"name":"南苗派出所","decorType":"bus_stop"},{"id":"node-7440329710","lat":24.538547,"lon":120.811042,"name":"育民工家","decorType":"bus_stop"},{"id":"node-7440364513","lat":24.59039,"lon":120.793616,"name":"龍莊","decorType":"bus_stop"},{"id":"node-7440364514","lat":24.590317,"lon":120.793881,"name":"龍莊","decorType":"bus_stop"},{"id":"node-7440370018","lat":24.573391,"lon":120.805766,"name":"新川","decorType":"bus_stop"},{"id":"node-7440370019","lat":24.573463,"lon":120.805464,"name":"新川","decorType":"bus_stop"},{"id":"node-7440370020","lat":24.572031,"lon":120.807357,"name":"茶亭","decorType":"bus_stop"},{"id":"node-7440370021","lat":24.571616,"lon":120.807501,"name":"茶亭","decorType":"bus_stop"},{"id":"node-7440370056","lat":24.567211,"lon":120.809918,"name":"監理站","decorType":"bus_stop"},{"id":"node-7440370057","lat":24.566984,"lon":120.809776,"name":"監理站","decorType":"bus_stop"},{"id":"node-7440370059","lat":24.564442,"lon":120.811345,"name":"西山","decorType":"bus_stop"},{"id":"node-7440370060","lat":24.564137,"lon":120.811656,"name":"西山","decorType":"bus_stop"},{"id":"node-7440370061","lat":24.564088,"lon":120.811766,"name":"苗栗文山郵局","decorType":"post_office"},{"id":"node-7440370062","lat":24.56332,"lon":120.812048,"name":"福麗","decorType":"bus_stop"},{"id":"node-7440370063","lat":24.563171,"lon":120.811935,"name":"福麗","decorType":"bus_stop"},{"id":"node-7440370064","lat":24.562093,"lon":120.813021,"name":"鳳形","decorType":"bus_stop"},{"id":"node-7440370065","lat":24.561947,"lon":120.812981,"name":"鳳形","decorType":"bus_stop"},{"id":"node-7440389808","lat":24.587159,"lon":120.796789,"name":"圓墩","decorType":"bus_stop"},{"id":"node-7440389809","lat":24.586982,"lon":120.796503,"name":"圓墩","decorType":"bus_stop"},{"id":"node-7440389821","lat":24.583915,"lon":120.798242,"name":"竹圍","decorType":"bus_stop"},{"id":"node-7440389822","lat":24.584095,"lon":120.798397,"name":"竹圍","decorType":"bus_stop"},{"id":"node-7440389824","lat":24.582216,"lon":120.799625,"name":"恩祖廟","decorType":"bus_stop"},{"id":"node-7440389825","lat":24.582432,"lon":120.79982,"name":"恩祖廟","decorType":"bus_stop"},{"id":"node-7440389826","lat":24.581395,"lon":120.80031,"name":"葉屋","decorType":"bus_stop"},{"id":"node-7440389827","lat":24.581281,"lon":120.800056,"name":"葉屋","decorType":"bus_stop"},{"id":"node-7440389828","lat":24.57873,"lon":120.803265,"name":"南勢坑","decorType":"bus_stop"},{"id":"node-7440389829","lat":24.578905,"lon":120.803323,"name":"南勢坑","decorType":"bus_stop"},{"id":"node-7440409829","lat":24.595677,"lon":120.78887,"name":"後龍底","decorType":"bus_stop"},{"id":"node-7440409830","lat":24.595543,"lon":120.788658,"name":"後龍底","decorType":"bus_stop"},{"id":"node-7440409831","lat":24.593782,"lon":120.791213,"name":"無極聖宮","decorType":"bus_stop"},{"id":"node-7440409832","lat":24.593372,"lon":120.791313,"name":"無極聖宮","decorType":"bus_stop"},{"id":"node-7440420209","lat":24.61664,"lon":120.793685,"name":"成功牛排","decorType":"restaurant"},{"id":"node-7440448601","lat":24.605786,"lon":120.825655,"name":"全家便利商店","decorType":"convenience"},{"id":"node-7440448602","lat":24.605757,"lon":120.825609,"name":"星巴克","decorType":"cafe"},{"id":"node-7440448603","lat":24.630071,"lon":120.82342,"name":"中潭","decorType":"bus_stop"},{"id":"node-7440448604","lat":24.629985,"lon":120.822905,"name":"中潭","decorType":"bus_stop"},{"id":"node-7440448607","lat":24.625784,"lon":120.817871,"name":"草潭","decorType":"bus_stop"},{"id":"node-7440448608","lat":24.625711,"lon":120.817509,"name":"草潭","decorType":"bus_stop"},{"id":"node-7440448609","lat":24.622961,"lon":120.814912,"name":"埔頂里","decorType":"bus_stop"},{"id":"node-7440448610","lat":24.621156,"lon":120.809046,"name":"台灣國寶","decorType":"bus_stop"},{"id":"node-7440448611","lat":24.621272,"lon":120.808511,"name":"台灣國寶","decorType":"bus_stop"},{"id":"node-7440448612","lat":24.619793,"lon":120.802657,"name":"竹子崙","decorType":"bus_stop"},{"id":"node-7440448613","lat":24.619901,"lon":120.801823,"name":"竹子崙","decorType":"bus_stop"},{"id":"node-7561340586","lat":24.615604,"lon":120.790204,"name":"排骨麵","decorType":"restaurant"},{"id":"node-7705066330","lat":24.612217,"lon":120.789748,"name":"未命名郵局","decorType":"post_office"},{"id":"node-7705066364","lat":24.613383,"lon":120.792014,"name":"後龍鎮公所","decorType":"bus_stop"},{"id":"node-7705066365","lat":24.613578,"lon":120.792012,"name":"後龍鎮公所","decorType":"bus_stop"},{"id":"node-7705066366","lat":24.616955,"lon":120.7918,"name":"田心","decorType":"bus_stop"},{"id":"node-7705082787","lat":24.62497,"lon":120.795209,"name":"路尾","decorType":"bus_stop"},{"id":"node-7705082788","lat":24.625356,"lon":120.79572,"name":"路尾","decorType":"bus_stop"},{"id":"node-7705082791","lat":24.630402,"lon":120.798956,"name":"詹厝","decorType":"bus_stop"},{"id":"node-7705082792","lat":24.630625,"lon":120.799298,"name":"詹厝","decorType":"bus_stop"},{"id":"node-7713747964","lat":24.472712,"lon":120.830295,"name":"福基","decorType":"bus_stop"},{"id":"node-7713747965","lat":24.475236,"lon":120.830078,"name":"福園","decorType":"bus_stop"},{"id":"node-7713747966","lat":24.479472,"lon":120.829968,"name":"福星","decorType":"bus_stop"},{"id":"node-7713747967","lat":24.479557,"lon":120.829758,"name":"福星","decorType":"bus_stop"},{"id":"node-7713747971","lat":24.486382,"lon":120.828948,"name":"全家便利商店","decorType":"convenience"},{"id":"node-7713747972","lat":24.483443,"lon":120.829139,"name":"福全","decorType":"bus_stop"},{"id":"node-7713747973","lat":24.48369,"lon":120.829278,"name":"福全","decorType":"bus_stop"},{"id":"node-7713763791","lat":24.483924,"lon":120.816734,"name":"石墻","decorType":"bus_stop"},{"id":"node-7713763792","lat":24.483638,"lon":120.816693,"name":"石墻","decorType":"bus_stop"},{"id":"node-7713831744","lat":24.466023,"lon":120.879323,"name":"桂竹林","decorType":"bus_stop"},{"id":"node-7713831745","lat":24.466147,"lon":120.879103,"name":"桂竹林","decorType":"bus_stop"},{"id":"node-7713831758","lat":24.466743,"lon":120.86824,"name":"東坑","decorType":"bus_stop"},{"id":"node-7713831759","lat":24.466582,"lon":120.867966,"name":"東坑","decorType":"bus_stop"},{"id":"node-7713833280","lat":24.465398,"lon":120.862371,"name":"福德","decorType":"bus_stop"},{"id":"node-7713833281","lat":24.465659,"lon":120.862039,"name":"福德","decorType":"bus_stop"},{"id":"node-7713833282","lat":24.463857,"lon":120.85204,"name":"出礦坑","decorType":"bus_stop"},{"id":"node-7713833283","lat":24.464211,"lon":120.851879,"name":"出礦坑","decorType":"bus_stop"},{"id":"node-7713833284","lat":24.465661,"lon":120.848979,"name":"精米所","decorType":"bus_stop"},{"id":"node-7713839281","lat":24.466389,"lon":120.843285,"name":"楊喜崎","decorType":"bus_stop"},{"id":"node-7713839282","lat":24.466267,"lon":120.843245,"name":"楊喜崎","decorType":"bus_stop"},{"id":"node-7713844211","lat":24.451948,"lon":120.875308,"name":"清安入口","decorType":"bus_stop"},{"id":"node-7713845286","lat":24.466716,"lon":120.834963,"name":"上福基","decorType":"bus_stop"},{"id":"node-7713845287","lat":24.466637,"lon":120.834838,"name":"上福基","decorType":"bus_stop"},{"id":"node-7713845338","lat":24.47009,"lon":120.831124,"name":"黃金小鎮","decorType":"bus_stop"},{"id":"node-7713845339","lat":24.470136,"lon":120.831264,"name":"黃金小鎮","decorType":"bus_stop"},{"id":"node-7771940292","lat":24.624382,"lon":120.847191,"name":"香格里拉","decorType":"bus_stop"},{"id":"node-7771940293","lat":24.624061,"lon":120.846523,"name":"香格里拉","decorType":"bus_stop"},{"id":"node-7771940294","lat":24.616042,"lon":120.838355,"name":"大衛營","decorType":"bus_stop"},{"id":"node-7771940295","lat":24.615968,"lon":120.838254,"name":"大衛營","decorType":"bus_stop"},{"id":"node-7771940298","lat":24.607326,"lon":120.832083,"name":"新蓮寺","decorType":"bus_stop"},{"id":"node-7771940299","lat":24.607397,"lon":120.832287,"name":"新蓮寺","decorType":"bus_stop"},{"id":"node-7771940300","lat":24.605525,"lon":120.82469,"name":"高鐵苗栗站","decorType":"bus_stop"},{"id":"node-7771940301","lat":24.605511,"lon":120.824645,"name":"高鐵苗栗站","decorType":"bus_stop"},{"id":"node-7771940302","lat":24.605491,"lon":120.824605,"name":"高鐵苗栗站","decorType":"bus_stop"},{"id":"node-7771940303","lat":24.605469,"lon":120.824559,"name":"高鐵苗栗站","decorType":"bus_stop"},{"id":"node-7771940304","lat":24.605451,"lon":120.824512,"name":"高鐵苗栗站","decorType":"bus_stop"},{"id":"node-7771940305","lat":24.605433,"lon":120.824461,"name":"高鐵苗栗站","decorType":"bus_stop"},{"id":"node-7771940306","lat":24.605412,"lon":120.824412,"name":"高鐵苗栗站","decorType":"bus_stop"},{"id":"node-7771940307","lat":24.600653,"lon":120.829052,"name":"二張犁","decorType":"bus_stop"},{"id":"node-7771940308","lat":24.600687,"lon":120.829218,"name":"二張犁","decorType":"bus_stop"},{"id":"node-7771940309","lat":24.585907,"lon":120.82508,"name":"福星新村","decorType":"bus_stop"},{"id":"node-7771940310","lat":24.585955,"lon":120.825207,"name":"福星新村","decorType":"bus_stop"},{"id":"node-7771940311","lat":24.570836,"lon":120.824554,"name":"北苗市場","decorType":"bus_stop"},{"id":"node-7771940312","lat":24.555355,"lon":120.819274,"name":"合作金庫","decorType":"bus_stop"},{"id":"node-7772364439","lat":24.623061,"lon":120.814223,"name":"埔頂里","decorType":"bus_stop"},{"id":"node-7794847689","lat":24.528395,"lon":120.818637,"name":"艾葛來牛肉麵","decorType":"restaurant"},{"id":"node-7984663515","lat":24.566942,"lon":120.820984,"name":"找餐殿","decorType":"restaurant"},{"id":"node-7984668002","lat":24.564347,"lon":120.813519,"name":"7-Eleven","decorType":"convenience"},{"id":"node-8058964376","lat":24.564479,"lon":120.82314,"name":"福星大旅社","decorType":"hotel"},{"id":"node-8058964377","lat":24.559853,"lon":120.82143,"name":"綠庭商務旅館","decorType":"hotel"},{"id":"node-8058964379","lat":24.556775,"lon":120.820545,"name":"園霖大飯店","decorType":"hotel"},{"id":"node-8058964380","lat":24.556416,"lon":120.818697,"name":"丸松大旅社","decorType":"hotel"},{"id":"node-8058964381","lat":24.551627,"lon":120.815963,"name":"南苗大旅社","decorType":"hotel"},{"id":"node-8059094179","lat":24.423744,"lon":120.868144,"name":"采莓行館","decorType":"hotel"},{"id":"node-8059094184","lat":24.413796,"lon":120.862634,"name":"太湖民宿","decorType":"hotel"},{"id":"node-8059100997","lat":24.433696,"lon":120.914675,"name":"天然居民宿","decorType":"hotel"},{"id":"node-8059101010","lat":24.418282,"lon":120.861306,"name":"竹高屋民宿","decorType":"hotel"},{"id":"node-8059101011","lat":24.425584,"lon":120.895479,"name":"日光森林","decorType":"hotel"},{"id":"node-8059101019","lat":24.423668,"lon":120.867234,"name":"錦興旅社","decorType":"hotel"},{"id":"node-8118272777","lat":24.569621,"lon":120.822473,"name":"全家便利商店","decorType":"convenience"},{"id":"node-8118272918","lat":24.614941,"lon":120.788509,"name":"全家便利商店","decorType":"convenience"},{"id":"node-8229955283","lat":24.617086,"lon":120.792013,"name":"田心","decorType":"bus_stop"},{"id":"node-8229955284","lat":24.614496,"lon":120.790159,"name":"後龍站","decorType":"bus_stop"},{"id":"node-8229955285","lat":24.614565,"lon":120.790179,"name":"後龍站","decorType":"bus_stop"},{"id":"node-8230578321","lat":24.527153,"lon":120.797616,"name":"新英國小","decorType":"bus_stop"},{"id":"node-8230578322","lat":24.49128,"lon":120.787911,"name":"銅鑼天主堂","decorType":"bus_stop"},{"id":"node-8230578323","lat":24.489753,"lon":120.787823,"name":"銅鑼","decorType":"bus_stop"},{"id":"node-8234360633","lat":24.545786,"lon":120.812428,"name":"二坪山","decorType":"bus_stop"},{"id":"node-8234360634","lat":24.538003,"lon":120.81179,"name":"育民工家","decorType":"bus_stop"},{"id":"node-8234360635","lat":24.539207,"lon":120.789801,"name":"八甲校區2","decorType":"bus_stop"},{"id":"node-8234360636","lat":24.539274,"lon":120.790161,"name":"八甲校區2","decorType":"bus_stop"},{"id":"node-8234360637","lat":24.536452,"lon":120.788117,"name":"八甲校區1","decorType":"bus_stop"},{"id":"node-8234360638","lat":24.519998,"lon":120.788676,"name":"五湖口","decorType":"bus_stop"},{"id":"node-8234360660","lat":24.56045,"lon":120.815161,"name":"建臺高中","decorType":"bus_stop"},{"id":"node-8234360665","lat":24.600333,"lon":120.827998,"name":"二張犁","decorType":"bus_stop"},{"id":"node-8234360666","lat":24.600488,"lon":120.828219,"name":"二張犁","decorType":"bus_stop"},{"id":"node-8234360667","lat":24.601425,"lon":120.823054,"name":"豐富","decorType":"bus_stop"},{"id":"node-8234360668","lat":24.601304,"lon":120.823013,"name":"豐富","decorType":"bus_stop"},{"id":"node-8234360671","lat":24.603854,"lon":120.818776,"name":"下庄","decorType":"bus_stop"},{"id":"node-8234360672","lat":24.603912,"lon":120.818805,"name":"下庄","decorType":"bus_stop"},{"id":"node-8234360673","lat":24.60506,"lon":120.815136,"name":"伯公下","decorType":"bus_stop"},{"id":"node-8234360674","lat":24.60507,"lon":120.815055,"name":"伯公下","decorType":"bus_stop"},{"id":"node-8234360679","lat":24.611112,"lon":120.813769,"name":"新港","decorType":"bus_stop"},{"id":"node-8234360680","lat":24.610865,"lon":120.813867,"name":"新港","decorType":"bus_stop"},{"id":"node-8234360681","lat":24.610762,"lon":120.811084,"name":"社下","decorType":"bus_stop"},{"id":"node-8234360682","lat":24.610646,"lon":120.811105,"name":"社下","decorType":"bus_stop"},{"id":"node-8234360683","lat":24.610862,"lon":120.806175,"name":"田尾","decorType":"bus_stop"},{"id":"node-8234360684","lat":24.61071,"lon":120.806166,"name":"田尾","decorType":"bus_stop"},{"id":"node-8234360685","lat":24.611729,"lon":120.798208,"name":"民族路口","decorType":"bus_stop"},{"id":"node-8234360686","lat":24.611529,"lon":120.798294,"name":"民族路口","decorType":"bus_stop"},{"id":"node-8234360687","lat":24.613538,"lon":120.795888,"name":"大庄","decorType":"bus_stop"},{"id":"node-8234360688","lat":24.613594,"lon":120.795973,"name":"大庄","decorType":"bus_stop"},{"id":"node-8234360689","lat":24.616499,"lon":120.788372,"name":"金龍旅社","decorType":"bus_stop"},{"id":"node-8234360690","lat":24.616389,"lon":120.788264,"name":"金龍旅社","decorType":"bus_stop"},{"id":"node-8234360716","lat":24.569384,"lon":120.823056,"name":"新竹客運苗栗站","decorType":"bus_stop"},{"id":"node-8236875351","lat":24.486002,"lon":120.788413,"name":"圖書館","decorType":"bus_stop"},{"id":"node-8236875352","lat":24.486102,"lon":120.788433,"name":"圖書館","decorType":"bus_stop"},{"id":"node-8236875353","lat":24.485448,"lon":120.792476,"name":"黃泥崎","decorType":"bus_stop"},{"id":"node-8236875354","lat":24.485497,"lon":120.792726,"name":"黃泥崎","decorType":"bus_stop"},{"id":"node-8236875361","lat":24.483525,"lon":120.794874,"name":"工業社區","decorType":"bus_stop"},{"id":"node-8236875362","lat":24.483565,"lon":120.794969,"name":"工業社區","decorType":"bus_stop"},{"id":"node-8236875363","lat":24.480123,"lon":120.796412,"name":"雙峰口","decorType":"bus_stop"},{"id":"node-8236875364","lat":24.480165,"lon":120.79653,"name":"雙峰口","decorType":"bus_stop"},{"id":"node-8236875365","lat":24.472947,"lon":120.804184,"name":"七十份","decorType":"bus_stop"},{"id":"node-8236875366","lat":24.472555,"lon":120.804309,"name":"七十份","decorType":"bus_stop"},{"id":"node-8236875367","lat":24.466109,"lon":120.806954,"name":"河底","decorType":"bus_stop"},{"id":"node-8236875368","lat":24.466183,"lon":120.807077,"name":"河底","decorType":"bus_stop"},{"id":"node-8236875369","lat":24.465011,"lon":120.811292,"name":"老雞隆","decorType":"bus_stop"},{"id":"node-8236875370","lat":24.464799,"lon":120.811467,"name":"老雞隆","decorType":"bus_stop"},{"id":"node-8236875371","lat":24.463137,"lon":120.812306,"name":"興隆國小","decorType":"bus_stop"},{"id":"node-8236875372","lat":24.462806,"lon":120.812366,"name":"興隆國小","decorType":"bus_stop"},{"id":"node-8236875373","lat":24.460752,"lon":120.813972,"name":"廖屋","decorType":"bus_stop"},{"id":"node-8236875374","lat":24.460275,"lon":120.813807,"name":"廖屋","decorType":"bus_stop"},{"id":"node-8236875375","lat":24.457398,"lon":120.813913,"name":"汴頭","decorType":"bus_stop"},{"id":"node-8236875376","lat":24.457538,"lon":120.814036,"name":"汴頭","decorType":"bus_stop"},{"id":"node-8236875377","lat":24.454555,"lon":120.815222,"name":"圓墩","decorType":"bus_stop"},{"id":"node-8236875378","lat":24.454427,"lon":120.815359,"name":"圓墩","decorType":"bus_stop"},{"id":"node-8236875379","lat":24.450307,"lon":120.815204,"name":"社寮","decorType":"bus_stop"},{"id":"node-8236875380","lat":24.450144,"lon":120.815453,"name":"社寮","decorType":"bus_stop"},{"id":"node-8236875381","lat":24.448568,"lon":120.813202,"name":"高橋坑","decorType":"bus_stop"},{"id":"node-8236875382","lat":24.448264,"lon":120.813299,"name":"高橋坑","decorType":"bus_stop"},{"id":"node-8236875383","lat":24.445927,"lon":120.810961,"name":"盛隆口","decorType":"bus_stop"},{"id":"node-8236875384","lat":24.445805,"lon":120.811111,"name":"盛隆口","decorType":"bus_stop"},{"id":"node-8236875385","lat":24.443733,"lon":120.81066,"name":"盛隆","decorType":"bus_stop"},{"id":"node-8236875386","lat":24.443793,"lon":120.810833,"name":"盛隆","decorType":"bus_stop"},{"id":"node-8236875387","lat":24.440944,"lon":120.812488,"name":"彭屋","decorType":"bus_stop"},{"id":"node-8236875388","lat":24.440635,"lon":120.812702,"name":"彭屋","decorType":"bus_stop"},{"id":"node-8236875389","lat":24.438619,"lon":120.812262,"name":"茄苳坑","decorType":"bus_stop"},{"id":"node-8236875390","lat":24.438645,"lon":120.812421,"name":"茄苳坑","decorType":"bus_stop"},{"id":"node-8236875392","lat":24.434548,"lon":120.810433,"name":"福德","decorType":"bus_stop"},{"id":"node-8236875393","lat":24.434395,"lon":120.81049,"name":"福德","decorType":"bus_stop"},{"id":"node-8236875394","lat":24.432775,"lon":120.8096,"name":"辦事處","decorType":"bus_stop"},{"id":"node-8236875395","lat":24.432736,"lon":120.809751,"name":"辦事處","decorType":"bus_stop"},{"id":"node-8236875398","lat":24.528918,"lon":120.819002,"name":"鶴岡口","decorType":"bus_stop"},{"id":"node-8236875399","lat":24.529016,"lon":120.819104,"name":"鶴岡口","decorType":"bus_stop"},{"id":"node-8236875405","lat":24.529334,"lon":120.821866,"name":"新珠廠","decorType":"bus_stop"},{"id":"node-8236875406","lat":24.529418,"lon":120.821812,"name":"新珠廠","decorType":"bus_stop"},{"id":"node-8236875407","lat":24.530203,"lon":120.823428,"name":"德馨社區","decorType":"bus_stop"},{"id":"node-8236875408","lat":24.530533,"lon":120.823741,"name":"德馨社區","decorType":"bus_stop"},{"id":"node-8236875409","lat":24.531174,"lon":120.825229,"name":"高禾程","decorType":"bus_stop"},{"id":"node-8236875410","lat":24.531243,"lon":120.825213,"name":"高禾程","decorType":"bus_stop"},{"id":"node-8236875411","lat":24.531393,"lon":120.831266,"name":"鶴岡","decorType":"bus_stop"},{"id":"node-8236875412","lat":24.531505,"lon":120.831291,"name":"鶴岡","decorType":"bus_stop"},{"id":"node-8236875413","lat":24.531814,"lon":120.828057,"name":"宏福社區","decorType":"bus_stop"},{"id":"node-8236875414","lat":24.531017,"lon":120.833584,"name":"胡厝","decorType":"bus_stop"},{"id":"node-8236875415","lat":24.531044,"lon":120.833694,"name":"胡厝","decorType":"bus_stop"},{"id":"node-8236875416","lat":24.528048,"lon":120.836615,"name":"東西橋","decorType":"bus_stop"},{"id":"node-8236875417","lat":24.528149,"lon":120.836614,"name":"東西橋","decorType":"bus_stop"},{"id":"node-8236875418","lat":24.528211,"lon":120.839781,"name":"寬仁","decorType":"bus_stop"},{"id":"node-8236875419","lat":24.528312,"lon":120.839803,"name":"寬仁","decorType":"bus_stop"},{"id":"node-8236875420","lat":24.524489,"lon":120.849244,"name":"善西橋","decorType":"bus_stop"},{"id":"node-8236875421","lat":24.524518,"lon":120.849152,"name":"善西橋","decorType":"bus_stop"},{"id":"node-8236875429","lat":24.527646,"lon":120.850224,"name":"新庄角","decorType":"bus_stop"},{"id":"node-8236875430","lat":24.527851,"lon":120.850194,"name":"新庄角","decorType":"bus_stop"},{"id":"node-8236875433","lat":24.529825,"lon":120.852893,"name":"南河國小","decorType":"bus_stop"},{"id":"node-8236875434","lat":24.529893,"lon":120.852823,"name":"南河國小","decorType":"bus_stop"},{"id":"node-8236875442","lat":24.533329,"lon":120.856193,"name":"玉清寺口","decorType":"bus_stop"},{"id":"node-8236875443","lat":24.533221,"lon":120.856328,"name":"玉清寺口","decorType":"bus_stop"},{"id":"node-8236875444","lat":24.535237,"lon":120.8596,"name":"北河活動中心","decorType":"bus_stop"},{"id":"node-8236875445","lat":24.520944,"lon":120.809749,"name":"張厝","decorType":"bus_stop"},{"id":"node-8236875446","lat":24.520984,"lon":120.809668,"name":"張厝","decorType":"bus_stop"},{"id":"node-8236875447","lat":24.522537,"lon":120.810984,"name":"葉厝","decorType":"bus_stop"},{"id":"node-8236875448","lat":24.522466,"lon":120.810871,"name":"葉厝","decorType":"bus_stop"},{"id":"node-8236875449","lat":24.518464,"lon":120.8084,"name":"和平","decorType":"bus_stop"},{"id":"node-8236875450","lat":24.518418,"lon":120.808536,"name":"和平","decorType":"bus_stop"},{"id":"node-8236875451","lat":24.516409,"lon":120.807999,"name":"友全陶瓷","decorType":"bus_stop"},{"id":"node-8236875452","lat":24.516382,"lon":120.808134,"name":"友全陶瓷","decorType":"bus_stop"},{"id":"node-8236875453","lat":24.514315,"lon":120.807579,"name":"復安","decorType":"bus_stop"},{"id":"node-8236875454","lat":24.514147,"lon":120.807692,"name":"復安","decorType":"bus_stop"},{"id":"node-8236875455","lat":24.50937,"lon":120.809329,"name":"東岡","decorType":"bus_stop"},{"id":"node-8236875456","lat":24.509345,"lon":120.809412,"name":"東岡","decorType":"bus_stop"},{"id":"node-8236875457","lat":24.503666,"lon":120.809601,"name":"中興","decorType":"bus_stop"},{"id":"node-8236875458","lat":24.503541,"lon":120.809486,"name":"中興","decorType":"bus_stop"},{"id":"node-8236875460","lat":24.500088,"lon":120.808939,"name":"下中興","decorType":"bus_stop"},{"id":"node-8236875461","lat":24.500037,"lon":120.809069,"name":"下中興","decorType":"bus_stop"},{"id":"node-8236875462","lat":24.498443,"lon":120.809013,"name":"中興國小","decorType":"bus_stop"},{"id":"node-8236875463","lat":24.498429,"lon":120.808924,"name":"中興國小","decorType":"bus_stop"},{"id":"node-8236875464","lat":24.495605,"lon":120.808698,"name":"中平","decorType":"bus_stop"},{"id":"node-8236875465","lat":24.495687,"lon":120.808828,"name":"中平","decorType":"bus_stop"},{"id":"node-8236875466","lat":24.49132,"lon":120.809221,"name":"天神宮","decorType":"bus_stop"},{"id":"node-8236875467","lat":24.491205,"lon":120.809156,"name":"天神宮","decorType":"bus_stop"},{"id":"node-8236875470","lat":24.487016,"lon":120.810147,"name":"南爺","decorType":"bus_stop"},{"id":"node-8236875471","lat":24.48692,"lon":120.810276,"name":"南爺","decorType":"bus_stop"},{"id":"node-8236875472","lat":24.48413,"lon":120.809803,"name":"水頭伯公","decorType":"bus_stop"},{"id":"node-8236875473","lat":24.484173,"lon":120.809949,"name":"水頭伯公","decorType":"bus_stop"},{"id":"node-8236875482","lat":24.482673,"lon":120.810079,"name":"七十份","decorType":"bus_stop"},{"id":"node-8236875483","lat":24.482517,"lon":120.81016,"name":"七十份","decorType":"bus_stop"},{"id":"node-8236875484","lat":24.476855,"lon":120.809596,"name":"堤防","decorType":"bus_stop"},{"id":"node-8236875485","lat":24.476965,"lon":120.809649,"name":"堤防","decorType":"bus_stop"},{"id":"node-8236875486","lat":24.474863,"lon":120.812997,"name":"鄉界","decorType":"bus_stop"},{"id":"node-8236875487","lat":24.474754,"lon":120.812939,"name":"鄉界","decorType":"bus_stop"},{"id":"node-8236875488","lat":24.472764,"lon":120.817563,"name":"關爺宮","decorType":"bus_stop"},{"id":"node-8236875489","lat":24.472848,"lon":120.817605,"name":"關爺宮","decorType":"bus_stop"},{"id":"node-8236875490","lat":24.472183,"lon":120.81931,"name":"石圍牆","decorType":"bus_stop"},{"id":"node-8236875491","lat":24.472001,"lon":120.81939,"name":"石圍牆","decorType":"bus_stop"},{"id":"node-8236875492","lat":24.4725,"lon":120.825908,"name":"香埔","decorType":"bus_stop"},{"id":"node-8236875493","lat":24.472401,"lon":120.825911,"name":"香埔","decorType":"bus_stop"},{"id":"node-8236875494","lat":24.472213,"lon":120.830052,"name":"福基","decorType":"bus_stop"},{"id":"node-8239476328","lat":24.527083,"lon":120.819223,"name":"交流道口","decorType":"bus_stop"},{"id":"node-8239476329","lat":24.527002,"lon":120.819522,"name":"交流道口","decorType":"bus_stop"},{"id":"node-8239476333","lat":24.486078,"lon":120.828765,"name":"枋屋","decorType":"bus_stop"},{"id":"node-8239476334","lat":24.486094,"lon":120.828889,"name":"枋屋","decorType":"bus_stop"},{"id":"node-8239476335","lat":24.475258,"lon":120.830258,"name":"福園","decorType":"bus_stop"},{"id":"node-8239476336","lat":24.47265,"lon":120.830475,"name":"福基","decorType":"bus_stop"},{"id":"node-8239476337","lat":24.465554,"lon":120.848899,"name":"精米所","decorType":"bus_stop"},{"id":"node-8239476343","lat":24.425498,"lon":120.869171,"name":"新竹客運大湖站","decorType":"bus_stop"},{"id":"node-8239476344","lat":24.430342,"lon":120.86841,"name":"活動中心","decorType":"bus_stop"},{"id":"node-8239476345","lat":24.430299,"lon":120.86861,"name":"活動中心","decorType":"bus_stop"},{"id":"node-8239476346","lat":24.420218,"lon":120.863486,"name":"法寶寺","decorType":"bus_stop"},{"id":"node-8239891942","lat":24.422101,"lon":120.868067,"name":"郵局前","decorType":"bus_stop"},{"id":"node-8239891943","lat":24.42214,"lon":120.868151,"name":"郵局前","decorType":"bus_stop"},{"id":"node-8239891944","lat":24.423705,"lon":120.869648,"name":"改良場前","decorType":"bus_stop"},{"id":"node-8239891945","lat":24.423736,"lon":120.869535,"name":"改良場前","decorType":"bus_stop"},{"id":"node-8239891946","lat":24.425344,"lon":120.870321,"name":"國中前","decorType":"bus_stop"},{"id":"node-8239891947","lat":24.425377,"lon":120.870244,"name":"國中前","decorType":"bus_stop"},{"id":"node-8239891948","lat":24.429224,"lon":120.879912,"name":"社寮角","decorType":"bus_stop"},{"id":"node-8239891949","lat":24.429365,"lon":120.879918,"name":"社寮角","decorType":"bus_stop"},{"id":"node-8239891950","lat":24.430333,"lon":120.883097,"name":"橫坑","decorType":"bus_stop"},{"id":"node-8239891951","lat":24.430455,"lon":120.883092,"name":"橫坑","decorType":"bus_stop"},{"id":"node-8239891952","lat":24.429069,"lon":120.886681,"name":"屯兵營","decorType":"bus_stop"},{"id":"node-8239891953","lat":24.429161,"lon":120.886702,"name":"屯兵營","decorType":"bus_stop"},{"id":"node-8239891954","lat":24.429759,"lon":120.891102,"name":"香林","decorType":"bus_stop"},{"id":"node-8239891955","lat":24.429614,"lon":120.891052,"name":"香林","decorType":"bus_stop"},{"id":"node-8239891956","lat":24.426946,"lon":120.893812,"name":"茄苳樹下","decorType":"bus_stop"},{"id":"node-8239891957","lat":24.427006,"lon":120.893877,"name":"茄苳樹下","decorType":"bus_stop"},{"id":"node-8239891964","lat":24.422182,"lon":120.897931,"name":"小南勢","decorType":"bus_stop"},{"id":"node-8239891965","lat":24.422288,"lon":120.897996,"name":"小南勢","decorType":"bus_stop"},{"id":"node-8239891966","lat":24.418126,"lon":120.899001,"name":"活動中心","decorType":"bus_stop"},{"id":"node-8239891967","lat":24.418014,"lon":120.899125,"name":"活動中心","decorType":"bus_stop"},{"id":"node-8239891968","lat":24.416492,"lon":120.899725,"name":"蔗蔀坑","decorType":"bus_stop"},{"id":"node-8239891969","lat":24.416641,"lon":120.899777,"name":"蔗蔀坑","decorType":"bus_stop"},{"id":"node-8239891970","lat":24.41449,"lon":120.900186,"name":"下反水","decorType":"bus_stop"},{"id":"node-8239891971","lat":24.414361,"lon":120.900312,"name":"下反水","decorType":"bus_stop"},{"id":"node-8239891982","lat":24.449183,"lon":120.877717,"name":"蠶種廠","decorType":"bus_stop"},{"id":"node-8239891983","lat":24.449165,"lon":120.877872,"name":"蠶種廠","decorType":"bus_stop"},{"id":"node-8239891984","lat":24.452886,"lon":120.875226,"name":"上溫泉口","decorType":"bus_stop"},{"id":"node-8239891985","lat":24.445747,"lon":120.881518,"name":"水尾坪","decorType":"bus_stop"},{"id":"node-8239891986","lat":24.445779,"lon":120.881763,"name":"水尾坪","decorType":"bus_stop"},{"id":"node-8239891987","lat":24.445139,"lon":120.883856,"name":"上坪","decorType":"bus_stop"},{"id":"node-8239891988","lat":24.444925,"lon":120.883945,"name":"上坪","decorType":"bus_stop"},{"id":"node-8239891989","lat":24.443599,"lon":120.893315,"name":"龍美","decorType":"bus_stop"},{"id":"node-8239891990","lat":24.443493,"lon":120.893683,"name":"龍美","decorType":"bus_stop"},{"id":"node-8239891991","lat":24.444181,"lon":120.896111,"name":"爆石","decorType":"bus_stop"},{"id":"node-8239891992","lat":24.444015,"lon":120.896088,"name":"爆石","decorType":"bus_stop"},{"id":"node-8241992020","lat":24.588398,"lon":120.816329,"name":"西山尾","decorType":"bus_stop"},{"id":"node-8241992021","lat":24.587551,"lon":120.817177,"name":"西山尾","decorType":"bus_stop"},{"id":"node-8241992023","lat":24.5748,"lon":120.820085,"name":"國華路口","decorType":"bus_stop"},{"id":"node-8241992024","lat":24.574751,"lon":120.820243,"name":"國華路口","decorType":"bus_stop"},{"id":"node-8241992025","lat":24.569999,"lon":120.820824,"name":"苗栗火車站(西站)","decorType":"bus_stop"},{"id":"node-8241992026","lat":24.570016,"lon":120.820938,"name":"苗栗火車站(西站)","decorType":"bus_stop"},{"id":"node-8241992027","lat":24.563402,"lon":120.821487,"name":"縣政府","decorType":"bus_stop"},{"id":"node-8241992028","lat":24.563471,"lon":120.821624,"name":"苗栗縣政府","decorType":"bus_stop"},{"id":"node-8241992029","lat":24.564081,"lon":120.814909,"name":"小巨蛋","decorType":"bus_stop"},{"id":"node-8241992030","lat":24.564128,"lon":120.815284,"name":"小巨蛋","decorType":"bus_stop"},{"id":"node-8241992031","lat":24.532906,"lon":120.81702,"name":"苗栗工藝園區","decorType":"bus_stop"},{"id":"node-8241992032","lat":24.53215,"lon":120.817644,"name":"苗栗工藝園區","decorType":"bus_stop"},{"id":"node-8241992033","lat":24.520434,"lon":120.821424,"name":"苗栗交流道","decorType":"bus_stop"},{"id":"node-8241992034","lat":24.520412,"lon":120.82169,"name":"苗栗交流道","decorType":"bus_stop"},{"id":"node-8241992035","lat":24.505841,"lon":120.826952,"name":"公館鄉公所","decorType":"bus_stop"},{"id":"node-8241992036","lat":24.506609,"lon":120.826945,"name":"公館鄉公所","decorType":"bus_stop"},{"id":"node-8241992037","lat":24.489263,"lon":120.828354,"name":"苗栗特色館","decorType":"bus_stop"},{"id":"node-8241992038","lat":24.489278,"lon":120.8285,"name":"苗栗特色館","decorType":"bus_stop"},{"id":"node-8261804093","lat":24.485717,"lon":120.791839,"name":"全家便利商店","decorType":"convenience"},{"id":"node-8305836517","lat":24.587135,"lon":120.883194,"name":"152日安咖啡","decorType":"cafe"},{"id":"node-8308277017","lat":24.473931,"lon":120.796248,"name":"雙峰草堂","decorType":"cafe"},{"id":"node-8308358117","lat":24.570582,"lon":120.822669,"name":"一口香餡餅","decorType":"burger"},{"id":"node-8308358118","lat":24.614197,"lon":120.788147,"name":"Daddy &Mommy Bakery","decorType":"cafe"},{"id":"node-8318937317","lat":24.567391,"lon":120.821022,"name":"植感咖啡","decorType":"cafe"},{"id":"node-8318985717","lat":24.566861,"lon":120.823549,"name":"日榮本屋","decorType":"library"},{"id":"node-8320315717","lat":24.568931,"lon":120.82435,"name":"二分之三咖哩","decorType":"restaurant"},{"id":"node-8326571718","lat":24.58959,"lon":120.887567,"name":"日光呼吸","decorType":"hotel"},{"id":"node-8332469417","lat":24.472398,"lon":120.830363,"name":"穿龍豆腐坊","decorType":"restaurant"},{"id":"node-8385304909","lat":24.500208,"lon":120.827789,"name":"八方雲集","decorType":"burger"},{"id":"node-8385313268","lat":24.559923,"lon":120.817894,"name":"八方雲集","decorType":"burger"},{"id":"node-8385313370","lat":24.61503,"lon":120.788178,"name":"八方雲集","decorType":"burger"},