{"bbox":{"south":24.85625,"north":25.078125,"west":121.05,"east":121.18125},"pois":[{"id":"node-10072701156","lat":24.912747,"lon":121.16891,"name":"美廉社","decorType":"supermarket"},{"id":"node-10180169033","lat":24.88691,"lon":121.138504,"name":"福德祠","decorType":"shrine"},{"id":"node-10180169087","lat":24.891413,"lon":121.13702,"name":"秀才福德祠","decorType":"shrine"},{"id":"node-10180306533","lat":24.885899,"lon":121.141355,"name":"福德祠","decorType":"shrine"},{"id":"node-10182177883","lat":25.035169,"lon":121.084522,"name":"觀音郵局","decorType":"post_office"},{"id":"node-10187767137","lat":25.012872,"lon":121.136433,"name":"全家便利商店","decorType":"convenience"},{"id":"node-10187767145","lat":25.00994,"lon":121.14106,"name":"必勝客","decorType":"restaurant"},{"id":"node-10547944892","lat":24.959134,"lon":121.175252,"name":"7-Eleven","decorType":"convenience"},{"id":"node-10554393058","lat":25.047391,"lon":121.14309,"name":"全國電子","decorType":"electronics"},{"id":"node-10554393059","lat":25.047453,"lon":121.143162,"name":"阿母ㄟ灶咖","decorType":"restaurant"},{"id":"node-10554393064","lat":25.047568,"lon":121.142868,"name":"永成電器","decorType":"electronics"},{"id":"node-10554393065","lat":25.047541,"lon":121.142849,"name":"CoCo都可","decorType":"cafe"},{"id":"node-10554393067","lat":25.047687,"lon":121.143017,"name":"日式威廉","decorType":"hair_salon"},{"id":"node-10554393068","lat":25.047742,"lon":121.143477,"name":"名家西服","decorType":"clothing"},{"id":"node-10581879054","lat":25.060529,"lon":121.166892,"name":"埔頂庄","decorType":"mountain"},{"id":"node-10583083048","lat":24.957809,"lon":121.166178,"name":"清心福全","decorType":"cafe"},{"id":"node-10588053979","lat":24.988547,"lon":121.181132,"name":"CoCo都可","decorType":"cafe"},{"id":"node-10588081771","lat":25.002131,"lon":121.154238,"name":"萊爾富","decorType":"convenience"},{"id":"node-10588081772","lat":25.004815,"lon":121.149116,"name":"萊爾富","decorType":"convenience"},{"id":"node-10588081777","lat":24.993421,"lon":121.16772,"name":"全家便利商店","decorType":"convenience"},{"id":"node-10798721718","lat":25.077424,"lon":121.180634,"name":"下厝土地公","decorType":"shrine"},{"id":"node-10798756076","lat":24.935359,"lon":121.088144,"name":"7-Eleven","decorType":"convenience"},{"id":"node-10798785079","lat":25.009144,"lon":121.14223,"name":"Domino's","decorType":"burger"},{"id":"node-10811607244","lat":25.007197,"lon":121.141189,"name":"大同","decorType":"bus_stop"},{"id":"node-10815890620","lat":24.884479,"lon":121.160421,"name":"光復土地公","decorType":"shrine"},{"id":"node-10815890621","lat":24.885369,"lon":121.162654,"name":"普勒小姐柴燒工坊","decorType":"bakery"},{"id":"node-10858044659","lat":25.047083,"lon":121.137219,"name":"7-Eleven","decorType":"convenience"},{"id":"node-10901054331","lat":25.076974,"lon":121.169834,"name":"碧雲寺","decorType":"shrine"},{"id":"node-10974836371","lat":24.958634,"lon":121.17888,"name":"不要加蔥窯烤胡椒餅","decorType":"sweetshop"},{"id":"node-10974843712","lat":24.958627,"lon":121.179244,"name":"十三番工房","decorType":"cafe"},{"id":"node-10974843713","lat":24.958628,"lon":121.179165,"name":"理裏","decorType":"hair_salon"},{"id":"node-11032419421","lat":24.908568,"lon":121.156246,"name":"寶家五金","decorType":"hardware"},{"id":"node-11032419422","lat":24.909546,"lon":121.157333,"name":"OK超商","decorType":"convenience"},{"id":"node-11090859688","lat":24.858746,"lon":121.105215,"name":"九芎湖土地公","decorType":"shrine"},{"id":"node-11090895114","lat":24.862723,"lon":121.103598,"name":"鴛鴦池小吃","decorType":"restaurant"},{"id":"node-11090895116","lat":24.862098,"lon":121.10555,"name":"九芎湖廣財宮","decorType":"shrine"},{"id":"node-11093264434","lat":24.877107,"lon":121.056286,"name":"湖口風情客家菜","decorType":"restaurant"},{"id":"node-11140369237","lat":25.061602,"lon":121.1757,"name":"星巴克","decorType":"cafe"},{"id":"node-11340846858","lat":24.877218,"lon":121.057369,"name":"卡拉義式餐館","decorType":"restaurant"},{"id":"node-11389326250","lat":24.95672,"lon":121.166866,"name":"7-Eleven","decorType":"convenience"},{"id":"node-11393885926","lat":24.958986,"lon":121.166582,"name":"元爵味黃燜雞米飯","decorType":"restaurant"},{"id":"node-11436344144","lat":25.035968,"lon":121.117099,"name":"萊爾富","decorType":"convenience"},{"id":"node-11454211258","lat":24.999734,"lon":121.122212,"name":"萊爾富","decorType":"convenience"},{"id":"node-11459485394","lat":25.045163,"lon":121.102108,"name":"埔頂庄","decorType":"mountain"},{"id":"node-11484448557","lat":25.036968,"lon":121.103565,"name":"7-Eleven","decorType":"convenience"},{"id":"node-11486652544","lat":24.972596,"lon":121.108047,"name":"肯德基","decorType":"burger"},{"id":"node-11487044483","lat":25.035261,"lon":121.084842,"name":"清心福全","decorType":"cafe"},{"id":"node-11504863699","lat":24.95946,"lon":121.115074,"name":"7-Eleven","decorType":"convenience"},{"id":"node-11504863707","lat":24.952854,"lon":121.11784,"name":"萊爾富","decorType":"convenience"},{"id":"node-11762651447","lat":24.961644,"lon":121.16253,"name":"彤關東煮","decorType":"restaurant"},{"id":"node-11762651448","lat":24.961661,"lon":121.162513,"name":"九龍冰室","decorType":"cafe"},{"id":"node-11762651449","lat":24.961625,"lon":121.162548,"name":"燒仙草 紅豆湯圓","decorType":"restaurant"},{"id":"node-11762651450","lat":24.96161,"lon":121.162559,"name":"客家油飯","decorType":"restaurant"},{"id":"node-11762651451","lat":24.961591,"lon":121.162576,"name":"伊瑪蘭小米甜甜圈","decorType":"burger"},{"id":"node-11762651452","lat":24.961571,"lon":121.162593,"name":"麻辣臭豆腐","decorType":"restaurant"},{"id":"node-11762651453","lat":24.960011,"lon":121.163413,"name":"沙巴家","decorType":"restaurant"},{"id":"node-11762651454","lat":24.960075,"lon":121.163338,"name":"新創客家料理","decorType":"restaurant"},{"id":"node-11762651455","lat":24.96025,"lon":121.164076,"name":"熊熊遇見堡","decorType":"restaurant"},{"id":"node-11762651456","lat":24.959635,"lon":121.164213,"name":"郭記牛肉食堂","decorType":"restaurant"},{"id":"node-11762651457","lat":24.95957,"lon":121.164293,"name":"Mr. Wish","decorType":"cafe"},{"id":"node-11762651458","lat":24.95982,"lon":121.164012,"name":"拾壹香牛肉麵麵食館","decorType":"restaurant"},{"id":"node-11762651459","lat":24.95931,"lon":121.164115,"name":"長疆羊肉爐","decorType":"restaurant"},{"id":"node-11762651460","lat":24.960276,"lon":121.164789,"name":"潮味決","decorType":"restaurant"},{"id":"node-11762651461","lat":24.959209,"lon":121.165946,"name":"一私麵宅","decorType":"restaurant"},{"id":"node-11762651462","lat":24.958746,"lon":121.166941,"name":"羊老大吃到飽","decorType":"restaurant"},{"id":"node-11762651463","lat":24.958424,"lon":121.166649,"name":"大今日甜湯","decorType":"restaurant"},{"id":"node-11762651464","lat":24.958364,"lon":121.166886,"name":"牛逼厚切牛排","decorType":"restaurant"},{"id":"node-11788917235","lat":24.960594,"lon":121.093064,"name":"萊爾富","decorType":"convenience"},{"id":"node-11795216451","lat":24.921117,"lon":121.127703,"name":"萊爾富","decorType":"convenience"},{"id":"node-11813014395","lat":24.912872,"lon":121.126079,"name":"萊爾富","decorType":"convenience"},{"id":"node-11816439819","lat":24.958524,"lon":121.164791,"name":"茶朵ㄦ","decorType":"cafe"},{"id":"node-11816439820","lat":24.958157,"lon":121.166969,"name":"味香自助餐","decorType":"restaurant"},{"id":"node-11816439821","lat":24.957792,"lon":121.166363,"name":"胖老爹","decorType":"burger"},{"id":"node-11816439822","lat":24.958461,"lon":121.165452,"name":"麗媽香香鍋","decorType":"restaurant"},{"id":"node-11816439823","lat":24.958832,"lon":121.165044,"name":"卡尼莫義大利麵","decorType":"restaurant"},{"id":"node-11816439824","lat":24.958156,"lon":121.167257,"name":"合浦刀削麵","decorType":"restaurant"},{"id":"node-11816439827","lat":24.958157,"lon":121.167065,"name":"好食屋","decorType":"restaurant"},{"id":"node-11816439828","lat":24.957842,"lon":121.166086,"name":"過嶺藥師藥局","decorType":"pharmacy"},{"id":"node-11816439829","lat":24.958325,"lon":121.165697,"name":"廣濟生鮮超市","decorType":"supermarket"},{"id":"node-11816439830","lat":24.958339,"lon":121.165653,"name":"大東剪髮","decorType":"hair_salon"},{"id":"node-11816439831","lat":24.957827,"lon":121.167534,"name":"韓記古早味","decorType":"restaurant"},{"id":"node-11816439833","lat":24.958035,"lon":121.165404,"name":"逸豐便當","decorType":"restaurant"},{"id":"node-11816439834","lat":24.957802,"lon":121.166229,"name":"麻辣鴨血","decorType":"restaurant"},{"id":"node-11816439835","lat":24.958157,"lon":121.167017,"name":"永豐藥局","decorType":"pharmacy"},{"id":"node-11816439836","lat":24.958168,"lon":121.167927,"name":"香居越南小吃","decorType":"restaurant"},{"id":"node-11816439838","lat":24.958163,"lon":121.16641,"name":"醇滷味","decorType":"restaurant"},{"id":"node-11816439839","lat":24.957868,"lon":121.166044,"name":"梁社漢排骨","decorType":"restaurant"},{"id":"node-11816439840","lat":24.958147,"lon":121.166367,"name":"水煎包","decorType":"restaurant"},{"id":"node-11816439841","lat":24.958157,"lon":121.167108,"name":"皇家藥燉排骨","decorType":"restaurant"},{"id":"node-11816439842","lat":24.957776,"lon":121.166595,"name":"七先生鹽酥雞","decorType":"burger"},{"id":"node-11816439843","lat":24.957779,"lon":121.166509,"name":"正騰和","decorType":"burger"},{"id":"node-11816439844","lat":24.958152,"lon":121.166294,"name":"巧沛東方美早餐","decorType":"restaurant"},{"id":"node-11816439848","lat":24.958767,"lon":121.165123,"name":"橘川屋","decorType":"restaurant"},{"id":"node-11816439850","lat":24.958307,"lon":121.165025,"name":"廣香自助餐","decorType":"restaurant"},{"id":"node-11816439851","lat":24.957813,"lon":121.167137,"name":"惟客美而美","decorType":"restaurant"},{"id":"node-11816439852","lat":24.957779,"lon":121.16655,"name":"麥味登","decorType":"restaurant"},{"id":"node-11816439853","lat":24.958674,"lon":121.165215,"name":"鍋神日式涮涮鍋","decorType":"restaurant"},{"id":"node-11816439854","lat":24.958515,"lon":121.165376,"name":"喫茶小舖","decorType":"cafe"},{"id":"node-11816439855","lat":24.958167,"lon":121.168022,"name":"臭豆腐","decorType":"restaurant"},{"id":"node-11816439856","lat":24.958167,"lon":121.167879,"name":"義文五金行","decorType":"hardware"},{"id":"node-11816439857","lat":24.957815,"lon":121.166126,"name":"吮指王","decorType":"burger"},{"id":"node-11816439858","lat":24.958553,"lon":121.164755,"name":"花媽の廚房","decorType":"restaurant"},{"id":"node-11816439859","lat":24.958156,"lon":121.167352,"name":"巧桔","decorType":"bakery"},{"id":"node-11818210941","lat":24.912549,"lon":121.084227,"name":"萊爾富","decorType":"convenience"},{"id":"node-11829552362","lat":24.922867,"lon":121.177678,"name":"7-Eleven","decorType":"convenience"},{"id":"node-11829552363","lat":24.921869,"lon":121.17536,"name":"萊爾富","decorType":"convenience"},{"id":"node-11829552364","lat":24.921442,"lon":121.170349,"name":"萊爾富","decorType":"convenience"},{"id":"node-11829552366","lat":24.920368,"lon":121.171331,"name":"7-Eleven","decorType":"convenience"},{"id":"node-11832695078","lat":24.907342,"lon":121.173857,"name":"7-Eleven","decorType":"convenience"},{"id":"node-11832695079","lat":24.907173,"lon":121.172938,"name":"萊爾富","decorType":"convenience"},{"id":"node-11832695080","lat":24.90821,"lon":121.169416,"name":"7-Eleven","decorType":"convenience"},{"id":"node-11832695081","lat":24.910016,"lon":121.174787,"name":"萊爾富","decorType":"convenience"},{"id":"node-11846275379","lat":24.908512,"lon":121.158398,"name":"全家便利商店","decorType":"convenience"},{"id":"node-11846275380","lat":24.912768,"lon":121.152566,"name":"全家便利商店","decorType":"convenience"},{"id":"node-11849327111","lat":24.893954,"lon":121.136967,"name":"OK超商","decorType":"convenience"},{"id":"node-11854114029","lat":24.91081,"lon":121.156435,"name":"楊明國中","decorType":"bus_stop"},{"id":"node-11854114030","lat":24.912879,"lon":121.149736,"name":"楊新北路","decorType":"bus_stop"},{"id":"node-11913217281","lat":24.960834,"lon":121.163965,"name":"花好月圓","decorType":"cafe"},{"id":"node-11913217282","lat":24.960864,"lon":121.163995,"name":"哭鼻子酸辣粉","decorType":"restaurant"},{"id":"node-11913217283","lat":24.961224,"lon":121.165556,"name":"鬼匠拉麵","decorType":"restaurant"},{"id":"node-11913217284","lat":24.961629,"lon":121.165692,"name":"水巷茶弄","decorType":"cafe"},{"id":"node-11913217285","lat":24.96153,"lon":121.165233,"name":"我家小館","decorType":"restaurant"},{"id":"node-11913217286","lat":24.961499,"lon":121.165265,"name":"朱記簡餐","decorType":"restaurant"},{"id":"node-11913217287","lat":24.961987,"lon":121.164786,"name":"里歐歐式早餐","decorType":"restaurant"},{"id":"node-11913217288","lat":24.962032,"lon":121.16484,"name":"老兵手作包子","decorType":"restaurant"},{"id":"node-11913217289","lat":24.962377,"lon":121.165765,"name":"早安山丘","decorType":"restaurant"},{"id":"node-11913217290","lat":24.96083,"lon":121.168741,"name":"晨間廚房","decorType":"restaurant"},{"id":"node-11913217291","lat":24.96056,"lon":121.169323,"name":"食聚餐食館","decorType":"restaurant"},{"id":"node-11913217292","lat":24.960832,"lon":121.167456,"name":"米島小火鍋","decorType":"restaurant"},{"id":"node-11913217293","lat":24.960017,"lon":121.166817,"name":"CHILDHOOD 夕奈狸","decorType":"restaurant"},{"id":"node-11913217294","lat":24.958956,"lon":121.167227,"name":"吉祥小吃","decorType":"restaurant"},{"id":"node-11913217295","lat":24.959631,"lon":121.165566,"name":"拉亞漢堡","decorType":"burger"},{"id":"node-11913217296","lat":24.960645,"lon":121.164508,"name":"吉安香滷味","decorType":"restaurant"},{"id":"node-11913217297","lat":24.960684,"lon":121.16455,"name":"越南麵包","decorType":"restaurant"},{"id":"node-11913217298","lat":24.960401,"lon":121.164213,"name":"芋伯伯","decorType":"restaurant"},{"id":"node-11913217299","lat":24.96022,"lon":121.164037,"name":"薏難忘","decorType":"restaurant"},{"id":"node-11974201977","lat":24.958151,"lon":121.166338,"name":"迷客夏","decorType":"cafe"},{"id":"node-11998943576","lat":24.896205,"lon":121.062154,"name":"湖口鄉農會農民直銷站","decorType":"supermarket"},{"id":"node-12029590141","lat":24.963331,"lon":121.146506,"name":"熊讚複合式餐飲","decorType":"restaurant"},{"id":"node-12029590142","lat":24.962037,"lon":121.160291,"name":"晨欣鐵板吐司","decorType":"restaurant"},{"id":"node-12029590143","lat":24.962038,"lon":121.16024,"name":"Boujee 佐-烤肉飯","decorType":"restaurant"},{"id":"node-12029590144","lat":24.964826,"lon":121.151761,"name":"全佳麵食小館","decorType":"restaurant"},{"id":"node-12029590145","lat":24.960873,"lon":121.160126,"name":"Bu Gu咘咕早午餐","decorType":"restaurant"},{"id":"node-12029590146","lat":24.964521,"lon":121.152061,"name":"飄香大滷麵","decorType":"restaurant"},{"id":"node-12029590147","lat":24.96332,"lon":121.1539,"name":"賓賓早餐店","decorType":"restaurant"},{"id":"node-12029590148","lat":24.964932,"lon":121.142317,"name":"50年古早味傳統老店","decorType":"restaurant"},{"id":"node-12029590149","lat":24.964751,"lon":121.150773,"name":"chill咪咪早午餐","decorType":"restaurant"},{"id":"node-12029590152","lat":24.964945,"lon":121.15096,"name":"CoCo都可","decorType":"cafe"},{"id":"node-12029590153","lat":24.962585,"lon":121.156309,"name":"嗎哪LuLu食堂","decorType":"restaurant"},{"id":"node-12029590155","lat":24.964825,"lon":121.150586,"name":"蝦皮店到店","decorType":"convenience"},{"id":"node-12029590156","lat":24.964858,"lon":121.152309,"name":"胡記鹽酥雞","decorType":"burger"},{"id":"node-12029590157","lat":24.96483,"lon":121.152348,"name":"清心福全","decorType":"cafe"},{"id":"node-12029590158","lat":24.962715,"lon":121.147206,"name":"拉亞漢堡","decorType":"burger"},{"id":"node-12029590160","lat":24.963193,"lon":121.147029,"name":"享食堂","decorType":"restaurant"},{"id":"node-12029590161","lat":24.963942,"lon":121.152966,"name":"豐米便當","decorType":"restaurant"},{"id":"node-12029590162","lat":24.964647,"lon":121.152612,"name":"I-vita pasta","decorType":"restaurant"},{"id":"node-12029590163","lat":24.964061,"lon":121.150525,"name":"立鼎當歸鴨肉麵","decorType":"restaurant"},{"id":"node-12064672868","lat":24.91634,"lon":121.146105,"name":"澎湃豆花","decorType":"restaurant"},{"id":"node-12116723236","lat":24.912785,"lon":121.168429,"name":"東北刀削麵食館","decorType":"restaurant"},{"id":"node-12139025643","lat":24.936369,"lon":121.082644,"name":"富富•小山岡","decorType":"art_gallery"},{"id":"node-12500443669","lat":24.897275,"lon":121.051884,"name":"福德祠","decorType":"shrine"},{"id":"node-12500443780","lat":24.935892,"lon":121.056133,"name":"福德祠","decorType":"shrine"},{"id":"node-12500443781","lat":24.937111,"lon":121.058665,"name":"福德祠","decorType":"shrine"},{"id":"node-12500444050","lat":24.875854,"lon":121.052991,"name":"樟樹福德祠","decorType":"shrine"},{"id":"node-1263487518","lat":24.914352,"lon":121.146507,"name":"楊梅","decorType":"station"},{"id":"node-12754158628","lat":24.936305,"lon":121.081778,"name":"大井頭","decorType":"bus_stop"},{"id":"node-12754158629","lat":24.936367,"lon":121.081867,"name":"大井頭","decorType":"bus_stop"},{"id":"node-12819106253","lat":24.898198,"lon":121.136301,"name":"琪隆廠","decorType":"bus_stop"},{"id":"node-12819106254","lat":24.898355,"lon":121.136146,"name":"琪隆廠","decorType":"bus_stop"},{"id":"node-12819106255","lat":24.898184,"lon":121.133881,"name":"強勝廠","decorType":"bus_stop"},{"id":"node-12819106256","lat":24.89811,"lon":121.133965,"name":"強勝廠","decorType":"bus_stop"},{"id":"node-12819106257","lat":24.896352,"lon":121.13065,"name":"里辦公處","decorType":"bus_stop"},{"id":"node-12819106258","lat":24.89644,"lon":121.130593,"name":"里辦公處","decorType":"bus_stop"},{"id":"node-12819106259","lat":24.894409,"lon":121.127502,"name":"彭厝","decorType":"bus_stop"},{"id":"node-12819106260","lat":24.89446,"lon":121.127459,"name":"彭厝","decorType":"bus_stop"},{"id":"node-12819106261","lat":24.893173,"lon":121.125366,"name":"潤泰工廠","decorType":"bus_stop"},{"id":"node-12819106262","lat":24.893239,"lon":121.125272,"name":"潤泰工廠","decorType":"bus_stop"},{"id":"node-12819106263","lat":24.89192,"lon":121.124274,"name":"廣宇","decorType":"bus_stop"},{"id":"node-12819106264","lat":24.891823,"lon":121.124336,"name":"廣宇","decorType":"bus_stop"},{"id":"node-12819106265","lat":24.891582,"lon":121.120979,"name":"東流里","decorType":"bus_stop"},{"id":"node-12819106266","lat":24.891493,"lon":121.121275,"name":"東流里","decorType":"bus_stop"},{"id":"node-12819106267","lat":24.891539,"lon":121.116811,"name":"梅園","decorType":"bus_stop"},{"id":"node-12819106268","lat":24.891421,"lon":121.116871,"name":"梅園","decorType":"bus_stop"},{"id":"node-12819106273","lat":24.937123,"lon":121.123723,"name":"營盤下","decorType":"bus_stop"},{"id":"node-12819106274","lat":24.93697,"lon":121.123629,"name":"營盤下","decorType":"bus_stop"},{"id":"node-12819106275","lat":24.969413,"lon":121.107812,"name":"未命名公車站","decorType":"bus_stop"},{"id":"node-12819106276","lat":24.970552,"lon":121.101644,"name":"新屋高中","decorType":"bus_stop"},{"id":"node-12819106277","lat":24.970443,"lon":121.101368,"name":"新屋高中","decorType":"bus_stop"},{"id":"node-12819106278","lat":24.96931,"lon":121.107864,"name":"未命名公車站","decorType":"bus_stop"},{"id":"node-12819106279","lat":24.972687,"lon":121.105456,"name":"新屋區公所","decorType":"bus_stop"},{"id":"node-12819106280","lat":24.972771,"lon":121.105361,"name":"新屋區公所","decorType":"bus_stop"},{"id":"node-12819106285","lat":24.946196,"lon":121.119763,"name":"御花園","decorType":"bus_stop"},{"id":"node-12822752458","lat":24.916321,"lon":121.175163,"name":"怡聯貨櫃場","decorType":"bus_stop"},{"id":"node-12822752459","lat":24.916717,"lon":121.176312,"name":"怡聯貨櫃場","decorType":"bus_stop"},{"id":"node-12822752461","lat":24.922461,"lon":121.181071,"name":"銘德","decorType":"bus_stop"},{"id":"node-12822752462","lat":24.922336,"lon":121.181197,"name":"銘德","decorType":"bus_stop"},{"id":"node-12822752463","lat":24.923136,"lon":121.177749,"name":"純青湖","decorType":"bus_stop"},{"id":"node-12822752464","lat":24.923235,"lon":121.177423,"name":"純青湖","decorType":"bus_stop"},{"id":"node-12822752465","lat":24.925767,"lon":121.175728,"name":"埔心牧場","decorType":"bus_stop"},{"id":"node-12822752466","lat":24.925481,"lon":121.175806,"name":"埔心牧場","decorType":"bus_stop"},{"id":"node-12822752467","lat":24.925767,"lon":121.174883,"name":"幼獅工業區","decorType":"bus_stop"},{"id":"node-12822752468","lat":24.925643,"lon":121.17496,"name":"幼獅工業區","decorType":"bus_stop"},{"id":"node-12822752469","lat":24.922631,"lon":121.1771,"name":"真鑚社區","decorType":"bus_stop"},{"id":"node-12822752470","lat":24.921338,"lon":121.171624,"name":"比佛利山莊","decorType":"bus_stop"},{"id":"node-12822752471","lat":24.921248,"lon":121.17167,"name":"比佛利山莊","decorType":"bus_stop"},{"id":"node-12822752472","lat":24.92254,"lon":121.177138,"name":"真鑚社區","decorType":"bus_stop"},{"id":"node-12822752473","lat":24.923021,"lon":121.173683,"name":"獅一路","decorType":"bus_stop"},{"id":"node-12822752474","lat":24.923078,"lon":121.173589,"name":"獅一路","decorType":"bus_stop"},{"id":"node-12822752475","lat":24.923637,"lon":121.172206,"name":"青年路口","decorType":"bus_stop"},{"id":"node-12822752476","lat":24.923932,"lon":121.172377,"name":"青年路口","decorType":"bus_stop"},{"id":"node-12822752477","lat":24.925841,"lon":121.170362,"name":"青年路","decorType":"bus_stop"},{"id":"node-12822752478","lat":24.928176,"lon":121.169001,"name":"圓環","decorType":"bus_stop"},{"id":"node-12822752486","lat":24.930481,"lon":121.16682,"name":"世紀社區","decorType":"bus_stop"},{"id":"node-12822752487","lat":24.933066,"lon":121.163251,"name":"裕民社區","decorType":"bus_stop"},{"id":"node-12822752488","lat":24.935116,"lon":121.161106,"name":"幼獅路口","decorType":"bus_stop"},{"id":"node-12822752499","lat":24.935885,"lon":121.162404,"name":"南高山","decorType":"bus_stop"},{"id":"node-12822752500","lat":24.935955,"lon":121.162314,"name":"南高山","decorType":"bus_stop"},{"id":"node-12822755601","lat":24.93725,"lon":121.165549,"name":"高榮","decorType":"bus_stop"},{"id":"node-12822755602","lat":24.93507,"lon":121.169491,"name":"伯公下","decorType":"bus_stop"},{"id":"node-12822755603","lat":24.932301,"lon":121.171314,"name":"電台","decorType":"bus_stop"},{"id":"node-12822755604","lat":24.930717,"lon":121.172418,"name":"職訓中心","decorType":"bus_stop"},{"id":"node-12822755605","lat":24.929487,"lon":121.17199,"name":"單身宿舍","decorType":"bus_stop"},{"id":"node-12822755606","lat":24.926976,"lon":121.169647,"name":"青年路","decorType":"bus_stop"},{"id":"node-12852064223","lat":25.012566,"lon":121.136747,"name":"新坡站","decorType":"bus_stop"},{"id":"node-12870733035","lat":24.972717,"lon":121.102354,"name":"新屋站","decorType":"bus_stop"},{"id":"node-12875653619","lat":25.037835,"lon":121.080852,"name":"觀音站","decorType":"bus_stop"},{"id":"node-12875653620","lat":25.037893,"lon":121.080932,"name":"觀音站","decorType":"bus_stop"},{"id":"node-12909608802","lat":24.977169,"lon":121.091658,"name":"建業鵝肉美食館","decorType":"restaurant"},{"id":"node-12990446860","lat":24.988687,"lon":121.18089,"name":"第一香 焿の專賣店","decorType":"restaurant"},{"id":"node-12990446861","lat":24.988802,"lon":121.180676,"name":"八方雲集","decorType":"burger"},{"id":"node-12990446862","lat":24.98898,"lon":121.180566,"name":"富市多","decorType":"supermarket"},{"id":"node-12990446863","lat":24.989013,"lon":121.180304,"name":"微笑香腸","decorType":"restaurant"},{"id":"node-12990446864","lat":24.989041,"lon":121.180217,"name":"Tea's原味","decorType":"cafe"},{"id":"node-12990446865","lat":24.989097,"lon":121.180111,"name":"現煮飯麵","decorType":"restaurant"},{"id":"node-12990446866","lat":24.9892,"lon":121.179786,"name":"張記麻辣滷味","decorType":"restaurant"},{"id":"node-12990446867","lat":24.989474,"lon":121.178425,"name":"上林美好美","decorType":"restaurant"},{"id":"node-12990446868","lat":24.989343,"lon":121.178744,"name":"麥味登","decorType":"restaurant"},{"id":"node-12990446869","lat":24.989246,"lon":121.17896,"name":"首搖茶 SHOW YOU TEA","decorType":"cafe"},{"id":"node-12990446870","lat":24.989231,"lon":121.179013,"name":"大崙精緻自助餐","decorType":"restaurant"},{"id":"node-12990446872","lat":24.989156,"lon":121.179088,"name":"炸雞王","decorType":"restaurant"},{"id":"node-12990446873","lat":24.988913,"lon":121.179595,"name":"李氏珍食堂","decorType":"restaurant"},{"id":"node-12990446874","lat":24.988841,"lon":121.179758,"name":"大崙大藥局","decorType":"pharmacy"},{"id":"node-12990446875","lat":24.98827,"lon":121.18091,"name":"文鼎漢堡","decorType":"restaurant"},{"id":"node-13026651405","lat":24.913158,"lon":121.146376,"name":"國鼎鵝肉","decorType":"restaurant"},{"id":"node-13046982308","lat":24.958776,"lon":121.172631,"name":"肯德基","decorType":"burger"},{"id":"node-13058943170","lat":24.926256,"lon":121.174508,"name":"楊梅幼工郵局","decorType":"post_office"},{"id":"node-13058943171","lat":24.956392,"lon":121.167452,"name":"楊梅高榮郵局","decorType":"post_office"},{"id":"node-13058943172","lat":24.901064,"lon":121.140883,"name":"楊梅秀才郵局","decorType":"post_office"},{"id":"node-13058943182","lat":25.053105,"lon":121.117738,"name":"觀音工業區郵局","decorType":"post_office"},{"id":"node-13058943183","lat":25.048016,"lon":121.143336,"name":"觀音草漯郵局","decorType":"post_office"},{"id":"node-13058943187","lat":24.988624,"lon":121.180395,"name":"中壢大崙郵局","decorType":"post_office"},{"id":"node-13061055243","lat":24.901609,"lon":121.051123,"name":"亞洲製刀廠","decorType":"bus_stop"},{"id":"node-13061055244","lat":24.901709,"lon":121.051142,"name":"亞洲製刀廠","decorType":"bus_stop"},{"id":"node-13061055251","lat":24.899057,"lon":121.057009,"name":"信昌街口","decorType":"bus_stop"},{"id":"node-13061055252","lat":24.898892,"lon":121.056953,"name":"信昌街口","decorType":"bus_stop"},{"id":"node-13061055253","lat":24.897377,"lon":121.062705,"name":"湖口好客文創園區","decorType":"bus_stop"},{"id":"node-13061055254","lat":24.897479,"lon":121.062752,"name":"湖口好客文創園區","decorType":"bus_stop"},{"id":"node-13061055255","lat":24.895118,"lon":121.06814,"name":"中平路二段路口","decorType":"bus_stop"},{"id":"node-13061055256","lat":24.895194,"lon":121.068254,"name":"中平路二段路口","decorType":"bus_stop"},{"id":"node-13061055257","lat":24.891299,"lon":121.073214,"name":"長嶺村集會所","decorType":"bus_stop"},{"id":"node-13061055258","lat":24.891394,"lon":121.073288,"name":"長嶺村集會所","decorType":"bus_stop"},{"id":"node-13061055259","lat":24.891012,"lon":121.078277,"name":"大伯公","decorType":"bus_stop"},{"id":"node-13061055260","lat":24.891104,"lon":121.078287,"name":"大伯公","decorType":"bus_stop"},{"id":"node-13061055261","lat":24.888213,"lon":121.088513,"name":"長安","decorType":"bus_stop"},{"id":"node-13061055262","lat":24.88702,"lon":121.091046,"name":"長安路103巷","decorType":"bus_stop"},{"id":"node-13061055263","lat":24.886987,"lon":121.091154,"name":"長安路103巷","decorType":"bus_stop"},{"id":"node-13061055264","lat":24.885729,"lon":121.093083,"name":"長安小城","decorType":"bus_stop"},{"id":"node-13061055265","lat":24.88578,"lon":121.093208,"name":"長安小城","decorType":"bus_stop"},{"id":"node-13061055266","lat":24.882589,"lon":121.099284,"name":"長安社區活動中心","decorType":"bus_stop"},{"id":"node-13061055267","lat":24.882677,"lon":121.099284,"name":"長安社區活動中心","decorType":"bus_stop"},{"id":"node-13061055271","lat":24.881092,"lon":121.104194,"name":"北窩路口","decorType":"bus_stop"},{"id":"node-13061055272","lat":24.892406,"lon":121.054769,"name":"綠園","decorType":"bus_stop"},{"id":"node-13061055273","lat":24.892533,"lon":121.05482,"name":"綠園","decorType":"bus_stop"},{"id":"node-13061055274","lat":24.890653,"lon":121.059847,"name":"六和金屬","decorType":"bus_stop"},{"id":"node-13061055275","lat":24.890728,"lon":121.059949,"name":"六和金屬","decorType":"bus_stop"},{"id":"node-13061055297","lat":24.888305,"lon":121.064325,"name":"長富路口","decorType":"bus_stop"},{"id":"node-13061055298","lat":24.888378,"lon":121.064425,"name":"長富路口","decorType":"bus_stop"},{"id":"node-13061055299","lat":24.88654,"lon":121.068542,"name":"全家花園","decorType":"bus_stop"},{"id":"node-13061055300","lat":24.886637,"lon":121.0686,"name":"全家花園","decorType":"bus_stop"},{"id":"node-13125207036","lat":24.90091,"lon":121.140699,"name":"全家便利商店","decorType":"convenience"},{"id":"node-13300743254","lat":24.992595,"lon":121.101143,"name":"萊爾富","decorType":"convenience"},{"id":"node-13300743256","lat":25.056663,"lon":121.101724,"name":"萊爾富","decorType":"convenience"},{"id":"node-13304782544","lat":24.977422,"lon":121.106361,"name":"萊爾富","decorType":"convenience"},{"id":"node-13304782545","lat":24.962192,"lon":121.158536,"name":"萊爾富","decorType":"convenience"},{"id":"node-13304782546","lat":24.960407,"lon":121.166958,"name":"萊爾富","decorType":"convenience"},{"id":"node-13304782547","lat":24.963903,"lon":121.153705,"name":"萊爾富","decorType":"convenience"},{"id":"node-13304782559","lat":24.919636,"lon":121.053002,"name":"萊爾富","decorType":"convenience"},{"id":"node-13304782561","lat":24.905466,"lon":121.055893,"name":"萊爾富","decorType":"convenience"},{"id":"node-13304782562","lat":24.894678,"lon":121.068561,"name":"萊爾富","decorType":"convenience"},{"id":"node-13306410897","lat":25.006531,"lon":121.131294,"name":"萊爾富","decorType":"convenience"},{"id":"node-13306410898","lat":25.013073,"lon":121.132956,"name":"萊爾富","decorType":"convenience"},{"id":"node-13306410899","lat":25.051173,"lon":121.121392,"name":"萊爾富","decorType":"convenience"},{"id":"node-13306410900","lat":24.96786,"lon":121.147531,"name":"萊爾富","decorType":"convenience"},{"id":"node-13306482101","lat":25.052445,"lon":121.124355,"name":"萊爾富","decorType":"convenience"},{"id":"node-13306482102","lat":25.04991,"lon":121.119895,"name":"萊爾富","decorType":"convenience"},{"id":"node-13306482103","lat":25.077193,"lon":121.180784,"name":"萊爾富","decorType":"convenience"},{"id":"node-13308370982","lat":24.912499,"lon":121.083567,"name":"萊爾富","decorType":"convenience"},{"id":"node-13308370983","lat":24.912395,"lon":121.087507,"name":"萊爾富","decorType":"convenience"},{"id":"node-13308370984","lat":24.89364,"lon":121.156794,"name":"萊爾富","decorType":"convenience"},{"id":"node-13308370985","lat":24.912564,"lon":121.15999,"name":"萊爾富","decorType":"convenience"},{"id":"node-13308370986","lat":24.941709,"lon":121.076271,"name":"萊爾富","decorType":"convenience"},{"id":"node-13413753093","lat":25.036808,"lon":121.080363,"name":"萊爾富","decorType":"convenience"},{"id":"node-13430408087","lat":24.9621,"lon":121.159466,"name":"7-Eleven","decorType":"convenience"},{"id":"node-1399402309","lat":24.956799,"lon":121.16737,"name":"全家便利商店","decorType":"convenience"},{"id":"node-1399402326","lat":24.957809,"lon":121.167035,"name":"7-Eleven","decorType":"convenience"},{"id":"node-1404222410","lat":24.957016,"lon":121.161098,"name":"全家便利商店","decorType":"convenience"},{"id":"node-1404222412","lat":24.957455,"lon":121.163908,"name":"萊爾富","decorType":"convenience"},{"id":"node-1439005290","lat":24.936833,"lon":121.167219,"name":"7-Eleven","decorType":"convenience"},{"id":"node-1452530821","lat":24.924627,"lon":121.14497,"name":"7-Eleven","decorType":"convenience"},{"id":"node-2016804222","lat":24.922491,"lon":121.0559,"name":"北湖","decorType":"station"},{"id":"node-2387066709","lat":24.934091,"lon":121.082822,"name":"富岡","decorType":"station"},{"id":"node-2482635522","lat":24.953862,"lon":121.164475,"name":"大古庄","decorType":"mountain"},{"id":"node-2482635568","lat":24.946862,"lon":121.149472,"name":"東勢庄","decorType":"mountain"},{"id":"node-2482635641","lat":24.862658,"lon":121.111325,"name":"照鏡山","decorType":"mountain"},{"id":"node-2482635706","lat":24.857945,"lon":121.174749,"name":"小北坑尾山","decorType":"mountain"},{"id":"node-2482635740","lat":24.867516,"lon":121.150743,"name":"北打鐵坑山","decorType":"mountain"},{"id":"node-2482635994","lat":24.877014,"lon":121.098767,"name":"羊喜窩山","decorType":"mountain"},{"id":"node-2656099274","lat":24.936496,"lon":121.081434,"name":"全家便利商店","decorType":"convenience"},{"id":"node-2656099275","lat":24.936282,"lon":121.08184,"name":"7-Eleven","decorType":"convenience"},{"id":"node-2656099276","lat":24.935083,"lon":121.081645,"name":"楊梅富岡郵局","decorType":"post_office"},{"id":"node-2656099277","lat":24.935279,"lon":121.081614,"name":"未命名郵局","decorType":"post_office"},{"id":"node-3071192734","lat":24.961934,"lon":121.161737,"name":"7-Eleven","decorType":"convenience"},{"id":"node-3138028210","lat":24.971175,"lon":121.108302,"name":"新屋站","decorType":"station"},{"id":"node-3204221679","lat":24.930539,"lon":121.073361,"name":"7-Eleven","decorType":"convenience"},{"id":"node-3204221692","lat":24.936402,"lon":121.081629,"name":"良興機械五金行","decorType":"hardware"},{"id":"node-3207807459","lat":25.037892,"lon":121.080854,"name":"桃園客運觀音站","decorType":"station"},{"id":"node-3208534911","lat":24.919054,"lon":121.054373,"name":"7-Eleven","decorType":"convenience"},{"id":"node-3208534912","lat":24.919339,"lon":121.054541,"name":"OK超商","decorType":"convenience"},{"id":"node-3215397624","lat":25.058393,"lon":121.113052,"name":"國建二路","decorType":"bus_stop"},{"id":"node-3215397625","lat":25.059739,"lon":121.111126,"name":"國瑞路","decorType":"bus_stop"},{"id":"node-3215397626","lat":25.053864,"lon":121.117086,"name":"經建一路","decorType":"bus_stop"},{"id":"node-3215397627","lat":25.053832,"lon":121.11694,"name":"經建一路","decorType":"bus_stop"},{"id":"node-3215397628","lat":25.05246,"lon":121.117807,"name":"工管中心","decorType":"bus_stop"},{"id":"node-3215397629","lat":25.052426,"lon":121.117686,"name":"工管中心","decorType":"bus_stop"},{"id":"node-3215433961","lat":25.059793,"lon":121.113904,"name":"台玻公司","decorType":"bus_stop"},{"id":"node-3215433962","lat":25.059916,"lon":121.114058,"name":"台玻公司","decorType":"bus_stop"},{"id":"node-3215441915","lat":25.056441,"lon":121.120096,"name":"歌林二廠","decorType":"bus_stop"},{"id":"node-3215441916","lat":25.056408,"lon":121.119978,"name":"歌林二廠","decorType":"bus_stop"},{"id":"node-3215441917","lat":25.059054,"lon":121.118799,"name":"名億公司","decorType":"bus_stop"},{"id":"node-3215441918","lat":25.059008,"lon":121.118646,"name":"名億公司","decorType":"bus_stop"},{"id":"node-3215441919","lat":25.059829,"lon":121.118657,"name":"基富","decorType":"bus_stop"},{"id":"node-3215441920","lat":25.059919,"lon":121.118628,"name":"基富","decorType":"bus_stop"},{"id":"node-3215442082","lat":25.052122,"lon":121.118396,"name":"樺詰","decorType":"bus_stop"},{"id":"node-3215442083","lat":25.05233,"lon":121.119023,"name":"樺詰","decorType":"bus_stop"},{"id":"node-3215442084","lat":25.053918,"lon":121.120893,"name":"日豐","decorType":"bus_stop"},{"id":"node-3215442085","lat":25.053786,"lon":121.121056,"name":"日豐","decorType":"bus_stop"},{"id":"node-3215449293","lat":25.012819,"lon":121.136353,"name":"新坡","decorType":"bus_stop"},{"id":"node-3215449294","lat":25.012389,"lon":121.136776,"name":"新坡","decorType":"bus_stop"},{"id":"node-3215452215","lat":25.017959,"lon":121.137641,"name":"坡內","decorType":"bus_stop"},{"id":"node-3215452216","lat":25.017923,"lon":121.137845,"name":"坡內","decorType":"bus_stop"},{"id":"node-3215452217","lat":25.020769,"lon":121.139742,"name":"未命名公車站","decorType":"bus_stop"},{"id":"node-3215452218","lat":25.020667,"lon":121.139848,"name":"幸福新村","decorType":"bus_stop"},{"id":"node-3215452219","lat":25.023038,"lon":121.14112,"name":"楊厝","decorType":"bus_stop"},{"id":"node-3215452220","lat":25.022849,"lon":121.141185,"name":"楊厝","decorType":"bus_stop"},{"id":"node-3215456381","lat":25.024743,"lon":121.142237,"name":"廣福","decorType":"bus_stop"},{"id":"node-3215456382","lat":25.024308,"lon":121.142139,"name":"廣福","decorType":"bus_stop"},{"id":"node-3215456384","lat":25.028493,"lon":121.143578,"name":"福安橋","decorType":"bus_stop"},{"id":"node-3215456385","lat":25.028442,"lon":121.143741,"name":"福安橋","decorType":"bus_stop"},{"id":"node-3215456386","lat":25.032663,"lon":121.143855,"name":"邱厝","decorType":"bus_stop"},{"id":"node-3215456387","lat":25.032729,"lon":121.143692,"name":"邱厝","decorType":"bus_stop"},{"id":"node-3215456389","lat":25.036884,"lon":121.143798,"name":"塔仔腳","decorType":"bus_stop"},{"id":"node-3215456390","lat":25.036923,"lon":121.143983,"name":"塔仔腳","decorType":"bus_stop"},{"id":"node-3215456391","lat":25.038985,"lon":121.143809,"name":"二聖路口","decorType":"bus_stop"},{"id":"node-3215456392","lat":25.039006,"lon":121.143996,"name":"二聖路口","decorType":"bus_stop"},{"id":"node-3215459162","lat":25.04121,"lon":121.143841,"name":"坡腳","decorType":"bus_stop"},{"id":"node-3215459163","lat":25.041269,"lon":121.143991,"name":"坡腳","decorType":"bus_stop"},{"id":"node-3215459164","lat":25.043195,"lon":121.143379,"name":"許厝","decorType":"bus_stop"},{"id":"node-3215459165","lat":25.043313,"lon":121.143515,"name":"許厝","decorType":"bus_stop"},{"id":"node-3215459166","lat":25.045548,"lon":121.142836,"name":"草漯國小","decorType":"bus_stop"},{"id":"node-3215459167","lat":25.045532,"lon":121.142995,"name":"草漯國小","decorType":"bus_stop"},{"id":"node-3215459168","lat":25.046821,"lon":121.14268,"name":"草新","decorType":"bus_stop"},{"id":"node-3215459169","lat":25.046834,"lon":121.142521,"name":"草新","decorType":"bus_stop"},{"id":"node-3215463684","lat":25.047751,"lon":121.143388,"name":"草漯","decorType":"bus_stop"},{"id":"node-3215463685","lat":25.047764,"lon":121.143115,"name":"草漯","decorType":"bus_stop"},{"id":"node-3215463686","lat":25.048607,"lon":121.144081,"name":"保障宮","decorType":"bus_stop"},{"id":"node-3215463687","lat":25.04871,"lon":121.144542,"name":"保障宮","decorType":"bus_stop"},{"id":"node-3215463688","lat":25.049441,"lon":121.145136,"name":"福德宮","decorType":"bus_stop"},{"id":"node-3215463689","lat":25.049459,"lon":121.145523,"name":"福德宮","decorType":"bus_stop"},{"id":"node-3215463690","lat":25.053205,"lon":121.147188,"name":"保障","decorType":"bus_stop"},{"id":"node-3215463691","lat":25.053103,"lon":121.14687,"name":"保障","decorType":"bus_stop"},{"id":"node-3215463692","lat":25.054958,"lon":121.141918,"name":"苗圃","decorType":"bus_stop"},{"id":"node-3215463693","lat":25.054724,"lon":121.141832,"name":"苗圃","decorType":"bus_stop"},{"id":"node-3215463694","lat":25.055385,"lon":121.138289,"name":"二湖","decorType":"bus_stop"},{"id":"node-3215463695","lat":25.055319,"lon":121.138057,"name":"二湖","decorType":"bus_stop"},{"id":"node-3215463696","lat":25.062706,"lon":121.132806,"name":"新村路口","decorType":"bus_stop"},{"id":"node-3215463697","lat":25.062588,"lon":121.132562,"name":"新村路口","decorType":"bus_stop"},{"id":"node-3215463698","lat":25.06264,"lon":121.12979,"name":"工業一路口","decorType":"bus_stop"},{"id":"node-3215463699","lat":25.062492,"lon":121.129487,"name":"工業一路口","decorType":"bus_stop"},{"id":"node-3215465856","lat":25.061371,"lon":121.127801,"name":"樹林新村","decorType":"bus_stop"},{"id":"node-3215465857","lat":25.061307,"lon":121.127927,"name":"樹林新村","decorType":"bus_stop"},{"id":"node-3215465858","lat":25.06379,"lon":121.125914,"name":"卜內門","decorType":"bus_stop"},{"id":"node-3215465859","lat":25.063723,"lon":121.126003,"name":"卜內門","decorType":"bus_stop"},{"id":"node-3215467107","lat":25.062542,"lon":121.12432,"name":"日本礦業","decorType":"bus_stop"},{"id":"node-3215467740","lat":25.062425,"lon":121.124458,"name":"日本礦業","decorType":"bus_stop"},{"id":"node-3215476586","lat":25.001569,"lon":121.155028,"name":"陳厝","decorType":"bus_stop"},{"id":"node-3215476587","lat":25.001458,"lon":121.15488,"name":"陳厝","decorType":"bus_stop"},{"id":"node-3215476588","lat":24.999168,"lon":121.158485,"name":"圓山","decorType":"bus_stop"},{"id":"node-3215476589","lat":24.999303,"lon":121.158609,"name":"圓山","decorType":"bus_stop"},{"id":"node-3215488241","lat":25.039339,"lon":121.082975,"name":"歐厝","decorType":"bus_stop"},{"id":"node-3215488242","lat":25.039236,"lon":121.083053,"name":"歐厝","decorType":"bus_stop"},{"id":"node-3215488243","lat":25.04095,"lon":121.087794,"name":"徐厝","decorType":"bus_stop"},{"id":"node-3215488244","lat":25.040972,"lon":121.087956,"name":"徐厝","decorType":"bus_stop"},{"id":"node-3215488245","lat":25.04442,"lon":121.089526,"name":"麥厝","decorType":"bus_stop"},{"id":"node-3215488246","lat":25.044361,"lon":121.08968,"name":"麥厝","decorType":"bus_stop"},{"id":"node-3215488247","lat":25.047448,"lon":121.092412,"name":"江厝","decorType":"bus_stop"},{"id":"node-3215488248","lat":25.047381,"lon":121.092559,"name":"江厝","decorType":"bus_stop"},{"id":"node-3215488249","lat":25.049436,"lon":121.093648,"name":"塔前","decorType":"bus_stop"},{"id":"node-3215488250","lat":25.049355,"lon":121.093827,"name":"塔前","decorType":"bus_stop"},{"id":"node-3215488251","lat":25.05116,"lon":121.095193,"name":"白玉","decorType":"bus_stop"},{"id":"node-3215488252","lat":25.051131,"lon":121.09538,"name":"白玉","decorType":"bus_stop"},{"id":"node-3215488253","lat":25.054463,"lon":121.099081,"name":"白玉橋","decorType":"bus_stop"},{"id":"node-3215488254","lat":25.05439,"lon":121.09917,"name":"白玉橋","decorType":"bus_stop"},{"id":"node-3215498010","lat":25.056359,"lon":121.101644,"name":"林務局","decorType":"bus_stop"},{"id":"node-3215498011","lat":25.056313,"lon":121.101722,"name":"林務局","decorType":"bus_stop"},{"id":"node-3215498012","lat":25.057787,"lon":121.102633,"name":"胡厝","decorType":"bus_stop"},{"id":"node-3215498013","lat":25.057787,"lon":121.102787,"name":"胡厝","decorType":"bus_stop"},{"id":"node-3215498014","lat":25.0606,"lon":121.105064,"name":"移民新村","decorType":"bus_stop"},{"id":"node-3215498015","lat":25.060485,"lon":121.105719,"name":"移民新村","decorType":"bus_stop"},{"id":"node-3215498016","lat":25.063767,"lon":121.110402,"name":"樹林仔","decorType":"bus_stop"},{"id":"node-3215498017","lat":25.063815,"lon":121.110627,"name":"樹林仔","decorType":"bus_stop"},{"id":"node-3215499140","lat":25.011092,"lon":121.139158,"name":"新坡農會","decorType":"bus_stop"},{"id":"node-3215500039","lat":25.010844,"lon":121.139281,"name":"新坡農會","decorType":"bus_stop"},{"id":"node-3215500040","lat":25.009532,"lon":121.141607,"name":"大同","decorType":"bus_stop"},{"id":"node-3215500041","lat":25.009295,"lon":121.141541,"name":"大同","decorType":"bus_stop"},{"id":"node-3215500042","lat":25.006774,"lon":121.146192,"name":"頂大同","decorType":"bus_stop"},{"id":"node-3215500043","lat":25.006629,"lon":121.146112,"name":"頂大同","decorType":"bus_stop"},{"id":"node-3215500044","lat":25.00473,"lon":121.149932,"name":"大堀","decorType":"bus_stop"},{"id":"node-3215500045","lat":25.004596,"lon":121.149827,"name":"大堀","decorType":"bus_stop"},{"id":"node-3215500046","lat":25.003234,"lon":121.152366,"name":"頂大堀","decorType":"bus_stop"},{"id":"node-3215500047","lat":25.003357,"lon":121.151793,"name":"頂大堀","decorType":"bus_stop"},{"id":"node-3215500281","lat":24.997187,"lon":121.161583,"name":"崙坪","decorType":"bus_stop"},{"id":"node-3215500282","lat":24.997334,"lon":121.161729,"name":"崙坪","decorType":"bus_stop"},{"id":"node-3215511180","lat":24.994119,"lon":121.166584,"name":"忠愛莊","decorType":"bus_stop"},{"id":"node-3215511181","lat":24.993905,"lon":121.166617,"name":"忠愛莊","decorType":"bus_stop"},{"id":"node-3215511182","lat":24.993301,"lon":121.16894,"name":"福山路口","decorType":"bus_stop"},{"id":"node-3215515145","lat":24.993028,"lon":121.169167,"name":"福山路口","decorType":"bus_stop"},{"id":"node-3215515146","lat":24.992733,"lon":121.170737,"name":"山東路口","decorType":"bus_stop"},{"id":"node-3215515147","lat":24.992541,"lon":121.170753,"name":"山東路口","decorType":"bus_stop"},{"id":"node-3215515148","lat":24.992136,"lon":121.172794,"name":"井子厝","decorType":"bus_stop"},{"id":"node-3215515149","lat":24.991978,"lon":121.172667,"name":"井子厝","decorType":"bus_stop"},{"id":"node-3215515150","lat":24.991313,"lon":121.175106,"name":"中福","decorType":"bus_stop"},{"id":"node-3215515151","lat":24.991106,"lon":121.175131,"name":"中福","decorType":"bus_stop"},{"id":"node-3215515152","lat":24.990399,"lon":121.177163,"name":"新剛公司","decorType":"bus_stop"},{"id":"node-3215515153","lat":24.990237,"lon":121.177042,"name":"新剛公司","decorType":"bus_stop"},{"id":"node-3215517129","lat":24.989259,"lon":121.179634,"name":"大崙","decorType":"bus_stop"},{"id":"node-3215517130","lat":24.988971,"lon":121.179662,"name":"大崙","decorType":"bus_stop"},{"id":"node-3303558764","lat":24.87801,"lon":121.05196,"name":"OK超商","decorType":"convenience"},{"id":"node-3305091614","lat":24.887667,"lon":121.052055,"name":"萊爾富","decorType":"convenience"},{"id":"node-3305091615","lat":24.888643,"lon":121.088962,"name":"萊爾富","decorType":"convenience"},{"id":"node-3305091616","lat":24.898358,"lon":121.059588,"name":"萊爾富","decorType":"convenience"},{"id":"node-3305135613","lat":24.918159,"lon":121.056408,"name":"全家便利商店","decorType":"convenience"},{"id":"node-3311425038","lat":24.879015,"lon":121.054847,"name":"舊湖口","decorType":"bus_stop"},{"id":"node-3311425039","lat":24.878756,"lon":121.055184,"name":"舊湖口","decorType":"bus_stop"},{"id":"node-3335658641","lat":24.912982,"lon":121.106638,"name":"二湖","decorType":"bus_stop"},{"id":"node-3341060359","lat":24.861984,"lon":121.129534,"name":"清水","decorType":"bus_stop"},{"id":"node-3341060360","lat":24.861945,"lon":121.129734,"name":"清水","decorType":"bus_stop"},{"id":"node-3488107925","lat":24.912986,"lon":121.145764,"name":"布雷瓦義式咖啡吧","decorType":"cafe"},{"id":"node-3511678909","lat":24.898828,"lon":121.139477,"name":"7-Eleven","decorType":"convenience"},{"id":"node-3511718809","lat":24.908178,"lon":121.167622,"name":"西堤","decorType":"restaurant"},{"id":"node-3511718810","lat":24.909303,"lon":121.146605,"name":"全聯福利中心","decorType":"supermarket"},{"id":"node-3511718826","lat":24.907563,"lon":121.137755,"name":"7-Eleven","decorType":"convenience"},{"id":"node-3511718827","lat":24.904508,"lon":121.128601,"name":"萊爾富","decorType":"convenience"},{"id":"node-3511718829","lat":24.909138,"lon":121.145358,"name":"7-Eleven","decorType":"convenience"},{"id":"node-3511718830","lat":24.909041,"lon":121.146889,"name":"全家便利商店","decorType":"convenience"},{"id":"node-3511718831","lat":24.910952,"lon":121.156028,"name":"7-Eleven","decorType":"convenience"},{"id":"node-3511718832","lat":24.908772,"lon":121.157675,"name":"全家便利商店","decorType":"convenience"},{"id":"node-3511718833","lat":24.902462,"lon":121.149946,"name":"7-Eleven","decorType":"convenience"},{"id":"node-3511718834","lat":24.899437,"lon":121.150997,"name":"7-Eleven","decorType":"convenience"},{"id":"node-3511718840","lat":24.902109,"lon":121.148032,"name":"萊爾富","decorType":"convenience"},{"id":"node-3511718841","lat":24.901589,"lon":121.146504,"name":"7-Eleven","decorType":"convenience"},{"id":"node-3662526096","lat":25.014986,"lon":121.128954,"name":"寶蓮寺","decorType":"shrine"},{"id":"node-3768675475","lat":24.888118,"lon":121.161587,"name":"東森山林渡假酒店","decorType":"hotel"},{"id":"node-3768675476","lat":24.909532,"lon":121.139319,"name":"7-Eleven","decorType":"convenience"},{"id":"node-3785977605","lat":24.98913,"lon":121.181146,"name":"大崙廣盛壇","decorType":"shrine"},{"id":"node-3811447488","lat":24.88167,"lon":121.075675,"name":"未命名神社","decorType":"shrine"},{"id":"node-3999391547","lat":24.90722,"lon":121.148202,"name":"未命名公車站","decorType":"bus_stop"},{"id":"node-3999391549","lat":24.907215,"lon":121.149293,"name":"老坑溪橋","decorType":"bus_stop"},{"id":"node-3999391658","lat":24.907492,"lon":121.148406,"name":"未命名公車站","decorType":"bus_stop"},{"id":"node-3999391660","lat":24.907486,"lon":121.14935,"name":"老坑溪橋","decorType":"bus_stop"},{"id":"node-3999391662","lat":24.907752,"lon":121.15333,"name":"東電化","decorType":"bus_stop"},{"id":"node-3999391670","lat":24.907933,"lon":121.152735,"name":"東電化","decorType":"bus_stop"},{"id":"node-3999391673","lat":24.90833,"lon":121.157217,"name":"天成醫院","decorType":"bus_stop"},{"id":"node-3999391675","lat":24.90849,"lon":121.14561,"name":"大成路","decorType":"bus_stop"},{"id":"node-3999391676","lat":24.908495,"lon":121.145493,"name":"大成路","decorType":"bus_stop"},{"id":"node-3999391684","lat":24.908853,"lon":121.160161,"name":"大金山","decorType":"bus_stop"},{"id":"node-3999391698","lat":24.909037,"lon":121.159572,"name":"大金山","decorType":"bus_stop"},{"id":"node-3999391703","lat":24.910389,"lon":121.145608,"name":"新街","decorType":"bus_stop"},{"id":"node-3999391704","lat":24.91065,"lon":121.145729,"name":"新街","decorType":"bus_stop"},{"id":"node-3999391724","lat":24.912747,"lon":121.145739,"name":"楊梅火車站","decorType":"bus_stop"},{"id":"node-3999391725","lat":24.9129,"lon":121.145895,"name":"楊梅火車站","decorType":"bus_stop"},{"id":"node-4124935592","lat":24.912991,"lon":121.168422,"name":"清心蔬食館","decorType":"restaurant"},{"id":"node-4243925098","lat":24.909287,"lon":121.146888,"name":"85度C","decorType":"cafe"},{"id":"node-4243925100","lat":24.908098,"lon":121.145454,"name":"福廣燒臘","decorType":"restaurant"},{"id":"node-4243925103","lat":24.908412,"lon":121.14591,"name":"新竹鴨肉面","decorType":"restaurant"},{"id":"node-4243925104","lat":24.908253,"lon":121.145887,"name":"威仕頓牛排","decorType":"restaurant"},{"id":"node-4243925105","lat":24.908087,"lon":121.145653,"name":"鈺山牛肉麵","decorType":"restaurant"},{"id":"node-4243925106","lat":24.907968,"lon":121.145639,"name":"食品行","decorType":"restaurant"},{"id":"node-4243925108","lat":24.910484,"lon":121.145542,"name":"肯德基","decorType":"burger"},{"id":"node-4243925109","lat":24.910582,"lon":121.145542,"name":"屈臣氏","decorType":"pharmacy"},{"id":"node-4243925110","lat":24.90914,"lon":121.145081,"name":"八方雲集","decorType":"burger"},{"id":"node-4243925115","lat":24.907784,"lon":121.145409,"name":"弘大藥局","decorType":"pharmacy"},{"id":"node-4243925116","lat":24.907392,"lon":121.145521,"name":"新日元中藥行","decorType":"pharmacy"},{"id":"node-4268315018","lat":24.931095,"lon":121.067557,"name":"新富","decorType":"station"},{"id":"node-4326608090","lat":24.955767,"lon":121.108591,"name":"南非美食小屋","decorType":"restaurant"},{"id":"node-4326609395","lat":24.958681,"lon":121.115325,"name":"萊爾富","decorType":"convenience"},{"id":"node-4355292355","lat":24.895079,"lon":121.128378,"name":"正霖慈惠堂","decorType":"shrine"},{"id":"node-4357465289","lat":24.902277,"lon":121.149708,"name":"美廉社","decorType":"supermarket"},{"id":"node-4367038394","lat":24.906856,"lon":121.141179,"name":"土地公","decorType":"shrine"},{"id":"node-4367059292","lat":24.907282,"lon":121.150103,"name":"7-Eleven","decorType":"convenience"},{"id":"node-4367059294","lat":24.911363,"lon":121.145921,"name":"大樹藥局","decorType":"pharmacy"},{"id":"node-4367062190","lat":24.912228,"lon":121.14591,"name":"拿坡里披薩","decorType":"restaurant"},{"id":"node-4367118191","lat":24.908334,"lon":121.145659,"name":"真善美藥局","decorType":"pharmacy"},{"id":"node-4367120291","lat":24.910996,"lon":121.145352,"name":"政東書局","decorType":"library"},{"id":"node-4367120390","lat":24.908909,"lon":121.145686,"name":"Easy shop","decorType":"clothing"},{"id":"node-4367140289","lat":24.910168,"lon":121.145523,"name":"佳瑪","decorType":"pharmacy"},{"id":"node-4420498230","lat":24.919366,"lon":121.174199,"name":"小木屋","decorType":"cafe"},{"id":"node-4420498231","lat":24.919548,"lon":121.173819,"name":"福利社","decorType":"convenience"},{"id":"node-4420498232","lat":24.919564,"lon":121.175093,"name":"烘焙坊","decorType":"bakery"},{"id":"node-4432477251","lat":24.913822,"lon":121.180879,"name":"墨爾漢堡","decorType":"restaurant"},{"id":"node-4472223489","lat":24.957008,"lon":121.080235,"name":"耶和華見證人臺灣分部","decorType":"shrine"},{"id":"node-4511551889","lat":25.053169,"lon":121.120209,"name":"艾芮絲","decorType":"hair_salon"},{"id":"node-4563703539","lat":25.030976,"lon":121.12191,"name":"福德宮","decorType":"shrine"},{"id":"node-4632137851","lat":24.9122,"lon":121.050732,"name":"上和興","decorType":"bus_stop"},{"id":"node-4632137852","lat":24.912077,"lon":121.050517,"name":"上和興","decorType":"bus_stop"},{"id":"node-4632137853","lat":24.914926,"lon":121.051794,"name":"九股埤","decorType":"bus_stop"},{"id":"node-4632137854","lat":24.914787,"lon":121.051534,"name":"九股埤","decorType":"bus_stop"},{"id":"node-4632137855","lat":24.918073,"lon":121.053562,"name":"和興新村","decorType":"bus_stop"},{"id":"node-4632137856","lat":24.918145,"lon":121.053448,"name":"和興新村","decorType":"bus_stop"},{"id":"node-4632137998","lat":24.919509,"lon":121.054928,"name":"中國科技大學","decorType":"bus_stop"},{"id":"node-4632137999","lat":24.919589,"lon":121.054765,"name":"中國科技大學","decorType":"bus_stop"},{"id":"node-4632138000","lat":24.920373,"lon":121.056111,"name":"山葉機車","decorType":"bus_stop"},{"id":"node-4632138001","lat":24.920382,"lon":121.055773,"name":"山葉機車","decorType":"bus_stop"},{"id":"node-4632138002","lat":24.921082,"lon":121.057422,"name":"六股橋","decorType":"bus_stop"},{"id":"node-4632138003","lat":24.921235,"lon":121.057344,"name":"六股橋","decorType":"bus_stop"},{"id":"node-4632138004","lat":24.923375,"lon":121.059026,"name":"山葉社區","decorType":"bus_stop"},{"id":"node-4632138005","lat":24.923346,"lon":121.059186,"name":"山葉社區","decorType":"bus_stop"},{"id":"node-4632138012","lat":24.92508,"lon":121.060333,"name":"縣界","decorType":"bus_stop"},{"id":"node-4632138013","lat":24.925142,"lon":121.060214,"name":"縣界","decorType":"bus_stop"},{"id":"node-4632138026","lat":24.904681,"lon":121.052606,"name":"貴州新村","decorType":"bus_stop"},{"id":"node-4632138027","lat":24.904528,"lon":121.05273,"name":"貴州新村","decorType":"bus_stop"},{"id":"node-4632138028","lat":24.905269,"lon":121.055658,"name":"圳頭","decorType":"bus_stop"},{"id":"node-4632138029","lat":24.905197,"lon":121.055812,"name":"圳頭","decorType":"bus_stop"},{"id":"node-4632138030","lat":24.906183,"lon":121.057832,"name":"四湖橋","decorType":"bus_stop"},{"id":"node-4632138031","lat":24.906214,"lon":121.058102,"name":"四湖橋","decorType":"bus_stop"},{"id":"node-4632138114","lat":24.877937,"lon":121.052145,"name":"湖鏡村","decorType":"bus_stop"},{"id":"node-4632138115","lat":24.877683,"lon":121.052169,"name":"湖鏡村","decorType":"bus_stop"},{"id":"node-4632138116","lat":24.878711,"lon":121.0585,"name":"湖口老街","decorType":"bus_stop"},{"id":"node-4632138117","lat":24.878437,"lon":121.058692,"name":"湖口老街","decorType":"bus_stop"},{"id":"node-4632138118","lat":24.879718,"lon":121.064884,"name":"戴家","decorType":"bus_stop"},{"id":"node-4632138119","lat":24.879956,"lon":121.064788,"name":"戴家","decorType":"bus_stop"},{"id":"node-4632138120","lat":24.88365,"lon":121.073148,"name":"羊喜窩","decorType":"bus_stop"},{"id":"node-4632138121","lat":24.883231,"lon":121.073231,"name":"羊喜窩","decorType":"bus_stop"},{"id":"node-4632138122","lat":24.886767,"lon":121.084111,"name":"長嶺村","decorType":"bus_stop"},{"id":"node-4632138123","lat":24.887246,"lon":121.084622,"name":"長嶺村","decorType":"bus_stop"},{"id":"node-4632138124","lat":24.888447,"lon":121.088364,"name":"長安","decorType":"bus_stop"},{"id":"node-4632138125","lat":24.888424,"lon":121.089163,"name":"長安","decorType":"bus_stop"},{"id":"node-4632138126","lat":24.895377,"lon":121.108515,"name":"畜試所","decorType":"bus_stop"},{"id":"node-4632138127","lat":24.894769,"lon":121.107837,"name":"畜試所","decorType":"bus_stop"},{"id":"node-4632138128","lat":24.882602,"lon":121.054901,"name":"陳厝","decorType":"bus_stop"},{"id":"node-4632138129","lat":24.882208,"lon":121.054628,"name":"陳厝","decorType":"bus_stop"},{"id":"node-4632138130","lat":24.883865,"lon":121.054297,"name":"磚窯","decorType":"bus_stop"},{"id":"node-4632138131","lat":24.883933,"lon":121.054651,"name":"磚窯","decorType":"bus_stop"},{"id":"node-4632138132","lat":24.885089,"lon":121.053269,"name":"富國新村","decorType":"bus_stop"},{"id":"node-4632138133","lat":24.885118,"lon":121.053705,"name":"富國新村","decorType":"bus_stop"},{"id":"node-4632138134","lat":24.888124,"lon":121.051888,"name":"美之城","decorType":"bus_stop"},{"id":"node-4632138135","lat":24.888109,"lon":121.052266,"name":"美之城","decorType":"bus_stop"},{"id":"node-4632138136","lat":24.891115,"lon":121.050762,"name":"湖口高中","decorType":"bus_stop"},{"id":"node-4632138137","lat":24.891241,"lon":121.05105,"name":"湖口高中","decorType":"bus_stop"},{"id":"node-4632138146","lat":24.876894,"lon":121.052403,"name":"天主堂","decorType":"bus_stop"},{"id":"node-4632138147","lat":24.876935,"lon":121.052245,"name":"天主堂","decorType":"bus_stop"},{"id":"node-4632138148","lat":24.875977,"lon":121.053235,"name":"畚箕窩口","decorType":"bus_stop"},{"id":"node-4632138149","lat":24.87589,"lon":121.053362,"name":"畚箕窩口","decorType":"bus_stop"},{"id":"node-4632138151","lat":24.872718,"lon":121.058107,"name":"畚箕窩","decorType":"bus_stop"},{"id":"node-4632138152","lat":24.872163,"lon":121.066229,"name":"電台","decorType":"bus_stop"},{"id":"node-4632138153","lat":24.872011,"lon":121.065985,"name":"電台","decorType":"bus_stop"},{"id":"node-4632138154","lat":24.872677,"lon":121.070566,"name":"金獅寺","decorType":"bus_stop"},{"id":"node-4632138155","lat":24.872477,"lon":121.070589,"name":"金獅寺","decorType":"bus_stop"},{"id":"node-4632138156","lat":24.873468,"lon":121.073509,"name":"綠藻","decorType":"bus_stop"},{"id":"node-4632138157","lat":24.873342,"lon":121.073469,"name":"綠藻","decorType":"bus_stop"},{"id":"node-4632138158","lat":24.872309,"lon":121.08039,"name":"林口","decorType":"bus_stop"},{"id":"node-4632138159","lat":24.872185,"lon":121.080257,"name":"林口","decorType":"bus_stop"},{"id":"node-4632138160","lat":24.86984,"lon":121.086828,"name":"崗頂","decorType":"bus_stop"},{"id":"node-4632138161","lat":24.869614,"lon":121.086675,"name":"崗頂","decorType":"bus_stop"},{"id":"node-4632138162","lat":24.868632,"lon":121.091238,"name":"羊喜窩","decorType":"bus_stop"},{"id":"node-4632138163","lat":24.868849,"lon":121.091327,"name":"羊喜窩","decorType":"bus_stop"},{"id":"node-4682754090","lat":25.043431,"lon":121.142098,"name":"宜欣文具行","decorType":"library"},{"id":"node-5056849671","lat":24.877614,"lon":121.052079,"name":"7-Eleven","decorType":"convenience"},{"id":"node-5056849672","lat":24.878301,"lon":121.058336,"name":"OK超商","decorType":"convenience"},{"id":"node-5061628880","lat":24.877463,"lon":121.067979,"name":"姑娘廟","decorType":"shrine"},{"id":"node-5061628886","lat":24.875577,"lon":121.067457,"name":"福德亭","decorType":"shrine"},{"id":"node-5065465956","lat":24.871211,"lon":121.165181,"name":"山水緣庭園景觀餐廳","decorType":"restaurant"},{"id":"node-5092061904","lat":24.857341,"lon":121.09384,"name":"福德祠","decorType":"bus_stop"},{"id":"node-5092061905","lat":24.857305,"lon":121.094002,"name":"福德祠","decorType":"bus_stop"},{"id":"node-5092061931","lat":24.858515,"lon":121.095323,"name":"大興","decorType":"bus_stop"},{"id":"node-5092061932","lat":24.858771,"lon":121.095273,"name":"大興","decorType":"bus_stop"},{"id":"node-5092061933","lat":24.863256,"lon":121.095122,"name":"福興","decorType":"bus_stop"},{"id":"node-5092061934","lat":24.863227,"lon":121.094968,"name":"福興","decorType":"bus_stop"},{"id":"node-5092061935","lat":24.867224,"lon":121.097358,"name":"窩尾","decorType":"bus_stop"},{"id":"node-5092061936","lat":24.867472,"lon":121.09734,"name":"窩尾","decorType":"bus_stop"},{"id":"node-5092061937","lat":24.872654,"lon":121.058037,"name":"畚箕窩","decorType":"bus_stop"},{"id":"node-5227921985","lat":24.878378,"lon":121.058208,"name":"湖口老街","decorType":"bus_stop"},{"id":"node-5266293979","lat":24.984435,"lon":121.106249,"name":"7-Eleven","decorType":"convenience"},{"id":"node-5298825422","lat":24.958138,"lon":121.142944,"name":"桃園玉明宮","decorType":"shrine"},{"id":"node-5313364686","lat":24.899206,"lon":121.151073,"name":"合浦刀削麵食","decorType":"restaurant"},{"id":"node-5481944241","lat":25.047503,"lon":121.143248,"name":"7-Eleven","decorType":"convenience"},{"id":"node-5481952335","lat":25.054848,"lon":121.158031,"name":"7-Eleven","decorType":"convenience"},{"id":"node-5570252615","lat":25.013061,"lon":121.136025,"name":"7-Eleven","decorType":"convenience"},{"id":"node-5570252624","lat":25.014558,"lon":121.133631,"name":"觀音高中","decorType":"bus_stop"},{"id":"node-5589996262","lat":24.857506,"lon":121.174689,"name":"伯公埂福德祠","decorType":"shrine"},{"id":"node-5610890221","lat":24.913792,"lon":121.151012,"name":"楊梅教會","decorType":"shrine"},{"id":"node-5754436734","lat":24.958735,"lon":121.172302,"name":"寶雅","decorType":"pharmacy"},{"id":"node-5781771356","lat":24.900759,"lon":121.156328,"name":"台北新都福德祠","decorType":"shrine"},{"id":"node-5781778231","lat":24.907887,"lon":121.120439,"name":"薪加坡社區福德祠","decorType":"shrine"},{"id":"node-5804318493","lat":25.013005,"lon":121.13607,"name":"八方雲集","decorType":"burger"},{"id":"node-5901110043","lat":24.989236,"lon":121.179931,"name":"內厝社區圖書館","decorType":"library"},{"id":"node-6065237949","lat":24.973311,"lon":121.099524,"name":"萊爾富","decorType":"convenience"},{"id":"node-6065237964","lat":24.972914,"lon":121.102186,"name":"7-Eleven","decorType":"convenience"},{"id":"node-6112609212","lat":24.975495,"lon":121.106151,"name":"7-Eleven","decorType":"convenience"},{"id":"node-6171374277","lat":24.905893,"lon":121.177555,"name":"7-Eleven","decorType":"convenience"},{"id":"node-6196681226","lat":24.971283,"lon":121.109958,"name":"加油站","decorType":"bus_stop"},{"id":"node-6196681227","lat":24.971069,"lon":121.110785,"name":"加油站","decorType":"bus_stop"},{"id":"node-6196681228","lat":24.971698,"lon":121.109295,"name":"電信局","decorType":"bus_stop"},{"id":"node-6196681229","lat":24.971728,"lon":121.109563,"name":"電信局","decorType":"bus_stop"},{"id":"node-6196681232","lat":24.972861,"lon":121.102552,"name":"新屋站","decorType":"bus_stop"},{"id":"node-6196681253","lat":24.973463,"lon":121.099673,"name":"雙路口","decorType":"bus_stop"},{"id":"node-6196681254","lat":24.973336,"lon":121.099751,"name":"雙路口","decorType":"bus_stop"},{"id":"node-6196681255","lat":24.973996,"lon":121.096892,"name":"新明公司","decorType":"bus_stop"},{"id":"node-6196681256","lat":24.973788,"lon":121.096915,"name":"新明公司","decorType":"bus_stop"},{"id":"node-6196681257","lat":24.974355,"lon":121.094718,"name":"邱厝","decorType":"bus_stop"},{"id":"node-6196681258","lat":24.974199,"lon":121.094657,"name":"邱厝","decorType":"bus_stop"},{"id":"node-6247158787","lat":24.910661,"lon":121.174517,"name":"貴族世家","decorType":"restaurant"},{"id":"node-6247159785","lat":24.912453,"lon":121.176094,"name":"優衣酷","decorType":"clothing"},{"id":"node-6247166987","lat":24.908397,"lon":121.167642,"name":"摩斯漢堡","decorType":"burger"},{"id":"node-6247189085","lat":24.909099,"lon":121.175478,"name":"全家便利商店","decorType":"convenience"},{"id":"node-6247189086","lat":24.91036,"lon":121.178355,"name":"7-Eleven","decorType":"convenience"},{"id":"node-6247195185","lat":24.909768,"lon":121.176457,"name":"楊梅瑞塘郵局","decorType":"post_office"},{"id":"node-6333252719","lat":25.037376,"lon":121.081523,"name":"廟前(甘泉寺)","decorType":"bus_stop"},{"id":"node-6333252726","lat":25.03317,"lon":121.08311,"name":"水利站(文化中正路口)","decorType":"bus_stop"},{"id":"node-6333252753","lat":25.036525,"lon":121.08257,"name":"觀音分駐所","decorType":"bus_stop"},{"id":"node-6333252754","lat":25.036709,"lon":121.082201,"name":"7-Eleven","decorType":"convenience"},{"id":"node-6333252755","lat":25.042209,"lon":121.077523,"name":"白沙岬燈塔","decorType":"bus_stop"},{"id":"node-6339086671","lat":25.046339,"lon":121.138648,"name":"尾厝福德祠","decorType":"shrine"},{"id":"node-6503106416","lat":25.039231,"lon":121.083099,"name":"觀音甘泉池-步道公園","decorType":"park"},{"id":"node-6503106453","lat":25.039206,"lon":121.083413,"name":"觀音甘泉池-步道公園","decorType":"park"},{"id":"node-6518587917","lat":24.938221,"lon":121.088469,"name":"許廚師","decorType":"restaurant"},{"id":"node-6657151229","lat":25.034521,"lon":121.074621,"name":"塘頭","decorType":"bus_stop"},{"id":"node-6657151230","lat":25.034475,"lon":121.074897,"name":"塘頭","decorType":"bus_stop"},{"id":"node-6838186110","lat":24.87811,"lon":121.056654,"name":"OK超商","decorType":"convenience"},{"id":"node-6838193241","lat":24.885696,"lon":121.080076,"name":"新普科技","decorType":"bus_stop"},{"id":"node-6838193242","lat":24.88581,"lon":121.07964,"name":"新普科技","decorType":"bus_stop"},{"id":"node-6838266126","lat":24.904966,"lon":121.129621,"name":"中興","decorType":"bus_stop"},{"id":"node-6838266127","lat":24.90447,"lon":121.129278,"name":"中興","decorType":"bus_stop"},{"id":"node-6838266128","lat":24.902523,"lon":121.125268,"name":"大東社區","decorType":"bus_stop"},{"id":"node-6838266129","lat":24.90248,"lon":121.124589,"name":"大東社區","decorType":"bus_stop"},{"id":"node-6838266130","lat":24.900602,"lon":121.120797,"name":"東流里","decorType":"bus_stop"},{"id":"node-6838266131","lat":24.900291,"lon":121.120808,"name":"東流里","decorType":"bus_stop"},{"id":"node-6838266132","lat":24.897325,"lon":121.114096,"name":"崩坡下","decorType":"bus_stop"},{"id":"node-6838266133","lat":24.896967,"lon":121.113882,"name":"崩坡下","decorType":"bus_stop"},{"id":"node-6838310057","lat":24.907289,"lon":121.137231,"name":"四季社區","decorType":"bus_stop"},{"id":"node-6838310058","lat":24.907558,"lon":121.13744,"name":"四季社區","decorType":"bus_stop"},{"id":"node-6838312264","lat":24.90583,"lon":121.131754,"name":"太平里","decorType":"bus_stop"},{"id":"node-6838312265","lat":24.905562,"lon":121.131933,"name":"太平里","decorType":"bus_stop"},{"id":"node-6838333888","lat":24.907029,"lon":121.134903,"name":"瓦窯橋","decorType":"bus_stop"},{"id":"node-6838333889","lat":24.906703,"lon":121.134862,"name":"瓦窯橋","decorType":"bus_stop"},{"id":"node-6838359009","lat":24.906927,"lon":121.145072,"name":"楊梅","decorType":"bus_stop"},{"id":"node-6838359010","lat":24.906657,"lon":121.144867,"name":"楊梅","decorType":"bus_stop"},{"id":"node-6838392170","lat":24.908541,"lon":121.156911,"name":"天成醫院","decorType":"bus_stop"},{"id":"node-6838461612","lat":24.915067,"lon":121.179851,"name":"全家便利商店","decorType":"convenience"},{"id":"node-6838461613","lat":24.915408,"lon":121.180214,"name":"四維新村","decorType":"bus_stop"},{"id":"node-6838461614","lat":24.915374,"lon":121.1798,"name":"四維新村","decorType":"bus_stop"},{"id":"node-6838461622","lat":24.912865,"lon":121.176384,"name":"瑞塘里","decorType":"bus_stop"},{"id":"node-6838461623","lat":24.912198,"lon":121.175718,"name":"瑞塘里","decorType":"bus_stop"},{"id":"node-6838461625","lat":24.909695,"lon":121.172751,"name":"楊梅工業區","decorType":"bus_stop"},{"id":"node-6838461626","lat":24.911122,"lon":121.173874,"name":"楊梅工業區","decorType":"bus_stop"},{"id":"node-6838461629","lat":24.908783,"lon":121.170793,"name":"頭重溪","decorType":"bus_stop"},{"id":"node-6838461630","lat":24.908511,"lon":121.170709,"name":"頭重溪","decorType":"bus_stop"},{"id":"node-6838461631","lat":24.908136,"lon":121.169343,"name":"85度C","decorType":"cafe"},{"id":"node-6838461633","lat":24.908714,"lon":121.167784,"name":"楊梅交流道","decorType":"bus_stop"},{"id":"node-6838461634","lat":24.90845,"lon":121.168027,"name":"楊梅交流道","decorType":"bus_stop"},{"id":"node-6839745017","lat":24.959075,"lon":121.177903,"name":"中平國小","decorType":"bus_stop"},{"id":"node-6839745018","lat":24.958752,"lon":121.178376,"name":"中平國小","decorType":"bus_stop"},{"id":"node-6839807680","lat":24.959713,"lon":121.163785,"name":"中壢地政事務所(民族松勤路口)","decorType":"bus_stop"},{"id":"node-6839807682","lat":24.958101,"lon":121.166873,"name":"幸福社區","decorType":"bus_stop"},{"id":"node-6839807683","lat":24.958251,"lon":121.165291,"name":"高榮","decorType":"bus_stop"},{"id":"node-6839807684","lat":24.958272,"lon":121.16558,"name":"高榮","decorType":"bus_stop"},{"id":"node-6839810636","lat":24.962145,"lon":121.159578,"name":"橡樹公司","decorType":"bus_stop"},{"id":"node-6839810637","lat":24.962343,"lon":121.159317,"name":"橡樹公司","decorType":"bus_stop"},{"id":"node-6839810638","lat":24.961786,"lon":121.161207,"name":"寶祥","decorType":"bus_stop"},{"id":"node-6839810639","lat":24.962111,"lon":121.161033,"name":"寶祥","decorType":"bus_stop"},{"id":"node-6839810786","lat":24.95813,"lon":121.1681,"name":"嘉裕紡織","decorType":"bus_stop"},{"id":"node-6839810787","lat":24.957916,"lon":121.167656,"name":"嘉裕紡織","decorType":"bus_stop"},{"id":"node-6839810788","lat":24.958495,"lon":121.169981,"name":"全家便利商店","decorType":"convenience"},{"id":"node-6839810791","lat":24.95845,"lon":121.172007,"name":"國際兒童村","decorType":"bus_stop"},{"id":"node-6839810792","lat":24.958601,"lon":121.171601,"name":"國際兒童村","decorType":"bus_stop"},{"id":"node-6839810793","lat":24.958941,"lon":121.174198,"name":"龍太社區","decorType":"bus_stop"},{"id":"node-6839810794","lat":24.958793,"lon":121.174289,"name":"龍太社區","decorType":"bus_stop"},{"id":"node-6839810797","lat":24.958686,"lon":121.173801,"name":"萊爾富","decorType":"convenience"},{"id":"node-6839810798","lat":24.959307,"lon":121.176537,"name":"過嶺","decorType":"bus_stop"},{"id":"node-6839810799","lat":24.959122,"lon":121.176553,"name":"過嶺","decorType":"bus_stop"},{"id":"node-6839821999","lat":24.962433,"lon":121.15802,"name":"雙塘屋","decorType":"bus_stop"},{"id":"node-6839822000","lat":24.962253,"lon":121.157966,"name":"雙塘屋","decorType":"bus_stop"},{"id":"node-6839869987","lat":24.964653,"lon":121.152041,"name":"上富源","decorType":"bus_stop"},{"id":"node-6839869988","lat":24.964723,"lon":121.152253,"name":"上富源","decorType":"bus_stop"},{"id":"node-6839870003","lat":24.963851,"lon":121.153441,"name":"富泰公司","decorType":"bus_stop"},{"id":"node-6839870004","lat":24.963328,"lon":121.154175,"name":"富泰公司","decorType":"bus_stop"},{"id":"node-6839870010","lat":24.96278,"lon":121.155829,"name":"中壢好市多","decorType":"bus_stop"},{"id":"node-6839870011","lat":24.962991,"lon":121.155733,"name":"中壢好市多","decorType":"bus_stop"},{"id":"node-6839902792","lat":24.963327,"lon":121.146688,"name":"志欣","decorType":"bus_stop"},{"id":"node-6839902793","lat":24.963233,"lon":121.146981,"name":"志欣","decorType":"bus_stop"},{"id":"node-6839902801","lat":24.965003,"lon":121.15104,"name":"7-Eleven","decorType":"convenience"},{"id":"node-6839902802","lat":24.962797,"lon":121.146468,"name":"7-Eleven","decorType":"convenience"},{"id":"node-6841072616","lat":24.969771,"lon":121.135774,"name":"豪軒","decorType":"bus_stop"},{"id":"node-6841072617","lat":24.969876,"lon":121.136065,"name":"豪軒","decorType":"bus_stop"},{"id":"node-6841072618","lat":24.969212,"lon":121.137661,"name":"富九","decorType":"bus_stop"},{"id":"node-6841072619","lat":24.969164,"lon":121.137327,"name":"富九","decorType":"bus_stop"},{"id":"node-6841072622","lat":24.968032,"lon":121.139299,"name":"和泰","decorType":"bus_stop"},{"id":"node-6841072623","lat":24.967875,"lon":121.139068,"name":"和泰","decorType":"bus_stop"},{"id":"node-6841072646","lat":24.963599,"lon":121.143262,"name":"頭州新城","decorType":"bus_stop"},{"id":"node-6841072655","lat":24.962475,"lon":121.144683,"name":"黎頭洲","decorType":"bus_stop"},{"id":"node-6841072656","lat":24.963296,"lon":121.143272,"name":"頭州新城","decorType":"bus_stop"},{"id":"node-6841072657","lat":24.962667,"lon":121.144781,"name":"黎頭洲","decorType":"bus_stop"},{"id":"node-6841083469","lat":24.970552,"lon":121.113008,"name":"中山路","decorType":"bus_stop"},{"id":"node-6841083470","lat":24.970338,"lon":121.113044,"name":"中山路","decorType":"bus_stop"},{"id":"node-6841083471","lat":24.969938,"lon":121.115328,"name":"7-Eleven","decorType":"convenience"},{"id":"node-6841083472","lat":24.970312,"lon":121.114951,"name":"台一","decorType":"bus_stop"},{"id":"node-6841083473","lat":24.97015,"lon":121.114655,"name":"台一","decorType":"bus_stop"},{"id":"node-6841124028","lat":24.972813,"lon":121.104423,"name":"新屋郵局","decorType":"bus_stop"},{"id":"node-6841124029","lat":24.972681,"lon":121.104525,"name":"新屋郵局","decorType":"bus_stop"},{"id":"node-6841142786","lat":24.971248,"lon":121.119959,"name":"清華里","decorType":"bus_stop"},{"id":"node-6841142787","lat":24.970968,"lon":121.119786,"name":"清華里","decorType":"bus_stop"},{"id":"node-6841142788","lat":24.970016,"lon":121.116865,"name":"萊爾富","decorType":"convenience"},{"id":"node-6841142789","lat":24.970363,"lon":121.117097,"name":"紅泥坡","decorType":"bus_stop"},{"id":"node-6841142790","lat":24.970124,"lon":121.117063,"name":"紅泥坡","decorType":"bus_stop"},{"id":"node-6841142830","lat":24.972045,"lon":121.123759,"name":"鄧厝","decorType":"bus_stop"},{"id":"node-6841142831","lat":24.9718,"lon":121.123554,"name":"鄧厝","decorType":"bus_stop"},{"id":"node-6841142839","lat":24.972727,"lon":121.125986,"name":"頂紅泥坡","decorType":"bus_stop"},{"id":"node-6841142840","lat":24.972879,"lon":121.125829,"name":"頂紅泥坡","decorType":"bus_stop"},{"id":"node-6841142842","lat":24.972571,"lon":121.128236,"name":"元華公司","decorType":"bus_stop"},{"id":"node-6841142843","lat":24.972384,"lon":121.128146,"name":"元華公司","decorType":"bus_stop"},{"id":"node-6841142849","lat":24.971674,"lon":121.131392,"name":"北勢","decorType":"bus_stop"},{"id":"node-6841142850","lat":24.971569,"lon":121.131131,"name":"北勢","decorType":"bus_stop"},{"id":"node-6841142851","lat":24.971716,"lon":121.131374,"name":"7-Eleven","decorType":"convenience"},{"id":"node-6842551467","lat":24.97749,"lon":121.077983,"name":"里界","decorType":"bus_stop"},{"id":"node-6842551468","lat":24.977684,"lon":121.078034,"name":"里界","decorType":"bus_stop"},{"id":"node-6842577685","lat":24.976571,"lon":121.083369,"name":"東明","decorType":"bus_stop"},{"id":"node-6842577686","lat":24.976356,"lon":121.083387,"name":"東明","decorType":"bus_stop"},{"id":"node-6842577700","lat":24.976681,"lon":121.082909,"name":"OK","decorType":"convenience"},{"id":"node-6842577701","lat":24.97583,"lon":121.086761,"name":"新光","decorType":"bus_stop"},{"id":"node-6842577702","lat":24.975591,"lon":121.086958,"name":"新光","decorType":"bus_stop"},{"id":"node-6842577703","lat":24.975151,"lon":121.091413,"name":"7-Eleven","decorType":"convenience"},{"id":"node-6842577704","lat":24.974852,"lon":121.090917,"name":"全美公司","decorType":"bus_stop"},{"id":"node-6842577705","lat":24.975094,"lon":121.090755,"name":"全美公司","decorType":"bus_stop"},{"id":"node-6842583011","lat":24.978835,"lon":121.073208,"name":"玉皇宮","decorType":"bus_stop"},{"id":"node-6842583012","lat":24.979018,"lon":121.073231,"name":"玉皇宮","decorType":"bus_stop"},{"id":"node-6842583013","lat":24.978226,"lon":121.07526,"name":"六號坡","decorType":"bus_stop"},{"id":"node-6842583014","lat":24.978473,"lon":121.075178,"name":"六號坡","decorType":"bus_stop"},{"id":"node-6856773012","lat":24.980818,"lon":121.068503,"name":"永昌","decorType":"bus_stop"},{"id":"node-6856773013","lat":24.979539,"lon":121.071063,"name":"頂田心","decorType":"bus_stop"},{"id":"node-6856773014","lat":24.97971,"lon":121.07118,"name":"頂田心","decorType":"bus_stop"},{"id":"node-6867463766","lat":24.925056,"lon":121.180476,"name":"餐飲區","decorType":"restaurant"},{"id":"node-6868909592","lat":24.925745,"lon":121.180344,"name":"餐飲區","decorType":"restaurant"},{"id":"node-6869007046","lat":24.925353,"lon":121.180197,"name":"環場列車餐飲區站","decorType":"bus_stop"},{"id":"node-6869007047","lat":24.927469,"lon":121.177879,"name":"環場列車動物表演區站","decorType":"bus_stop"},{"id":"node-6869007048","lat":24.92617,"lon":121.176158,"name":"環場列車總站","decorType":"bus_stop"},{"id":"node-6875651384","lat":24.957773,"lon":121.166658,"name":"85度C","decorType":"cafe"},{"id":"node-6875673985","lat":24.958702,"lon":121.17178,"name":"億客成生鮮超市","decorType":"supermarket"},{"id":"node-6875726892","lat":24.972838,"lon":121.102408,"name":"全家便利商店","decorType":"convenience"},{"id":"node-6875726893","lat":24.972844,"lon":121.1066,"name":"7-Eleven","decorType":"convenience"},{"id":"node-6876636785","lat":24.985122,"lon":121.052418,"name":"谷瑞公司","decorType":"bus_stop"},{"id":"node-6876636786","lat":24.985385,"lon":121.052203,"name":"谷瑞公司","decorType":"bus_stop"},{"id":"node-6876636787","lat":24.984429,"lon":121.054397,"name":"莊厝","decorType":"bus_stop"},{"id":"node-6876636788","lat":24.98466,"lon":121.054458,"name":"莊厝","decorType":"bus_stop"},{"id":"node-6876636806","lat":24.983914,"lon":121.056715,"name":"上庄","decorType":"bus_stop"},{"id":"node-6876636807","lat":24.983661,"lon":121.056794,"name":"上庄","decorType":"bus_stop"},{"id":"node-6876636808","lat":24.982765,"lon":121.060752,"name":"田中","decorType":"bus_stop"},{"id":"node-6876636809","lat":24.982973,"lon":121.05898,"name":"邱厝二","decorType":"bus_stop"},{"id":"node-6876636810","lat":24.981861,"lon":121.064639,"name":"下田心","decorType":"bus_stop"},{"id":"node-6876636811","lat":24.981556,"lon":121.065111,"name":"下田心","decorType":"bus_stop"},{"id":"node-6876636812","lat":24.980629,"lon":121.06836,"name":"永昌","decorType":"bus_stop"},{"id":"node-6961391780","lat":24.96175,"lon":121.164191,"name":"未命名公園","decorType":"park"},{"id":"node-7008435593","lat":24.920458,"lon":121.135679,"name":"7-Eleven","decorType":"convenience"},{"id":"node-7017482926","lat":24.909154,"lon":121.145171,"name":"偉士美牛仔男裝","decorType":"clothing"},{"id":"node-7044389436","lat":24.913158,"lon":121.145576,"name":"7-Eleven","decorType":"convenience"},{"id":"node-7044389438","lat":24.913136,"lon":121.146166,"name":"全家便利商店","decorType":"convenience"},{"id":"node-7044389439","lat":24.916049,"lon":121.145781,"name":"楊梅光華郵局","decorType":"post_office"},{"id":"node-7046041695","lat":24.934717,"lon":121.122721,"name":"7-Eleven","decorType":"convenience"},{"id":"node-7046041696","lat":24.913014,"lon":121.149003,"name":"7-Eleven","decorType":"convenience"},{"id":"node-7046041697","lat":24.910895,"lon":121.146955,"name":"7-Eleven","decorType":"convenience"},{"id":"node-7046041698","lat":24.912763,"lon":121.159755,"name":"7-Eleven","decorType":"convenience"},{"id":"node-7158656171","lat":24.856668,"lon":121.105444,"name":"劉家莊燜雞","decorType":"restaurant"},{"id":"node-7448165966","lat":25.02419,"lon":121.060487,"name":"上大潭","decorType":"bus_stop"},{"id":"node-7448165967","lat":25.024066,"lon":121.060701,"name":"上大潭","decorType":"bus_stop"},{"id":"node-7448165968","lat":25.022082,"lon":121.058688,"name":"大潭國小","decorType":"bus_stop"},{"id":"node-7448165969","lat":25.021865,"lon":121.058151,"name":"大潭國小","decorType":"bus_stop"},{"id":"node-7448165970","lat":25.018824,"lon":121.053987,"name":"對面厝","decorType":"bus_stop"},{"id":"node-7448165971","lat":25.018596,"lon":121.054023,"name":"對面厝","decorType":"bus_stop"},{"id":"node-7448165975","lat":25.016681,"lon":121.051696,"name":"過溪","decorType":"bus_stop"},{"id":"node-7448165976","lat":25.016532,"lon":121.05191,"name":"過溪","decorType":"bus_stop"},{"id":"node-7448322725","lat":25.026374,"lon":121.063784,"name":"黃厝","decorType":"bus_stop"},{"id":"node-7448322726","lat":25.026305,"lon":121.064087,"name":"黃厝","decorType":"bus_stop"},{"id":"node-7448515789","lat":25.029326,"lon":121.068464,"name":"塘尾","decorType":"bus_stop"},{"id":"node-7448515790","lat":25.029473,"lon":121.068238,"name":"塘尾","decorType":"bus_stop"},{"id":"node-7448515791","lat":25.028535,"lon":121.066876,"name":"下塘尾","decorType":"bus_stop"},{"id":"node-7448515792","lat":25.028539,"lon":121.067304,"name":"下塘尾","decorType":"bus_stop"},{"id":"node-7448537342","lat":25.033481,"lon":121.072737,"name":"未命名公車站","decorType":"bus_stop"},{"id":"node-7448537343","lat":25.033636,"lon":121.072484,"name":"未命名公車站","decorType":"bus_stop"},{"id":"node-7448537352","lat":25.0319,"lon":121.070839,"name":"上塘尾","decorType":"bus_stop"},{"id":"node-7448537353","lat":25.031803,"lon":121.07112,"name":"上塘尾","decorType":"bus_stop"},{"id":"node-7448551682","lat":25.034269,"lon":121.090791,"name":"下溝尾","decorType":"bus_stop"},{"id":"node-7448551683","lat":25.034084,"lon":121.090711,"name":"下溝尾","decorType":"bus_stop"},{"id":"node-7448551684","lat":25.03411,"lon":121.092909,"name":"溝尾","decorType":"bus_stop"},{"id":"node-7448555662","lat":25.036328,"lon":121.07942,"name":"燈塔","decorType":"bus_stop"},{"id":"node-7448555663","lat":25.036345,"lon":121.079161,"name":"燈塔","decorType":"bus_stop"},{"id":"node-7448555664","lat":25.036155,"lon":121.079185,"name":"OK","decorType":"convenience"},{"id":"node-7448606885","lat":25.033845,"lon":121.093057,"name":"溝尾","decorType":"bus_stop"},{"id":"node-7448606897","lat":25.034464,"lon":121.0887,"name":"中心用品公司","decorType":"bus_stop"},{"id":"node-7448606898","lat":25.034289,"lon":121.089025,"name":"中心用品公司","decorType":"bus_stop"},{"id":"node-7448606959","lat":25.034611,"lon":121.086908,"name":"遠東紡織公司","decorType":"bus_stop"},{"id":"node-7448606960","lat":25.034508,"lon":121.086922,"name":"遠東紡織公司","decorType":"bus_stop"},{"id":"node-7448606961","lat":25.035692,"lon":121.083872,"name":"觀音","decorType":"bus_stop"},{"id":"node-7448606962","lat":25.035529,"lon":121.083839,"name":"觀音","decorType":"bus_stop"},{"id":"node-7448606963","lat":25.03644,"lon":121.082465,"name":"觀音分駐所","decorType":"bus_stop"},{"id":"node-7448606964","lat":25.037018,"lon":121.081466,"name":"廟前(甘泉寺)","decorType":"bus_stop"},{"id":"node-7448606965","lat":25.037741,"lon":121.080667,"name":"OK","decorType":"convenience"},{"id":"node-7448609093","lat":25.036124,"lon":121.117499,"name":"富林社區","decorType":"bus_stop"},{"id":"node-7448609094","lat":25.036257,"lon":121.116995,"name":"富林社區","decorType":"bus_stop"},{"id":"node-7448609095","lat":25.036136,"lon":121.115872,"name":"富林橋","decorType":"bus_stop"},{"id":"node-7448609096","lat":25.03593,"lon":121.116012,"name":"富林橋","decorType":"bus_stop"},{"id":"node-7448609097","lat":25.035474,"lon":121.111362,"name":"溪底","decorType":"bus_stop"},{"id":"node-7448609099","lat":25.035032,"lon":121.104882,"name":"上埔頂","decorType":"bus_stop"},{"id":"node-7448609100","lat":25.034845,"lon":121.105015,"name":"上埔頂","decorType":"bus_stop"},{"id":"node-7448609102","lat":25.034809,"lon":121.102829,"name":"埔頂","decorType":"bus_stop"},{"id":"node-7448609103","lat":25.03463,"lon":121.102858,"name":"埔頂","decorType":"bus_stop"},{"id":"node-7448609104","lat":25.034545,"lon":121.099681,"name":"小億","decorType":"bus_stop"},{"id":"node-7448609105","lat":25.034224,"lon":121.09919,"name":"小億","decorType":"bus_stop"},{"id":"node-7448609106","lat":25.03395,"lon":121.096963,"name":"福星公司","decorType":"bus_stop"},{"id":"node-7448609107","lat":25.034261,"lon":121.09677,"name":"福星公司","decorType":"bus_stop"},{"id":"node-7448609108","lat":25.034497,"lon":121.098709,"name":"7-Eleven","decorType":"convenience"},{"id":"node-7448624062","lat":25.03826,"lon":121.129416,"name":"樹林","decorType":"bus_stop"},{"id":"node-7448624063","lat":25.038293,"lon":121.129071,"name":"樹林","decorType":"bus_stop"},{"id":"node-7448633837","lat":25.051292,"lon":121.149592,"name":"保障橋","decorType":"bus_stop"},{"id":"node-7448633838","lat":25.051073,"lon":121.149704,"name":"保障橋","decorType":"bus_stop"},{"id":"node-7448633839","lat":25.05295,"lon":121.15433,"name":"羅厝","decorType":"bus_stop"},{"id":"node-7448633857","lat":25.051017,"lon":121.149644,"name":"全家便利商店","decorType":"convenience"},{"id":"node-7448642317","lat":25.03685,"lon":121.123211,"name":"富林","decorType":"bus_stop"},{"id":"node-7448642318","lat":25.036665,"lon":121.123212,"name":"富林","decorType":"bus_stop"},{"id":"node-7448657084","lat":25.0366,"lon":121.120708,"name":"富林國小","decorType":"bus_stop"},{"id":"node-7448660385","lat":25.036444,"lon":121.120969,"name":"富林國小","decorType":"bus_stop"},{"id":"node-7448660386","lat":25.037202,"lon":121.126761,"name":"詹厝前","decorType":"bus_stop"},{"id":"node-7448660387","lat":25.037004,"lon":121.126643,"name":"詹厝前","decorType":"bus_stop"},{"id":"node-7448726125","lat":25.048417,"lon":121.143875,"name":"OK超商","decorType":"convenience"},{"id":"node-7448732181","lat":25.046771,"lon":121.14196,"name":"草音","decorType":"bus_stop"},{"id":"node-7448732182","lat":25.046729,"lon":121.142163,"name":"草音","decorType":"bus_stop"},{"id":"node-7448732183","lat":25.046068,"lon":121.141434,"name":"OK超商","decorType":"convenience"},{"id":"node-7448732184","lat":25.046222,"lon":121.141675,"name":"全聯福利中心","decorType":"supermarket"},{"id":"node-7448737085","lat":25.044942,"lon":121.139709,"name":"草漯國中","decorType":"bus_stop"},{"id":"node-7448737086","lat":25.044942,"lon":121.140054,"name":"草漯國中","decorType":"bus_stop"},{"id":"node-7448737087","lat":25.042846,"lon":121.136578,"name":"瑞正","decorType":"bus_stop"},{"id":"node-7448737088","lat":25.044344,"lon":121.139427,"name":"燦坤3C","decorType":"electronics"},{"id":"node-7448737089","lat":25.043207,"lon":121.137127,"name":"7-Eleven","decorType":"convenience"},{"id":"node-7448737090","lat":25.042959,"lon":121.137295,"name":"萊爾富","decorType":"convenience"},{"id":"node-7448737091","lat":25.042884,"lon":121.137094,"name":"瑞正","decorType":"bus_stop"},{"id":"node-7448741927","lat":25.054977,"lon":121.158478,"name":"浮圳","decorType":"bus_stop"},{"id":"node-7448741928","lat":25.054663,"lon":121.158428,"name":"浮圳","decorType":"bus_stop"},{"id":"node-7448749734","lat":25.061937,"lon":121.175663,"name":"桃禧航空城酒店","decorType":"bus_stop"},{"id":"node-7448749735","lat":25.062122,"lon":121.175463,"name":"桃禧航空城酒店","decorType":"bus_stop"},{"id":"node-7448749737","lat":25.06132,"lon":121.173493,"name":"南港","decorType":"bus_stop"},{"id":"node-7448749738","lat":25.061057,"lon":121.17353,"name":"南港","decorType":"bus_stop"},{"id":"node-7448749739","lat":25.058654,"lon":121.168483,"name":"萊爾富","decorType":"convenience"},{"id":"node-7448749740","lat":25.058023,"lon":121.16635,"name":"崙頂","decorType":"bus_stop"},{"id":"node-7448749741","lat":25.058165,"lon":121.166103,"name":"崙頂","decorType":"bus_stop"},{"id":"node-7448749742","lat":25.057558,"lon":121.164627,"name":"大同公司","decorType":"bus_stop"},{"id":"node-7448749743","lat":25.057325,"lon":121.164638,"name":"大同公司","decorType":"bus_stop"},{"id":"node-7448749752","lat":25.056158,"lon":121.161215,"name":"大同社區","decorType":"bus_stop"},{"id":"node-7448749753","lat":25.055889,"lon":121.161349,"name":"大同社區","decorType":"bus_stop"},{"id":"node-7448749766","lat":25.055925,"lon":121.160443,"name":"7-Eleven","decorType":"convenience"},{"id":"node-7448819031","lat":25.064252,"lon":121.181063,"name":"新長發","decorType":"bus_stop"},{"id":"node-7448819033","lat":25.063336,"lon":121.178385,"name":"新長發","decorType":"bus_stop"},{"id":"node-7448819034","lat":25.063093,"lon":121.178305,"name":"新長發","decorType":"bus_stop"},{"id":"node-7448819035","lat":25.062282,"lon":121.175564,"name":"7-Eleven","decorType":"convenience"},{"id":"node-7448819036","lat":25.062331,"lon":121.175665,"name":"全家便利商店","decorType":"convenience"},{"id":"node-7597467685","lat":24.908065,"lon":121.153743,"name":"全家便利商店","decorType":"convenience"},{"id":"node-7597467686","lat":24.909794,"lon":121.153256,"name":"OK超商","decorType":"convenience"},{"id":"node-7641936023","lat":24.913331,"lon":121.146121,"name":"CoCo都可","decorType":"cafe"},{"id":"node-7694207181","lat":24.964918,"lon":121.053909,"name":"大庄埔一","decorType":"bus_stop"},{"id":"node-7694207182","lat":24.965005,"lon":121.05375,"name":"大庄埔一","decorType":"bus_stop"},{"id":"node-7694233686","lat":24.966481,"lon":121.060562,"name":"上糠榔","decorType":"bus_stop"},{"id":"node-7694233687","lat":24.965688,"lon":121.056145,"name":"大庄埔","decorType":"bus_stop"},{"id":"node-7694233688","lat":24.965537,"lon":121.056177,"name":"大庄埔","decorType":"bus_stop"},{"id":"node-7694233692","lat":24.965131,"lon":121.054509,"name":"大坡社區","decorType":"bus_stop"},{"id":"node-7694233693","lat":24.965219,"lon":121.054352,"name":"大坡社區","decorType":"bus_stop"},{"id":"node-7694284771","lat":24.972905,"lon":121.103419,"name":"信宏鵝肉","decorType":"restaurant"},{"id":"node-7694287302","lat":24.975464,"lon":121.0804,"name":"東福","decorType":"bus_stop"},{"id":"node-7694287303","lat":24.975291,"lon":121.08034,"name":"東福","decorType":"bus_stop"},{"id":"node-7694287305","lat":24.973426,"lon":121.076091,"name":"東坡","decorType":"bus_stop"},{"id":"node-7694287306","lat":24.973387,"lon":121.07578,"name":"東坡","decorType":"bus_stop"},{"id":"node-7694287371","lat":24.968867,"lon":121.070941,"name":"葉厝","decorType":"bus_stop"},{"id":"node-7694287372","lat":24.968682,"lon":121.070827,"name":"葉厝","decorType":"bus_stop"},{"id":"node-7694289695","lat":24.967662,"lon":121.066001,"name":"社子","decorType":"bus_stop"},{"id":"node-7694289696","lat":24.967778,"lon":121.065985,"name":"社子","decorType":"bus_stop"},{"id":"node-7694301752","lat":24.974394,"lon":121.106487,"name":"天主堂","decorType":"bus_stop"},{"id":"node-7694301753","lat":24.974564,"lon":121.106604,"name":"天主堂","decorType":"bus_stop"},{"id":"node-7694374394","lat":24.958805,"lon":121.115286,"name":"長祥宮","decorType":"bus_stop"},{"id":"node-7694374395","lat":24.958788,"lon":121.115131,"name":"長祥宮","decorType":"bus_stop"},{"id":"node-7694374396","lat":24.963648,"lon":121.112467,"name":"九斗里","decorType":"bus_stop"},{"id":"node-7694374397","lat":24.963498,"lon":121.112402,"name":"九斗里","decorType":"bus_stop"},{"id":"node-7694374399","lat":24.967347,"lon":121.110174,"name":"石坡下","decorType":"bus_stop"},{"id":"node-7694374400","lat":24.967547,"lon":121.110224,"name":"石坡下","decorType":"bus_stop"},{"id":"node-7694374401","lat":24.972127,"lon":121.107807,"name":"農會超市","decorType":"supermarket"},{"id":"node-7694374412","lat":24.97245,"lon":121.107236,"name":"未命名公車站","decorType":"bus_stop"},{"id":"node-7694427055","lat":24.949037,"lon":121.11851,"name":"埔頂","decorType":"bus_stop"},{"id":"node-7694427056","lat":24.949037,"lon":121.118702,"name":"埔頂","decorType":"bus_stop"},{"id":"node-7694427057","lat":24.952258,"lon":121.118086,"name":"全富新城","decorType":"bus_stop"},{"id":"node-7694427058","lat":24.952245,"lon":121.117923,"name":"全富新城","decorType":"bus_stop"},{"id":"node-7694427059","lat":24.954769,"lon":121.117478,"name":"二號池","decorType":"bus_stop"},{"id":"node-7694427060","lat":24.954878,"lon":121.117556,"name":"二號池","decorType":"bus_stop"},{"id":"node-7694447138","lat":24.932087,"lon":121.124988,"name":"香榭社區","decorType":"bus_stop"},{"id":"node-7694447139","lat":24.932275,"lon":121.12504,"name":"香榭社區","decorType":"bus_stop"},{"id":"node-7694447140","lat":24.934316,"lon":121.123251,"name":"老飯店","decorType":"bus_stop"},{"id":"node-7694447141","lat":24.934095,"lon":121.123254,"name":"老飯店","decorType":"bus_stop"},{"id":"node-7694447142","lat":24.936311,"lon":121.123914,"name":"萊爾富","decorType":"convenience"},{"id":"node-7694447144","lat":24.936615,"lon":121.123653,"name":"自由聯盟生鮮超市","decorType":"supermarket"},{"id":"node-7694447145","lat":24.936743,"lon":121.123659,"name":"上田里","decorType":"bus_stop"},{"id":"node-7694447146","lat":24.942007,"lon":121.121652,"name":"上田里","decorType":"bus_stop"},{"id":"node-7694447147","lat":24.942136,"lon":121.12148,"name":"上田里","decorType":"bus_stop"},{"id":"node-7694447148","lat":24.946329,"lon":121.119863,"name":"御花園","decorType":"bus_stop"},{"id":"node-7694477812","lat":24.922837,"lon":121.132726,"name":"彭厝","decorType":"bus_stop"},{"id":"node-7694477813","lat":24.922831,"lon":121.132443,"name":"彭厝","decorType":"bus_stop"},{"id":"node-7694477814","lat":24.925777,"lon":121.129734,"name":"下彭厝","decorType":"bus_stop"},{"id":"node-7694477815","lat":24.925842,"lon":121.129865,"name":"下彭厝","decorType":"bus_stop"},{"id":"node-7694477825","lat":24.929324,"lon":121.127246,"name":"水尾","decorType":"bus_stop"},{"id":"node-7694477826","lat":24.929526,"lon":121.127297,"name":"水尾","decorType":"bus_stop"},{"id":"node-7694504295","lat":24.913356,"lon":121.145208,"name":"楊梅火車站 (楊新路)","decorType":"bus_stop"},{"id":"node-7694504296","lat":24.913228,"lon":121.14501,"name":"楊梅火車站 (楊新路)","decorType":"bus_stop"},{"id":"node-7694504297","lat":24.914096,"lon":121.142336,"name":"水尾橋","decorType":"bus_stop"},{"id":"node-7694504298","lat":24.914267,"lon":121.142324,"name":"水尾橋","decorType":"bus_stop"},{"id":"node-7694504299","lat":24.918189,"lon":121.137907,"name":"水美國小","decorType":"bus_stop"},{"id":"node-7694504300","lat":24.918126,"lon":121.137762,"name":"水美國小","decorType":"bus_stop"},{"id":"node-7694504304","lat":24.920013,"lon":121.135811,"name":"建福新村","decorType":"bus_stop"},{"id":"node-7694504305","lat":24.920435,"lon":121.135581,"name":"建福新村","decorType":"bus_stop"},{"id":"node-7694541924","lat":24.907462,"lon":121.151657,"name":"85度CC","decorType":"cafe"},{"id":"node-7694541925","lat":24.907441,"lon":121.147821,"name":"民生報社","decorType":"bus_stop"},{"id":"node-7694541926","lat":24.907171,"lon":121.148001,"name":"民生報社","decorType":"bus_stop"},{"id":"node-7694541927","lat":24.907409,"lon":121.146627,"name":"全國電子","decorType":"electronics"},{"id":"node-7694541928","lat":24.907598,"lon":121.145496,"name":"楊梅區公所","decorType":"bus_stop"},{"id":"node-7694590105","lat":24.908401,"lon":121.167542,"name":"燦坤3C","decorType":"electronics"},{"id":"node-7694590106","lat":24.90894,"lon":121.158935,"name":"萊爾富","decorType":"convenience"},{"id":"node-7700194980","lat":24.912911,"lon":121.150505,"name":"托啡熊精品咖啡烘焙坊","decorType":"cafe"},{"id":"node-7742455536","lat":24.861625,"lon":121.104091,"name":"鴛鴦池口","decorType":"bus_stop"},{"id":"node-7746460327","lat":24.907629,"lon":121.060419,"name":"水門","decorType":"bus_stop"},{"id":"node-7746460328","lat":24.907683,"lon":121.060382,"name":"水門","decorType":"bus_stop"},{"id":"node-7746460329","lat":24.908557,"lon":121.062625,"name":"劉厝","decorType":"bus_stop"},{"id":"node-7746460330","lat":24.908622,"lon":121.06257,"name":"劉厝","decorType":"bus_stop"},{"id":"node-7746460331","lat":24.909558,"lon":121.064925,"name":"下四湖","decorType":"bus_stop"},{"id":"node-7746460332","lat":24.909636,"lon":121.064872,"name":"下四湖","decorType":"bus_stop"},{"id":"node-7746460333","lat":24.91151,"lon":121.069212,"name":"四湖","decorType":"bus_stop"},{"id":"node-7746460334","lat":24.911503,"lon":121.069823,"name":"四湖","decorType":"bus_stop"},{"id":"node-7746460335","lat":24.911821,"lon":121.072509,"name":"土牛坡","decorType":"bus_stop"},{"id":"node-7746460336","lat":24.911891,"lon":121.072501,"name":"土牛坡","decorType":"bus_stop"},{"id":"node-7746460337","lat":24.912095,"lon":121.076773,"name":"周厝","decorType":"bus_stop"},{"id":"node-7746460338","lat":24.912161,"lon":121.076767,"name":"周厝","decorType":"bus_stop"},{"id":"node-7746460339","lat":24.912216,"lon":121.079254,"name":"陳厝","decorType":"bus_stop"},{"id":"node-7746460340","lat":24.912289,"lon":121.079241,"name":"陳厝","decorType":"bus_stop"},{"id":"node-7746460348","lat":24.912446,"lon":121.083939,"name":"三元宮","decorType":"bus_stop"},{"id":"node-7746460349","lat":24.912517,"lon":121.083799,"name":"三元宮","decorType":"bus_stop"},{"id":"node-7746460359","lat":24.912392,"lon":121.088756,"name":"上四湖","decorType":"bus_stop"},{"id":"node-7746460360","lat":24.912502,"lon":121.088825,"name":"上四湖","decorType":"bus_stop"},{"id":"node-7746460361","lat":24.912777,"lon":121.094544,"name":"上湖","decorType":"bus_stop"},{"id":"node-7746460362","lat":24.912833,"lon":121.094473,"name":"上湖","decorType":"bus_stop"},{"id":"node-7746460363","lat":24.914398,"lon":121.099756,"name":"三湖","decorType":"bus_stop"},{"id":"node-7746460364","lat":24.914336,"lon":121.100002,"name":"三湖","decorType":"bus_stop"},{"id":"node-7746460365","lat":24.914207,"lon":121.102027,"name":"彭厝","decorType":"bus_stop"},{"id":"node-7746460366","lat":24.914307,"lon":121.102023,"name":"彭厝","decorType":"bus_stop"},{"id":"node-7746460367","lat":24.91391,"lon":121.104349,"name":"新和公司","decorType":"bus_stop"},{"id":"node-7746460368","lat":24.914006,"lon":121.104303,"name":"新和公司","decorType":"bus_stop"},{"id":"node-7746460369","lat":24.913048,"lon":121.106718,"name":"二湖","decorType":"bus_stop"},{"id":"node-7746467391","lat":24.911954,"lon":121.111004,"name":"長坡","decorType":"bus_stop"},{"id":"node-7746467392","lat":24.912046,"lon":121.111151,"name":"長坡","decorType":"bus_stop"},{"id":"node-7746467393","lat":24.912284,"lon":121.115214,"name":"紅坡","decorType":"bus_stop"},{"id":"node-7746467394","lat":24.912396,"lon":121.115281,"name":"紅坡","decorType":"bus_stop"},{"id":"node-7746467414","lat":24.911174,"lon":121.120031,"name":"頭湖","decorType":"bus_stop"},{"id":"node-7746467415","lat":24.911079,"lon":121.120363,"name":"頭湖","decorType":"bus_stop"},{"id":"node-7746467416","lat":24.912161,"lon":121.122531,"name":"泉水","decorType":"bus_stop"},{"id":"node-7746467417","lat":24.912219,"lon":121.122898,"name":"泉水","decorType":"bus_stop"},{"id":"node-7746467418","lat":24.913207,"lon":121.12641,"name":"惠普公司","decorType":"bus_stop"},{"id":"node-7746467419","lat":24.913123,"lon":121.126447,"name":"惠普公司","decorType":"bus_stop"},{"id":"node-7746467420","lat":24.913101,"lon":121.128861,"name":"厚恒公司","decorType":"bus_stop"},{"id":"node-7746467421","lat":24.913003,"lon":121.128723,"name":"厚恒公司","decorType":"bus_stop"},{"id":"node-7746467422","lat":24.91211,"lon":121.133499,"name":"嶺頭","decorType":"bus_stop"},{"id":"node-7746467423","lat":24.911911,"lon":121.133842,"name":"嶺頭","decorType":"bus_stop"},{"id":"node-7746467424","lat":24.911068,"lon":121.135983,"name":"水美新村","decorType":"bus_stop"},{"id":"node-7746467425","lat":24.911017,"lon":121.136199,"name":"水美新村","decorType":"bus_stop"},{"id":"node-7746467426","lat":24.9092,"lon":121.139583,"name":"圓岡","decorType":"bus_stop"},{"id":"node-7746467427","lat":24.90917,"lon":121.139499,"name":"圓岡","decorType":"bus_stop"},{"id":"node-7746467428","lat":24.906643,"lon":121.141159,"name":"錫褔宮","decorType":"bus_stop"},{"id":"node-7746467429","lat":24.906566,"lon":121.141068,"name":"錫褔宮","decorType":"bus_stop"},{"id":"node-7746467430","lat":24.913417,"lon":121.148296,"name":"楊梅站","decorType":"bus_stop"},{"id":"node-7746467431","lat":24.926923,"lon":121.061559,"name":"徐厝","decorType":"bus_stop"},{"id":"node-7746467432","lat":24.926975,"lon":121.061447,"name":"徐厝","decorType":"bus_stop"},{"id":"node-7746467433","lat":24.929274,"lon":121.063962,"name":"石埤","decorType":"bus_stop"},{"id":"node-7746467434","lat":24.929334,"lon":121.063847,"name":"石埤","decorType":"bus_stop"},{"id":"node-7746467435","lat":24.930499,"lon":121.06811,"name":"下埤","decorType":"bus_stop"},{"id":"node-7746467436","lat":24.930591,"lon":121.068156,"name":"下埤","decorType":"bus_stop"},{"id":"node-7746467464","lat":24.930293,"lon":121.072749,"name":"水塔","decorType":"bus_stop"},{"id":"node-7746467465","lat":24.930488,"lon":121.072847,"name":"水塔","decorType":"bus_stop"},{"id":"node-7746467466","lat":24.93158,"lon":121.075397,"name":"梅花新城","decorType":"bus_stop"},{"id":"node-7746467467","lat":24.931663,"lon":121.075348,"name":"梅花新城","decorType":"bus_stop"},{"id":"node-7746467468","lat":24.935572,"lon":121.080378,"name":"新明","decorType":"bus_stop"},{"id":"node-7746467469","lat":24.935521,"lon":121.080576,"name":"新明","decorType":"bus_stop"},{"id":"node-7746467471","lat":24.936411,"lon":121.082103,"name":"大井頭","decorType":"supermarket"},{"id":"node-7746467473","lat":24.9348,"lon":121.08353,"name":"富岡","decorType":"bus_stop"},{"id":"node-7746467474","lat":24.934687,"lon":121.083367,"name":"富岡","decorType":"bus_stop"},{"id":"node-7746467488","lat":24.934964,"lon":121.084825,"name":"富岡口","decorType":"bus_stop"},{"id":"node-7746467489","lat":24.935028,"lon":121.084774,"name":"富岡口","decorType":"bus_stop"},{"id":"node-7746467490","lat":24.935066,"lon":121.086653,"name":"福德","decorType":"bus_stop"},{"id":"node-7746467491","lat":24.934946,"lon":121.086663,"name":"福德","decorType":"bus_stop"},{"id":"node-7746467492","lat":24.934337,"lon":121.091212,"name":"聯華公司","decorType":"bus_stop"},{"id":"node-7746467493","lat":24.934447,"lon":121.091274,"name":"聯華公司","decorType":"bus_stop"},{"id":"node-7746467494","lat":24.933165,"lon":121.093648,"name":"磚窯","decorType":"bus_stop"},{"id":"node-7746467495","lat":24.933215,"lon":121.09376,"name":"磚窯","decorType":"bus_stop"},{"id":"node-7746467496","lat":24.932232,"lon":121.09564,"name":"清龍新村","decorType":"bus_stop"},{"id":"node-7746467497","lat":24.932144,"lon":121.095568,"name":"清龍新村","decorType":"bus_stop"},{"id":"node-7746467498","lat":24.930365,"lon":121.099217,"name":"富東","decorType":"bus_stop"},{"id":"node-7746467499","lat":24.93048,"lon":121.099222,"name":"富東","decorType":"bus_stop"},{"id":"node-7746467500","lat":24.92919,"lon":121.101885,"name":"民富工業區","decorType":"bus_stop"},{"id":"node-7746467501","lat":24.929095,"lon":121.101817,"name":"民富工業區","decorType":"bus_stop"},{"id":"node-7746467502","lat":24.92782,"lon":121.104732,"name":"瑞原","decorType":"bus_stop"},{"id":"node-7746467503","lat":24.927624,"lon":121.104825,"name":"瑞原","decorType":"bus_stop"},{"id":"node-7746467504","lat":24.925782,"lon":121.108819,"name":"亞洲化學","decorType":"bus_stop"},{"id":"node-7746467505","lat":24.925697,"lon":121.108711,"name":"亞洲化學","decorType":"bus_stop"},{"id":"node-7746467506","lat":24.924145,"lon":121.112468,"name":"石店子","decorType":"bus_stop"},{"id":"node-7746467507","lat":24.924255,"lon":121.112545,"name":"石店子","decorType":"bus_stop"},{"id":"node-7746467508","lat":24.923068,"lon":121.117905,"name":"富鳳","decorType":"bus_stop"},{"id":"node-7746467509","lat":24.923122,"lon":121.118023,"name":"富鳳","decorType":"bus_stop"},{"id":"node-7746467510","lat":24.922605,"lon":121.121188,"name":"瑞上","decorType":"bus_stop"},{"id":"node-7746467511","lat":24.922518,"lon":121.121174,"name":"瑞上","decorType":"bus_stop"},{"id":"node-7746467512","lat":24.920901,"lon":121.127975,"name":"頂湖","decorType":"bus_stop"},{"id":"node-7746467513","lat":24.920922,"lon":121.128192,"name":"頂湖","decorType":"bus_stop"},{"id":"node-7746467514","lat":24.918538,"lon":121.136719,"name":"頂湖橋","decorType":"bus_stop"},{"id":"node-7746467515","lat":24.918624,"lon":121.136722,"name":"頂湖橋","decorType":"bus_stop"},{"id":"node-7749802520","lat":24.857349,"lon":121.123858,"name":"石門","decorType":"bus_stop"},{"id":"node-7749802521","lat":24.857314,"lon":121.124111,"name":"石門","decorType":"bus_stop"},{"id":"node-7749802532","lat":24.8642,"lon":121.132058,"name":"新龍","decorType":"bus_stop"},{"id":"node-7749802534","lat":24.864488,"lon":121.13214,"name":"新龍","decorType":"bus_stop"},{"id":"node-7749802535","lat":24.866637,"lon":121.135773,"name":"元聖宮","decorType":"bus_stop"},{"id":"node-7749802536","lat":24.866646,"lon":121.135659,"name":"元聖宮","decorType":"bus_stop"},