{"bbox":{"south":24.85625,"north":25.078125,"west":121.05,"east":121.18124999999999},"pois":[{"id":"node-10072701156","lat":24.9127474,"lon":121.1689101,"name":"美廉社","decorType":"supermarket"},{"id":"node-10180169033","lat":24.8869097,"lon":121.1385037,"name":"福德祠","decorType":"shrine"},{"id":"node-10180169087","lat":24.8914134,"lon":121.1370195,"name":"秀才福德祠","decorType":"shrine"},{"id":"node-10180306533","lat":24.8858993,"lon":121.1413545,"name":"福德祠","decorType":"shrine"},{"id":"node-10182177883","lat":25.0351694,"lon":121.0845221,"name":"觀音郵局","decorType":"post_office"},{"id":"node-10187767137","lat":25.0128722,"lon":121.1364332,"name":"全家便利商店","decorType":"convenience"},{"id":"node-10187767145","lat":25.0099402,"lon":121.1410598,"name":"必勝客","decorType":"restaurant"},{"id":"node-10547944892","lat":24.9591341,"lon":121.1752521,"name":"7-Eleven","decorType":"convenience"},{"id":"node-10554393058","lat":25.0473913,"lon":121.1430902,"name":"全國電子","decorType":"electronics"},{"id":"node-10554393059","lat":25.0474525,"lon":121.1431622,"name":"阿母ㄟ灶咖","decorType":"restaurant"},{"id":"node-10554393064","lat":25.0475681,"lon":121.1428681,"name":"永成電器","decorType":"electronics"},{"id":"node-10554393065","lat":25.0475413,"lon":121.1428493,"name":"CoCo都可","decorType":"cafe"},{"id":"node-10554393067","lat":25.0476873,"lon":121.1430172,"name":"日式威廉","decorType":"hair_salon"},{"id":"node-10554393068","lat":25.0477421,"lon":121.1434765,"name":"名家西服","decorType":"clothing"},{"id":"node-10581879054","lat":25.0605293,"lon":121.166892,"name":"埔頂庄","decorType":"mountain"},{"id":"node-10583083048","lat":24.9578087,"lon":121.1661775,"name":"清心福全","decorType":"cafe"},{"id":"node-10588053979","lat":24.9885466,"lon":121.1811322,"name":"CoCo都可","decorType":"cafe"},{"id":"node-10588081771","lat":25.0021312,"lon":121.1542377,"name":"萊爾富","decorType":"convenience"},{"id":"node-10588081772","lat":25.0048151,"lon":121.149116,"name":"萊爾富","decorType":"convenience"},{"id":"node-10588081777","lat":24.9934205,"lon":121.1677203,"name":"全家便利商店","decorType":"convenience"},{"id":"node-10798721718","lat":25.0774235,"lon":121.1806336,"name":"下厝土地公","decorType":"shrine"},{"id":"node-10798756076","lat":24.9353592,"lon":121.0881436,"name":"7-Eleven","decorType":"convenience"},{"id":"node-10798785079","lat":25.0091437,"lon":121.1422304,"name":"Domino's","decorType":"burger"},{"id":"node-10811607244","lat":25.0071966,"lon":121.1411885,"name":"大同","decorType":"bus_stop"},{"id":"node-10815890620","lat":24.8844793,"lon":121.1604211,"name":"光復土地公","decorType":"shrine"},{"id":"node-10815890621","lat":24.8853685,"lon":121.1626538,"name":"普勒小姐柴燒工坊","decorType":"bakery"},{"id":"node-10858044659","lat":25.0470829,"lon":121.1372188,"name":"7-Eleven","decorType":"convenience"},{"id":"node-10901054331","lat":25.0769737,"lon":121.1698336,"name":"碧雲寺","decorType":"shrine"},{"id":"node-10974836371","lat":24.9586341,"lon":121.17888,"name":"不要加蔥窯烤胡椒餅","decorType":"sweetshop"},{"id":"node-10974843712","lat":24.9586268,"lon":121.1792437,"name":"十三番工房","decorType":"cafe"},{"id":"node-10974843713","lat":24.958628,"lon":121.1791647,"name":"理裏","decorType":"hair_salon"},{"id":"node-11032419421","lat":24.9085683,"lon":121.156246,"name":"寶家五金","decorType":"hardware"},{"id":"node-11032419422","lat":24.9095459,"lon":121.157333,"name":"OK超商","decorType":"convenience"},{"id":"node-11090859688","lat":24.8587459,"lon":121.1052148,"name":"九芎湖土地公","decorType":"shrine"},{"id":"node-11090895114","lat":24.8627229,"lon":121.1035979,"name":"鴛鴦池小吃","decorType":"restaurant"},{"id":"node-11090895116","lat":24.8620983,"lon":121.1055496,"name":"九芎湖廣財宮","decorType":"shrine"},{"id":"node-11093264434","lat":24.8771074,"lon":121.0562862,"name":"湖口風情客家菜","decorType":"restaurant"},{"id":"node-11140369237","lat":25.0616016,"lon":121.1756999,"name":"星巴克","decorType":"cafe"},{"id":"node-11340846858","lat":24.8772176,"lon":121.0573686,"name":"卡拉義式餐館","decorType":"restaurant"},{"id":"node-11389326250","lat":24.9567203,"lon":121.1668658,"name":"7-Eleven","decorType":"convenience"},{"id":"node-11393885926","lat":24.9589863,"lon":121.1665821,"name":"元爵味黃燜雞米飯","decorType":"restaurant"},{"id":"node-11436344144","lat":25.0359682,"lon":121.1170986,"name":"萊爾富","decorType":"convenience"},{"id":"node-11454211258","lat":24.9997336,"lon":121.1222119,"name":"萊爾富","decorType":"convenience"},{"id":"node-11459485394","lat":25.0451632,"lon":121.1021081,"name":"埔頂庄","decorType":"mountain"},{"id":"node-11484448557","lat":25.0369684,"lon":121.1035647,"name":"7-Eleven","decorType":"convenience"},{"id":"node-11486652544","lat":24.9725962,"lon":121.1080468,"name":"肯德基","decorType":"burger"},{"id":"node-11487044483","lat":25.0352611,"lon":121.0848422,"name":"清心福全","decorType":"cafe"},{"id":"node-11504863699","lat":24.9594598,"lon":121.1150738,"name":"7-Eleven","decorType":"convenience"},{"id":"node-11504863707","lat":24.9528541,"lon":121.1178397,"name":"萊爾富","decorType":"convenience"},{"id":"node-11762651447","lat":24.9616436,"lon":121.1625298,"name":"彤關東煮","decorType":"restaurant"},{"id":"node-11762651448","lat":24.9616611,"lon":121.1625131,"name":"九龍冰室","decorType":"cafe"},{"id":"node-11762651449","lat":24.9616247,"lon":121.1625475,"name":"燒仙草 紅豆湯圓","decorType":"restaurant"},{"id":"node-11762651450","lat":24.9616101,"lon":121.1625593,"name":"客家油飯","decorType":"restaurant"},{"id":"node-11762651451","lat":24.9615906,"lon":121.1625755,"name":"伊瑪蘭小米甜甜圈","decorType":"burger"},{"id":"node-11762651452","lat":24.9615705,"lon":121.1625929,"name":"麻辣臭豆腐","decorType":"restaurant"},{"id":"node-11762651453","lat":24.9600106,"lon":121.1634126,"name":"沙巴家","decorType":"restaurant"},{"id":"node-11762651454","lat":24.9600748,"lon":121.163338,"name":"新創客家料理","decorType":"restaurant"},{"id":"node-11762651455","lat":24.9602495,"lon":121.1640756,"name":"熊熊遇見堡","decorType":"restaurant"},{"id":"node-11762651456","lat":24.9596352,"lon":121.1642132,"name":"郭記牛肉食堂","decorType":"restaurant"},{"id":"node-11762651457","lat":24.9595698,"lon":121.1642932,"name":"Mr. Wish","decorType":"cafe"},{"id":"node-11762651458","lat":24.9598204,"lon":121.1640116,"name":"拾壹香牛肉麵麵食館","decorType":"restaurant"},{"id":"node-11762651459","lat":24.9593103,"lon":121.1641145,"name":"長疆羊肉爐","decorType":"restaurant"},{"id":"node-11762651460","lat":24.9602759,"lon":121.1647892,"name":"潮味決","decorType":"restaurant"},{"id":"node-11762651461","lat":24.9592091,"lon":121.1659459,"name":"一私麵宅","decorType":"restaurant"},{"id":"node-11762651462","lat":24.9587457,"lon":121.166941,"name":"羊老大吃到飽","decorType":"restaurant"},{"id":"node-11762651463","lat":24.9584241,"lon":121.1666487,"name":"大今日甜湯","decorType":"restaurant"},{"id":"node-11762651464","lat":24.9583643,"lon":121.166886,"name":"牛逼厚切牛排","decorType":"restaurant"},{"id":"node-11788917235","lat":24.9605937,"lon":121.0930635,"name":"萊爾富","decorType":"convenience"},{"id":"node-11795216451","lat":24.9211174,"lon":121.1277032,"name":"萊爾富","decorType":"convenience"},{"id":"node-11813014395","lat":24.9128716,"lon":121.1260791,"name":"萊爾富","decorType":"convenience"},{"id":"node-11816439819","lat":24.958524,"lon":121.1647909,"name":"茶朵ㄦ","decorType":"cafe"},{"id":"node-11816439820","lat":24.9581567,"lon":121.166969,"name":"味香自助餐","decorType":"restaurant"},{"id":"node-11816439821","lat":24.9577918,"lon":121.1663627,"name":"胖老爹","decorType":"burger"},{"id":"node-11816439822","lat":24.9584612,"lon":121.1654519,"name":"麗媽香香鍋","decorType":"restaurant"},{"id":"node-11816439823","lat":24.9588322,"lon":121.1650442,"name":"卡尼莫義大利麵","decorType":"restaurant"},{"id":"node-11816439824","lat":24.9581559,"lon":121.1672566,"name":"合浦刀削麵","decorType":"restaurant"},{"id":"node-11816439827","lat":24.958157,"lon":121.1670645,"name":"好食屋","decorType":"restaurant"},{"id":"node-11816439828","lat":24.9578415,"lon":121.1660858,"name":"過嶺藥師藥局","decorType":"pharmacy"},{"id":"node-11816439829","lat":24.9583253,"lon":121.1656967,"name":"廣濟生鮮超市","decorType":"supermarket"},{"id":"node-11816439830","lat":24.958339,"lon":121.1656529,"name":"大東剪髮","decorType":"hair_salon"},{"id":"node-11816439831","lat":24.9578273,"lon":121.1675339,"name":"韓記古早味","decorType":"restaurant"},{"id":"node-11816439833","lat":24.9580353,"lon":121.1654036,"name":"逸豐便當","decorType":"restaurant"},{"id":"node-11816439834","lat":24.9578022,"lon":121.1662287,"name":"麻辣鴨血","decorType":"restaurant"},{"id":"node-11816439835","lat":24.958157,"lon":121.1670169,"name":"永豐藥局","decorType":"pharmacy"},{"id":"node-11816439836","lat":24.9581684,"lon":121.1679273,"name":"香居越南小吃","decorType":"restaurant"},{"id":"node-11816439838","lat":24.9581629,"lon":121.1664099,"name":"醇滷味","decorType":"restaurant"},{"id":"node-11816439839","lat":24.9578676,"lon":121.1660441,"name":"梁社漢排骨","decorType":"restaurant"},{"id":"node-11816439840","lat":24.9581474,"lon":121.1663669,"name":"水煎包","decorType":"restaurant"},{"id":"node-11816439841","lat":24.9581568,"lon":121.1671084,"name":"皇家藥燉排骨","decorType":"restaurant"},{"id":"node-11816439842","lat":24.9577758,"lon":121.1665954,"name":"七先生鹽酥雞","decorType":"burger"},{"id":"node-11816439843","lat":24.9577794,"lon":121.1665088,"name":"正騰和","decorType":"burger"},{"id":"node-11816439844","lat":24.9581523,"lon":121.1662939,"name":"巧沛東方美早餐","decorType":"restaurant"},{"id":"node-11816439848","lat":24.9587671,"lon":121.1651226,"name":"橘川屋","decorType":"restaurant"},{"id":"node-11816439850","lat":24.9583071,"lon":121.1650251,"name":"廣香自助餐","decorType":"restaurant"},{"id":"node-11816439851","lat":24.9578129,"lon":121.1671374,"name":"惟客美而美","decorType":"restaurant"},{"id":"node-11816439852","lat":24.9577785,"lon":121.1665504,"name":"麥味登","decorType":"restaurant"},{"id":"node-11816439853","lat":24.9586742,"lon":121.1652152,"name":"鍋神日式涮涮鍋","decorType":"restaurant"},{"id":"node-11816439854","lat":24.9585149,"lon":121.1653761,"name":"喫茶小舖","decorType":"cafe"},{"id":"node-11816439855","lat":24.958167,"lon":121.1680223,"name":"臭豆腐","decorType":"restaurant"},{"id":"node-11816439856","lat":24.958167,"lon":121.1678789,"name":"義文五金行","decorType":"hardware"},{"id":"node-11816439857","lat":24.9578145,"lon":121.1661262,"name":"吮指王","decorType":"burger"},{"id":"node-11816439858","lat":24.9585528,"lon":121.1647549,"name":"花媽の廚房","decorType":"restaurant"},{"id":"node-11816439859","lat":24.9581557,"lon":121.1673518,"name":"巧桔","decorType":"bakery"},{"id":"node-11818210941","lat":24.9125488,"lon":121.0842274,"name":"萊爾富","decorType":"convenience"},{"id":"node-11829552362","lat":24.9228669,"lon":121.1776777,"name":"7-Eleven","decorType":"convenience"},{"id":"node-11829552363","lat":24.9218691,"lon":121.1753604,"name":"萊爾富","decorType":"convenience"},{"id":"node-11829552364","lat":24.9214423,"lon":121.1703493,"name":"萊爾富","decorType":"convenience"},{"id":"node-11829552366","lat":24.9203677,"lon":121.1713306,"name":"7-Eleven","decorType":"convenience"},{"id":"node-11832695078","lat":24.9073415,"lon":121.173857,"name":"7-Eleven","decorType":"convenience"},{"id":"node-11832695079","lat":24.9071726,"lon":121.1729383,"name":"萊爾富","decorType":"convenience"},{"id":"node-11832695080","lat":24.9082097,"lon":121.1694156,"name":"7-Eleven","decorType":"convenience"},{"id":"node-11832695081","lat":24.9100158,"lon":121.1747873,"name":"萊爾富","decorType":"convenience"},{"id":"node-11846275379","lat":24.9085117,"lon":121.1583975,"name":"全家便利商店","decorType":"convenience"},{"id":"node-11846275380","lat":24.9127684,"lon":121.1525663,"name":"全家便利商店","decorType":"convenience"},{"id":"node-11849327111","lat":24.893954,"lon":121.1369671,"name":"OK超商","decorType":"convenience"},{"id":"node-11854114029","lat":24.9108098,"lon":121.1564353,"name":"楊明國中","decorType":"bus_stop"},{"id":"node-11854114030","lat":24.9128785,"lon":121.1497357,"name":"楊新北路","decorType":"bus_stop"},{"id":"node-11913217281","lat":24.9608336,"lon":121.1639654,"name":"花好月圓","decorType":"cafe"},{"id":"node-11913217282","lat":24.9608642,"lon":121.1639948,"name":"哭鼻子酸辣粉","decorType":"restaurant"},{"id":"node-11913217283","lat":24.9612242,"lon":121.1655557,"name":"鬼匠拉麵","decorType":"restaurant"},{"id":"node-11913217284","lat":24.961629,"lon":121.1656923,"name":"水巷茶弄","decorType":"cafe"},{"id":"node-11913217285","lat":24.9615301,"lon":121.1652326,"name":"我家小館","decorType":"restaurant"},{"id":"node-11913217286","lat":24.9614988,"lon":121.1652652,"name":"朱記簡餐","decorType":"restaurant"},{"id":"node-11913217287","lat":24.961987,"lon":121.1647859,"name":"里歐歐式早餐","decorType":"restaurant"},{"id":"node-11913217288","lat":24.9620323,"lon":121.1648395,"name":"老兵手作包子","decorType":"restaurant"},{"id":"node-11913217289","lat":24.9623767,"lon":121.1657651,"name":"早安山丘","decorType":"restaurant"},{"id":"node-11913217290","lat":24.9608303,"lon":121.1687407,"name":"晨間廚房","decorType":"restaurant"},{"id":"node-11913217291","lat":24.9605601,"lon":121.169323,"name":"食聚餐食館","decorType":"restaurant"},{"id":"node-11913217292","lat":24.9608324,"lon":121.1674561,"name":"米島小火鍋","decorType":"restaurant"},{"id":"node-11913217293","lat":24.9600173,"lon":121.1668171,"name":"CHILDHOOD 夕奈狸","decorType":"restaurant"},{"id":"node-11913217294","lat":24.9589559,"lon":121.1672267,"name":"吉祥小吃","decorType":"restaurant"},{"id":"node-11913217295","lat":24.9596309,"lon":121.1655655,"name":"拉亞漢堡","decorType":"burger"},{"id":"node-11913217296","lat":24.9606453,"lon":121.1645079,"name":"吉安香滷味","decorType":"restaurant"},{"id":"node-11913217297","lat":24.9606844,"lon":121.1645502,"name":"越南麵包","decorType":"restaurant"},{"id":"node-11913217298","lat":24.9604007,"lon":121.1642127,"name":"芋伯伯","decorType":"restaurant"},{"id":"node-11913217299","lat":24.9602202,"lon":121.1640373,"name":"薏難忘","decorType":"restaurant"},{"id":"node-11974201977","lat":24.9581506,"lon":121.1663379,"name":"迷客夏","decorType":"cafe"},{"id":"node-11998943576","lat":24.896205,"lon":121.0621536,"name":"湖口鄉農會農民直銷站","decorType":"supermarket"},{"id":"node-12029590141","lat":24.963331,"lon":121.1465055,"name":"熊讚複合式餐飲","decorType":"restaurant"},{"id":"node-12029590142","lat":24.9620374,"lon":121.1602913,"name":"晨欣鐵板吐司","decorType":"restaurant"},{"id":"node-12029590143","lat":24.9620377,"lon":121.1602396,"name":"Boujee 佐-烤肉飯","decorType":"restaurant"},{"id":"node-12029590144","lat":24.9648257,"lon":121.1517609,"name":"全佳麵食小館","decorType":"restaurant"},{"id":"node-12029590145","lat":24.9608731,"lon":121.1601258,"name":"Bu Gu咘咕早午餐","decorType":"restaurant"},{"id":"node-12029590146","lat":24.9645206,"lon":121.1520609,"name":"飄香大滷麵","decorType":"restaurant"},{"id":"node-12029590147","lat":24.9633197,"lon":121.1539,"name":"賓賓早餐店","decorType":"restaurant"},{"id":"node-12029590148","lat":24.9649324,"lon":121.1423167,"name":"50年古早味傳統老店","decorType":"restaurant"},{"id":"node-12029590149","lat":24.9647511,"lon":121.1507725,"name":"chill咪咪早午餐","decorType":"restaurant"},{"id":"node-12029590152","lat":24.9649448,"lon":121.1509603,"name":"CoCo都可","decorType":"cafe"},{"id":"node-12029590153","lat":24.9625849,"lon":121.1563089,"name":"嗎哪LuLu食堂","decorType":"restaurant"},{"id":"node-12029590155","lat":24.9648253,"lon":121.1505855,"name":"蝦皮店到店","decorType":"convenience"},{"id":"node-12029590156","lat":24.9648578,"lon":121.1523086,"name":"胡記鹽酥雞","decorType":"burger"},{"id":"node-12029590157","lat":24.9648298,"lon":121.1523483,"name":"清心福全","decorType":"cafe"},{"id":"node-12029590158","lat":24.9627147,"lon":121.1472057,"name":"拉亞漢堡","decorType":"burger"},{"id":"node-12029590160","lat":24.9631925,"lon":121.1470287,"name":"享食堂","decorType":"restaurant"},{"id":"node-12029590161","lat":24.9639424,"lon":121.1529657,"name":"豐米便當","decorType":"restaurant"},{"id":"node-12029590162","lat":24.9646473,"lon":121.1526119,"name":"I-vita pasta","decorType":"restaurant"},{"id":"node-12029590163","lat":24.964061,"lon":121.1505247,"name":"立鼎當歸鴨肉麵","decorType":"restaurant"},{"id":"node-12064672868","lat":24.9163398,"lon":121.1461048,"name":"澎湃豆花","decorType":"restaurant"},{"id":"node-12116723236","lat":24.9127847,"lon":121.1684288,"name":"東北刀削麵食館","decorType":"restaurant"},{"id":"node-12139025643","lat":24.936369,"lon":121.0826439,"name":"富富•小山岡","decorType":"art_gallery"},{"id":"node-12500443669","lat":24.8972747,"lon":121.0518836,"name":"福德祠","decorType":"shrine"},{"id":"node-12500443780","lat":24.9358915,"lon":121.0561326,"name":"福德祠","decorType":"shrine"},{"id":"node-12500443781","lat":24.9371108,"lon":121.0586653,"name":"福德祠","decorType":"shrine"},{"id":"node-12500444050","lat":24.8758536,"lon":121.0529914,"name":"樟樹福德祠","decorType":"shrine"},{"id":"node-1263487518","lat":24.9143522,"lon":121.1465072,"name":"楊梅","decorType":"station"},{"id":"node-12754158628","lat":24.9363047,"lon":121.081778,"name":"大井頭","decorType":"bus_stop"},{"id":"node-12754158629","lat":24.9363667,"lon":121.0818674,"name":"大井頭","decorType":"bus_stop"},{"id":"node-12819106253","lat":24.898198,"lon":121.1363006,"name":"琪隆廠","decorType":"bus_stop"},{"id":"node-12819106254","lat":24.8983547,"lon":121.1361463,"name":"琪隆廠","decorType":"bus_stop"},{"id":"node-12819106255","lat":24.8981843,"lon":121.133881,"name":"強勝廠","decorType":"bus_stop"},{"id":"node-12819106256","lat":24.8981098,"lon":121.1339651,"name":"強勝廠","decorType":"bus_stop"},{"id":"node-12819106257","lat":24.8963515,"lon":121.1306495,"name":"里辦公處","decorType":"bus_stop"},{"id":"node-12819106258","lat":24.8964401,"lon":121.1305928,"name":"里辦公處","decorType":"bus_stop"},{"id":"node-12819106259","lat":24.8944089,"lon":121.1275017,"name":"彭厝","decorType":"bus_stop"},{"id":"node-12819106260","lat":24.8944595,"lon":121.1274593,"name":"彭厝","decorType":"bus_stop"},{"id":"node-12819106261","lat":24.8931726,"lon":121.1253656,"name":"潤泰工廠","decorType":"bus_stop"},{"id":"node-12819106262","lat":24.8932387,"lon":121.1252722,"name":"潤泰工廠","decorType":"bus_stop"},{"id":"node-12819106263","lat":24.8919197,"lon":121.1242739,"name":"廣宇","decorType":"bus_stop"},{"id":"node-12819106264","lat":24.8918225,"lon":121.1243355,"name":"廣宇","decorType":"bus_stop"},{"id":"node-12819106265","lat":24.8915816,"lon":121.1209786,"name":"東流里","decorType":"bus_stop"},{"id":"node-12819106266","lat":24.891493,"lon":121.1212745,"name":"東流里","decorType":"bus_stop"},{"id":"node-12819106267","lat":24.8915386,"lon":121.1168112,"name":"梅園","decorType":"bus_stop"},{"id":"node-12819106268","lat":24.8914208,"lon":121.1168712,"name":"梅園","decorType":"bus_stop"},{"id":"node-12819106273","lat":24.9371229,"lon":121.1237225,"name":"營盤下","decorType":"bus_stop"},{"id":"node-12819106274","lat":24.9369701,"lon":121.1236291,"name":"營盤下","decorType":"bus_stop"},{"id":"node-12819106275","lat":24.9694133,"lon":121.1078116,"name":"未命名公車站","decorType":"bus_stop"},{"id":"node-12819106276","lat":24.9705517,"lon":121.1016435,"name":"新屋高中","decorType":"bus_stop"},{"id":"node-12819106277","lat":24.9704433,"lon":121.1013675,"name":"新屋高中","decorType":"bus_stop"},{"id":"node-12819106278","lat":24.9693096,"lon":121.107864,"name":"未命名公車站","decorType":"bus_stop"},{"id":"node-12819106279","lat":24.9726871,"lon":121.1054563,"name":"新屋區公所","decorType":"bus_stop"},{"id":"node-12819106280","lat":24.9727709,"lon":121.1053608,"name":"新屋區公所","decorType":"bus_stop"},{"id":"node-12819106285","lat":24.9461955,"lon":121.119763,"name":"御花園","decorType":"bus_stop"},{"id":"node-12822752458","lat":24.9163208,"lon":121.1751632,"name":"怡聯貨櫃場","decorType":"bus_stop"},{"id":"node-12822752459","lat":24.9167173,"lon":121.176312,"name":"怡聯貨櫃場","decorType":"bus_stop"},{"id":"node-12822752461","lat":24.9224613,"lon":121.181071,"name":"銘德","decorType":"bus_stop"},{"id":"node-12822752462","lat":24.922336,"lon":121.1811971,"name":"銘德","decorType":"bus_stop"},{"id":"node-12822752463","lat":24.9231361,"lon":121.1777489,"name":"純青湖","decorType":"bus_stop"},{"id":"node-12822752464","lat":24.9232352,"lon":121.1774229,"name":"純青湖","decorType":"bus_stop"},{"id":"node-12822752465","lat":24.9257668,"lon":121.1757282,"name":"埔心牧場","decorType":"bus_stop"},{"id":"node-12822752466","lat":24.9254806,"lon":121.1758057,"name":"埔心牧場","decorType":"bus_stop"},{"id":"node-12822752467","lat":24.9257668,"lon":121.1748829,"name":"幼獅工業區","decorType":"bus_stop"},{"id":"node-12822752468","lat":24.9256432,"lon":121.1749595,"name":"幼獅工業區","decorType":"bus_stop"},{"id":"node-12822752469","lat":24.922631,"lon":121.1770999,"name":"真鑚社區","decorType":"bus_stop"},{"id":"node-12822752470","lat":24.9213384,"lon":121.1716242,"name":"比佛利山莊","decorType":"bus_stop"},{"id":"node-12822752471","lat":24.9212479,"lon":121.1716698,"name":"比佛利山莊","decorType":"bus_stop"},{"id":"node-12822752472","lat":24.9225402,"lon":121.1771379,"name":"真鑚社區","decorType":"bus_stop"},{"id":"node-12822752473","lat":24.923021,"lon":121.1736827,"name":"獅一路","decorType":"bus_stop"},{"id":"node-12822752474","lat":24.9230775,"lon":121.1735892,"name":"獅一路","decorType":"bus_stop"},{"id":"node-12822752475","lat":24.9236367,"lon":121.1722057,"name":"青年路口","decorType":"bus_stop"},{"id":"node-12822752476","lat":24.9239317,"lon":121.1723771,"name":"青年路口","decorType":"bus_stop"},{"id":"node-12822752477","lat":24.9258408,"lon":121.1703623,"name":"青年路","decorType":"bus_stop"},{"id":"node-12822752478","lat":24.9281762,"lon":121.1690014,"name":"圓環","decorType":"bus_stop"},{"id":"node-12822752486","lat":24.9304808,"lon":121.1668203,"name":"世紀社區","decorType":"bus_stop"},{"id":"node-12822752487","lat":24.9330663,"lon":121.1632506,"name":"裕民社區","decorType":"bus_stop"},{"id":"node-12822752488","lat":24.9351155,"lon":121.1611061,"name":"幼獅路口","decorType":"bus_stop"},{"id":"node-12822752499","lat":24.935885,"lon":121.1624038,"name":"南高山","decorType":"bus_stop"},{"id":"node-12822752500","lat":24.9359554,"lon":121.1623138,"name":"南高山","decorType":"bus_stop"},{"id":"node-12822755601","lat":24.9372498,"lon":121.1655494,"name":"高榮","decorType":"bus_stop"},{"id":"node-12822755602","lat":24.9350703,"lon":121.1694906,"name":"伯公下","decorType":"bus_stop"},{"id":"node-12822755603","lat":24.9323005,"lon":121.1713142,"name":"電台","decorType":"bus_stop"},{"id":"node-12822755604","lat":24.9307166,"lon":121.1724176,"name":"職訓中心","decorType":"bus_stop"},{"id":"node-12822755605","lat":24.9294873,"lon":121.1719898,"name":"單身宿舍","decorType":"bus_stop"},{"id":"node-12822755606","lat":24.9269759,"lon":121.169647,"name":"青年路","decorType":"bus_stop"},{"id":"node-12852064223","lat":25.0125658,"lon":121.1367471,"name":"新坡站","decorType":"bus_stop"},{"id":"node-12870733035","lat":24.972717,"lon":121.1023542,"name":"新屋站","decorType":"bus_stop"},{"id":"node-12875653619","lat":25.0378345,"lon":121.0808517,"name":"觀音站","decorType":"bus_stop"},{"id":"node-12875653620","lat":25.0378934,"lon":121.0809322,"name":"觀音站","decorType":"bus_stop"},{"id":"node-12909608802","lat":24.9771691,"lon":121.091658,"name":"建業鵝肉美食館","decorType":"restaurant"},{"id":"node-12990446860","lat":24.9886873,"lon":121.1808896,"name":"第一香 焿の專賣店","decorType":"restaurant"},{"id":"node-12990446861","lat":24.9888021,"lon":121.1806756,"name":"八方雲集","decorType":"burger"},{"id":"node-12990446862","lat":24.9889798,"lon":121.1805657,"name":"富市多","decorType":"supermarket"},{"id":"node-12990446863","lat":24.9890127,"lon":121.1803039,"name":"微笑香腸","decorType":"restaurant"},{"id":"node-12990446864","lat":24.989041,"lon":121.1802171,"name":"Tea's原味","decorType":"cafe"},{"id":"node-12990446865","lat":24.9890969,"lon":121.1801112,"name":"現煮飯麵","decorType":"restaurant"},{"id":"node-12990446866","lat":24.9892002,"lon":121.179786,"name":"張記麻辣滷味","decorType":"restaurant"},{"id":"node-12990446867","lat":24.9894739,"lon":121.1784249,"name":"上林美好美","decorType":"restaurant"},{"id":"node-12990446868","lat":24.9893432,"lon":121.1787442,"name":"麥味登","decorType":"restaurant"},{"id":"node-12990446869","lat":24.9892459,"lon":121.1789596,"name":"首搖茶 SHOW YOU TEA","decorType":"cafe"},{"id":"node-12990446870","lat":24.9892308,"lon":121.1790131,"name":"大崙精緻自助餐","decorType":"restaurant"},{"id":"node-12990446872","lat":24.9891564,"lon":121.1790878,"name":"炸雞王","decorType":"restaurant"},{"id":"node-12990446873","lat":24.9889128,"lon":121.1795953,"name":"李氏珍食堂","decorType":"restaurant"},{"id":"node-12990446874","lat":24.9888413,"lon":121.1797578,"name":"大崙大藥局","decorType":"pharmacy"},{"id":"node-12990446875","lat":24.9882699,"lon":121.1809098,"name":"文鼎漢堡","decorType":"restaurant"},{"id":"node-13026651405","lat":24.9131583,"lon":121.1463757,"name":"國鼎鵝肉","decorType":"restaurant"},{"id":"node-13046982308","lat":24.9587755,"lon":121.172631,"name":"肯德基","decorType":"burger"},{"id":"node-13058943170","lat":24.9262555,"lon":121.1745075,"name":"楊梅幼工郵局","decorType":"post_office"},{"id":"node-13058943171","lat":24.9563924,"lon":121.1674517,"name":"楊梅高榮郵局","decorType":"post_office"},{"id":"node-13058943172","lat":24.9010642,"lon":121.1408829,"name":"楊梅秀才郵局","decorType":"post_office"},{"id":"node-13058943182","lat":25.0531053,"lon":121.1177379,"name":"觀音工業區郵局","decorType":"post_office"},{"id":"node-13058943183","lat":25.0480158,"lon":121.1433357,"name":"觀音草漯郵局","decorType":"post_office"},{"id":"node-13058943187","lat":24.9886242,"lon":121.1803952,"name":"中壢大崙郵局","decorType":"post_office"},{"id":"node-13061055243","lat":24.9016089,"lon":121.0511229,"name":"亞洲製刀廠","decorType":"bus_stop"},{"id":"node-13061055244","lat":24.9017092,"lon":121.0511424,"name":"亞洲製刀廠","decorType":"bus_stop"},{"id":"node-13061055251","lat":24.899057,"lon":121.0570086,"name":"信昌街口","decorType":"bus_stop"},{"id":"node-13061055252","lat":24.8988916,"lon":121.0569528,"name":"信昌街口","decorType":"bus_stop"},{"id":"node-13061055253","lat":24.8973766,"lon":121.0627053,"name":"湖口好客文創園區","decorType":"bus_stop"},{"id":"node-13061055254","lat":24.8974793,"lon":121.062752,"name":"湖口好客文創園區","decorType":"bus_stop"},{"id":"node-13061055255","lat":24.8951176,"lon":121.0681403,"name":"中平路二段路口","decorType":"bus_stop"},{"id":"node-13061055256","lat":24.8951943,"lon":121.0682542,"name":"中平路二段路口","decorType":"bus_stop"},{"id":"node-13061055257","lat":24.8912986,"lon":121.0732138,"name":"長嶺村集會所","decorType":"bus_stop"},{"id":"node-13061055258","lat":24.8913936,"lon":121.0732877,"name":"長嶺村集會所","decorType":"bus_stop"},{"id":"node-13061055259","lat":24.8910118,"lon":121.0782774,"name":"大伯公","decorType":"bus_stop"},{"id":"node-13061055260","lat":24.8911043,"lon":121.078287,"name":"大伯公","decorType":"bus_stop"},{"id":"node-13061055261","lat":24.888213,"lon":121.0885126,"name":"長安","decorType":"bus_stop"},{"id":"node-13061055262","lat":24.8870199,"lon":121.0910456,"name":"長安路103巷","decorType":"bus_stop"},{"id":"node-13061055263","lat":24.8869868,"lon":121.0911539,"name":"長安路103巷","decorType":"bus_stop"},{"id":"node-13061055264","lat":24.8857286,"lon":121.0930832,"name":"長安小城","decorType":"bus_stop"},{"id":"node-13061055265","lat":24.8857795,"lon":121.0932084,"name":"長安小城","decorType":"bus_stop"},{"id":"node-13061055266","lat":24.8825887,"lon":121.0992838,"name":"長安社區活動中心","decorType":"bus_stop"},{"id":"node-13061055267","lat":24.8826768,"lon":121.0992838,"name":"長安社區活動中心","decorType":"bus_stop"},{"id":"node-13061055271","lat":24.8810923,"lon":121.1041942,"name":"北窩路口","decorType":"bus_stop"},{"id":"node-13061055272","lat":24.8924061,"lon":121.0547694,"name":"綠園","decorType":"bus_stop"},{"id":"node-13061055273","lat":24.8925332,"lon":121.0548198,"name":"綠園","decorType":"bus_stop"},{"id":"node-13061055274","lat":24.8906532,"lon":121.059847,"name":"六和金屬","decorType":"bus_stop"},{"id":"node-13061055275","lat":24.8907284,"lon":121.0599494,"name":"六和金屬","decorType":"bus_stop"},{"id":"node-13061055297","lat":24.8883051,"lon":121.0643247,"name":"長富路口","decorType":"bus_stop"},{"id":"node-13061055298","lat":24.8883783,"lon":121.0644252,"name":"長富路口","decorType":"bus_stop"},{"id":"node-13061055299","lat":24.8865395,"lon":121.0685418,"name":"全家花園","decorType":"bus_stop"},{"id":"node-13061055300","lat":24.8866369,"lon":121.0686003,"name":"全家花園","decorType":"bus_stop"},{"id":"node-13125207036","lat":24.9009096,"lon":121.1406992,"name":"全家便利商店","decorType":"convenience"},{"id":"node-13300743254","lat":24.9925953,"lon":121.101143,"name":"萊爾富","decorType":"convenience"},{"id":"node-13300743256","lat":25.0566629,"lon":121.1017239,"name":"萊爾富","decorType":"convenience"},{"id":"node-13304782544","lat":24.977422,"lon":121.1063608,"name":"萊爾富","decorType":"convenience"},{"id":"node-13304782545","lat":24.9621919,"lon":121.1585361,"name":"萊爾富","decorType":"convenience"},{"id":"node-13304782546","lat":24.9604072,"lon":121.1669576,"name":"萊爾富","decorType":"convenience"},{"id":"node-13304782547","lat":24.9639028,"lon":121.1537049,"name":"萊爾富","decorType":"convenience"},{"id":"node-13304782559","lat":24.9196362,"lon":121.053002,"name":"萊爾富","decorType":"convenience"},{"id":"node-13304782561","lat":24.905466,"lon":121.055893,"name":"萊爾富","decorType":"convenience"},{"id":"node-13304782562","lat":24.8946776,"lon":121.0685612,"name":"萊爾富","decorType":"convenience"},{"id":"node-13306410897","lat":25.0065313,"lon":121.1312943,"name":"萊爾富","decorType":"convenience"},{"id":"node-13306410898","lat":25.0130725,"lon":121.1329556,"name":"萊爾富","decorType":"convenience"},{"id":"node-13306410899","lat":25.0511725,"lon":121.1213923,"name":"萊爾富","decorType":"convenience"},{"id":"node-13306410900","lat":24.9678596,"lon":121.1475306,"name":"萊爾富","decorType":"convenience"},{"id":"node-13306482101","lat":25.0524452,"lon":121.1243547,"name":"萊爾富","decorType":"convenience"},{"id":"node-13306482102","lat":25.0499103,"lon":121.1198953,"name":"萊爾富","decorType":"convenience"},{"id":"node-13306482103","lat":25.0771931,"lon":121.1807844,"name":"萊爾富","decorType":"convenience"},{"id":"node-13308370982","lat":24.9124991,"lon":121.0835669,"name":"萊爾富","decorType":"convenience"},{"id":"node-13308370983","lat":24.9123947,"lon":121.0875065,"name":"萊爾富","decorType":"convenience"},{"id":"node-13308370984","lat":24.8936402,"lon":121.1567937,"name":"萊爾富","decorType":"convenience"},{"id":"node-13308370985","lat":24.9125644,"lon":121.1599897,"name":"萊爾富","decorType":"convenience"},{"id":"node-13308370986","lat":24.9417089,"lon":121.076271,"name":"萊爾富","decorType":"convenience"},{"id":"node-13413753093","lat":25.0368081,"lon":121.0803626,"name":"萊爾富","decorType":"convenience"},{"id":"node-13430408087","lat":24.9620996,"lon":121.1594664,"name":"7-Eleven","decorType":"convenience"},{"id":"node-1399402309","lat":24.9567993,"lon":121.1673698,"name":"全家便利商店","decorType":"convenience"},{"id":"node-1399402326","lat":24.9578094,"lon":121.1670349,"name":"7-Eleven","decorType":"convenience"},{"id":"node-1404222410","lat":24.9570159,"lon":121.1610982,"name":"全家便利商店","decorType":"convenience"},{"id":"node-1404222412","lat":24.9574545,"lon":121.163908,"name":"萊爾富","decorType":"convenience"},{"id":"node-1439005290","lat":24.936833,"lon":121.1672192,"name":"7-Eleven","decorType":"convenience"},{"id":"node-1452530821","lat":24.9246274,"lon":121.1449699,"name":"7-Eleven","decorType":"convenience"},{"id":"node-2016804222","lat":24.9224913,"lon":121.0559002,"name":"北湖","decorType":"station"},{"id":"node-2387066709","lat":24.9340905,"lon":121.0828217,"name":"富岡","decorType":"station"},{"id":"node-2482635522","lat":24.9538624,"lon":121.1644745,"name":"大古庄","decorType":"mountain"},{"id":"node-2482635568","lat":24.9468622,"lon":121.1494723,"name":"東勢庄","decorType":"mountain"},{"id":"node-2482635641","lat":24.8626581,"lon":121.111325,"name":"照鏡山","decorType":"mountain"},{"id":"node-2482635706","lat":24.8579451,"lon":121.1747491,"name":"小北坑尾山","decorType":"mountain"},{"id":"node-2482635740","lat":24.8675161,"lon":121.150743,"name":"北打鐵坑山","decorType":"mountain"},{"id":"node-2482635994","lat":24.8770141,"lon":121.098767,"name":"羊喜窩山","decorType":"mountain"},{"id":"node-2656099274","lat":24.9364963,"lon":121.0814343,"name":"全家便利商店","decorType":"convenience"},{"id":"node-2656099275","lat":24.9362818,"lon":121.0818397,"name":"7-Eleven","decorType":"convenience"},{"id":"node-2656099276","lat":24.9350832,"lon":121.0816449,"name":"楊梅富岡郵局","decorType":"post_office"},{"id":"node-2656099277","lat":24.9352793,"lon":121.0816138,"name":"未命名郵局","decorType":"post_office"},{"id":"node-3071192734","lat":24.9619336,"lon":121.1617366,"name":"7-Eleven","decorType":"convenience"},{"id":"node-3138028210","lat":24.9711753,"lon":121.1083023,"name":"新屋站","decorType":"station"},{"id":"node-3204221679","lat":24.9305392,"lon":121.0733605,"name":"7-Eleven","decorType":"convenience"},{"id":"node-3204221692","lat":24.936402,"lon":121.0816285,"name":"良興機械五金行","decorType":"hardware"},{"id":"node-3207807459","lat":25.0378916,"lon":121.080854,"name":"桃園客運觀音站","decorType":"station"},{"id":"node-3208534911","lat":24.9190539,"lon":121.054373,"name":"7-Eleven","decorType":"convenience"},{"id":"node-3208534912","lat":24.919339,"lon":121.0545413,"name":"OK超商","decorType":"convenience"},{"id":"node-3215397624","lat":25.0583929,"lon":121.1130515,"name":"國建二路","decorType":"bus_stop"},{"id":"node-3215397625","lat":25.059739,"lon":121.1111257,"name":"國瑞路","decorType":"bus_stop"},{"id":"node-3215397626","lat":25.0538638,"lon":121.1170855,"name":"經建一路","decorType":"bus_stop"},{"id":"node-3215397627","lat":25.0538321,"lon":121.1169396,"name":"經建一路","decorType":"bus_stop"},{"id":"node-3215397628","lat":25.0524601,"lon":121.1178065,"name":"工管中心","decorType":"bus_stop"},{"id":"node-3215397629","lat":25.0524261,"lon":121.1176858,"name":"工管中心","decorType":"bus_stop"},{"id":"node-3215433961","lat":25.059793,"lon":121.1139036,"name":"台玻公司","decorType":"bus_stop"},{"id":"node-3215433962","lat":25.0599158,"lon":121.1140577,"name":"台玻公司","decorType":"bus_stop"},{"id":"node-3215441915","lat":25.056441,"lon":121.1200958,"name":"歌林二廠","decorType":"bus_stop"},{"id":"node-3215441916","lat":25.0564079,"lon":121.1199779,"name":"歌林二廠","decorType":"bus_stop"},{"id":"node-3215441917","lat":25.0590544,"lon":121.1187992,"name":"名億公司","decorType":"bus_stop"},{"id":"node-3215441918","lat":25.0590077,"lon":121.1186463,"name":"名億公司","decorType":"bus_stop"},{"id":"node-3215441919","lat":25.0598289,"lon":121.118657,"name":"基富","decorType":"bus_stop"},{"id":"node-3215441920","lat":25.0599188,"lon":121.1186275,"name":"基富","decorType":"bus_stop"},{"id":"node-3215442082","lat":25.0521216,"lon":121.1183964,"name":"樺詰","decorType":"bus_stop"},{"id":"node-3215442083","lat":25.05233,"lon":121.1190228,"name":"樺詰","decorType":"bus_stop"},{"id":"node-3215442084","lat":25.0539177,"lon":121.1208934,"name":"日豐","decorType":"bus_stop"},{"id":"node-3215442085","lat":25.0537862,"lon":121.1210562,"name":"日豐","decorType":"bus_stop"},{"id":"node-3215449293","lat":25.0128189,"lon":121.1363534,"name":"新坡","decorType":"bus_stop"},{"id":"node-3215449294","lat":25.0123889,"lon":121.136776,"name":"新坡","decorType":"bus_stop"},{"id":"node-3215452215","lat":25.0179594,"lon":121.1376414,"name":"坡內","decorType":"bus_stop"},{"id":"node-3215452216","lat":25.0179226,"lon":121.1378447,"name":"坡內","decorType":"bus_stop"},{"id":"node-3215452217","lat":25.0207686,"lon":121.139742,"name":"未命名公車站","decorType":"bus_stop"},{"id":"node-3215452218","lat":25.0206669,"lon":121.1398477,"name":"幸福新村","decorType":"bus_stop"},{"id":"node-3215452219","lat":25.0230383,"lon":121.1411201,"name":"楊厝","decorType":"bus_stop"},{"id":"node-3215452220","lat":25.0228487,"lon":121.1411845,"name":"楊厝","decorType":"bus_stop"},{"id":"node-3215456381","lat":25.024743,"lon":121.1422366,"name":"廣福","decorType":"bus_stop"},{"id":"node-3215456382","lat":25.0243083,"lon":121.142139,"name":"廣福","decorType":"bus_stop"},{"id":"node-3215456384","lat":25.0284931,"lon":121.1435782,"name":"福安橋","decorType":"bus_stop"},{"id":"node-3215456385","lat":25.0284415,"lon":121.1437408,"name":"福安橋","decorType":"bus_stop"},{"id":"node-3215456386","lat":25.032663,"lon":121.1438546,"name":"邱厝","decorType":"bus_stop"},{"id":"node-3215456387","lat":25.0327293,"lon":121.143692,"name":"邱厝","decorType":"bus_stop"},{"id":"node-3215456389","lat":25.0368843,"lon":121.1437977,"name":"塔仔腳","decorType":"bus_stop"},{"id":"node-3215456390","lat":25.0369225,"lon":121.1439834,"name":"塔仔腳","decorType":"bus_stop"},{"id":"node-3215456391","lat":25.0389846,"lon":121.1438087,"name":"二聖路口","decorType":"bus_stop"},{"id":"node-3215456392","lat":25.0390057,"lon":121.1439955,"name":"二聖路口","decorType":"bus_stop"},{"id":"node-3215459162","lat":25.0412101,"lon":121.1438414,"name":"坡腳","decorType":"bus_stop"},{"id":"node-3215459163","lat":25.0412693,"lon":121.1439909,"name":"坡腳","decorType":"bus_stop"},{"id":"node-3215459164","lat":25.0431945,"lon":121.1433791,"name":"許厝","decorType":"bus_stop"},{"id":"node-3215459165","lat":25.0433129,"lon":121.1435145,"name":"許厝","decorType":"bus_stop"},{"id":"node-3215459166","lat":25.0455482,"lon":121.1428358,"name":"草漯國小","decorType":"bus_stop"},{"id":"node-3215459167","lat":25.0455321,"lon":121.1429951,"name":"草漯國小","decorType":"bus_stop"},{"id":"node-3215459168","lat":25.0468211,"lon":121.1426801,"name":"草新","decorType":"bus_stop"},{"id":"node-3215459169","lat":25.0468339,"lon":121.1425208,"name":"草新","decorType":"bus_stop"},{"id":"node-3215463684","lat":25.047751,"lon":121.1433879,"name":"草漯","decorType":"bus_stop"},{"id":"node-3215463685","lat":25.0477638,"lon":121.1431154,"name":"草漯","decorType":"bus_stop"},{"id":"node-3215463686","lat":25.0486071,"lon":121.1440805,"name":"保障宮","decorType":"bus_stop"},{"id":"node-3215463687","lat":25.0487097,"lon":121.1445417,"name":"保障宮","decorType":"bus_stop"},{"id":"node-3215463688","lat":25.0494407,"lon":121.1451363,"name":"福德宮","decorType":"bus_stop"},{"id":"node-3215463689","lat":25.0494588,"lon":121.1455225,"name":"福德宮","decorType":"bus_stop"},{"id":"node-3215463690","lat":25.0532053,"lon":121.1471878,"name":"保障","decorType":"bus_stop"},{"id":"node-3215463691","lat":25.0531031,"lon":121.1468701,"name":"保障","decorType":"bus_stop"},{"id":"node-3215463692","lat":25.0549576,"lon":121.1419176,"name":"苗圃","decorType":"bus_stop"},{"id":"node-3215463693","lat":25.0547244,"lon":121.1418318,"name":"苗圃","decorType":"bus_stop"},{"id":"node-3215463694","lat":25.0553848,"lon":121.1382891,"name":"二湖","decorType":"bus_stop"},{"id":"node-3215463695","lat":25.0553185,"lon":121.1380574,"name":"二湖","decorType":"bus_stop"},{"id":"node-3215463696","lat":25.0627059,"lon":121.1328057,"name":"新村路口","decorType":"bus_stop"},{"id":"node-3215463697","lat":25.0625881,"lon":121.1325618,"name":"新村路口","decorType":"bus_stop"},{"id":"node-3215463698","lat":25.0626397,"lon":121.12979,"name":"工業一路口","decorType":"bus_stop"},{"id":"node-3215463699","lat":25.0624916,"lon":121.1294865,"name":"工業一路口","decorType":"bus_stop"},{"id":"node-3215465856","lat":25.0613706,"lon":121.1278006,"name":"樹林新村","decorType":"bus_stop"},{"id":"node-3215465857","lat":25.0613071,"lon":121.1279267,"name":"樹林新村","decorType":"bus_stop"},{"id":"node-3215465858","lat":25.0637903,"lon":121.1259139,"name":"卜內門","decorType":"bus_stop"},{"id":"node-3215465859","lat":25.0637226,"lon":121.1260026,"name":"卜內門","decorType":"bus_stop"},{"id":"node-3215467107","lat":25.0625424,"lon":121.1243197,"name":"日本礦業","decorType":"bus_stop"},{"id":"node-3215467740","lat":25.0624246,"lon":121.124458,"name":"日本礦業","decorType":"bus_stop"},{"id":"node-3215476586","lat":25.0015694,"lon":121.1550281,"name":"陳厝","decorType":"bus_stop"},{"id":"node-3215476587","lat":25.0014577,"lon":121.1548802,"name":"陳厝","decorType":"bus_stop"},{"id":"node-3215476588","lat":24.999168,"lon":121.158485,"name":"圓山","decorType":"bus_stop"},{"id":"node-3215476589","lat":24.9993026,"lon":121.1586093,"name":"圓山","decorType":"bus_stop"},{"id":"node-3215488241","lat":25.0393387,"lon":121.0829752,"name":"歐厝","decorType":"bus_stop"},{"id":"node-3215488242","lat":25.0392361,"lon":121.0830531,"name":"歐厝","decorType":"bus_stop"},{"id":"node-3215488243","lat":25.0409503,"lon":121.0877937,"name":"徐厝","decorType":"bus_stop"},{"id":"node-3215488244","lat":25.0409724,"lon":121.0879564,"name":"徐厝","decorType":"bus_stop"},{"id":"node-3215488245","lat":25.0444199,"lon":121.0895256,"name":"麥厝","decorType":"bus_stop"},{"id":"node-3215488246","lat":25.044361,"lon":121.0896801,"name":"麥厝","decorType":"bus_stop"},{"id":"node-3215488247","lat":25.0474475,"lon":121.0924121,"name":"江厝","decorType":"bus_stop"},{"id":"node-3215488248","lat":25.0473812,"lon":121.0925585,"name":"江厝","decorType":"bus_stop"},{"id":"node-3215488249","lat":25.0494364,"lon":121.093648,"name":"塔前","decorType":"bus_stop"},{"id":"node-3215488250","lat":25.0493553,"lon":121.0938269,"name":"塔前","decorType":"bus_stop"},{"id":"node-3215488251","lat":25.05116,"lon":121.0951929,"name":"白玉","decorType":"bus_stop"},{"id":"node-3215488252","lat":25.0511306,"lon":121.0953799,"name":"白玉","decorType":"bus_stop"},{"id":"node-3215488253","lat":25.0544629,"lon":121.0990807,"name":"白玉橋","decorType":"bus_stop"},{"id":"node-3215488254","lat":25.0543903,"lon":121.09917,"name":"白玉橋","decorType":"bus_stop"},{"id":"node-3215498010","lat":25.056359,"lon":121.1016436,"name":"林務局","decorType":"bus_stop"},{"id":"node-3215498011","lat":25.0563134,"lon":121.101722,"name":"林務局","decorType":"bus_stop"},{"id":"node-3215498012","lat":25.0577865,"lon":121.1026326,"name":"胡厝","decorType":"bus_stop"},{"id":"node-3215498013","lat":25.0577865,"lon":121.1027871,"name":"胡厝","decorType":"bus_stop"},{"id":"node-3215498014","lat":25.0606002,"lon":121.1050638,"name":"移民新村","decorType":"bus_stop"},{"id":"node-3215498015","lat":25.0604849,"lon":121.1057185,"name":"移民新村","decorType":"bus_stop"},{"id":"node-3215498016","lat":25.0637667,"lon":121.1104016,"name":"樹林仔","decorType":"bus_stop"},{"id":"node-3215498017","lat":25.0638153,"lon":121.1106269,"name":"樹林仔","decorType":"bus_stop"},{"id":"node-3215499140","lat":25.011092,"lon":121.1391578,"name":"新坡農會","decorType":"bus_stop"},{"id":"node-3215500039","lat":25.0108438,"lon":121.1392812,"name":"新坡農會","decorType":"bus_stop"},{"id":"node-3215500040","lat":25.0095318,"lon":121.1416068,"name":"大同","decorType":"bus_stop"},{"id":"node-3215500041","lat":25.0092948,"lon":121.1415414,"name":"大同","decorType":"bus_stop"},{"id":"node-3215500042","lat":25.0067742,"lon":121.1461916,"name":"頂大同","decorType":"bus_stop"},{"id":"node-3215500043","lat":25.006629,"lon":121.1461115,"name":"頂大同","decorType":"bus_stop"},{"id":"node-3215500044","lat":25.0047303,"lon":121.149932,"name":"大堀","decorType":"bus_stop"},{"id":"node-3215500045","lat":25.0045963,"lon":121.1498272,"name":"大堀","decorType":"bus_stop"},{"id":"node-3215500046","lat":25.0032336,"lon":121.152366,"name":"頂大堀","decorType":"bus_stop"},{"id":"node-3215500047","lat":25.0033565,"lon":121.1517929,"name":"頂大堀","decorType":"bus_stop"},{"id":"node-3215500281","lat":24.9971867,"lon":121.1615826,"name":"崙坪","decorType":"bus_stop"},{"id":"node-3215500282","lat":24.9973341,"lon":121.161729,"name":"崙坪","decorType":"bus_stop"},{"id":"node-3215511180","lat":24.9941191,"lon":121.1665842,"name":"忠愛莊","decorType":"bus_stop"},{"id":"node-3215511181","lat":24.9939054,"lon":121.1666168,"name":"忠愛莊","decorType":"bus_stop"},{"id":"node-3215511182","lat":24.9933005,"lon":121.1689397,"name":"福山路口","decorType":"bus_stop"},{"id":"node-3215515145","lat":24.9930278,"lon":121.1691674,"name":"福山路口","decorType":"bus_stop"},{"id":"node-3215515146","lat":24.992733,"lon":121.1707366,"name":"山東路口","decorType":"bus_stop"},{"id":"node-3215515147","lat":24.9925414,"lon":121.1707529,"name":"山東路口","decorType":"bus_stop"},{"id":"node-3215515148","lat":24.9921361,"lon":121.1727938,"name":"井子厝","decorType":"bus_stop"},{"id":"node-3215515149","lat":24.9919776,"lon":121.1726674,"name":"井子厝","decorType":"bus_stop"},{"id":"node-3215515150","lat":24.9913127,"lon":121.1751063,"name":"中福","decorType":"bus_stop"},{"id":"node-3215515151","lat":24.9911064,"lon":121.1751307,"name":"中福","decorType":"bus_stop"},{"id":"node-3215515152","lat":24.9903989,"lon":121.1771634,"name":"新剛公司","decorType":"bus_stop"},{"id":"node-3215515153","lat":24.9902367,"lon":121.1770415,"name":"新剛公司","decorType":"bus_stop"},{"id":"node-3215517129","lat":24.9892591,"lon":121.1796342,"name":"大崙","decorType":"bus_stop"},{"id":"node-3215517130","lat":24.9889713,"lon":121.1796622,"name":"大崙","decorType":"bus_stop"},{"id":"node-3303558764","lat":24.8780104,"lon":121.0519595,"name":"OK超商","decorType":"convenience"},{"id":"node-3305091614","lat":24.8876666,"lon":121.0520554,"name":"萊爾富","decorType":"convenience"},{"id":"node-3305091615","lat":24.8886426,"lon":121.0889623,"name":"萊爾富","decorType":"convenience"},{"id":"node-3305091616","lat":24.8983579,"lon":121.0595877,"name":"萊爾富","decorType":"convenience"},{"id":"node-3305135613","lat":24.9181592,"lon":121.0564077,"name":"全家便利商店","decorType":"convenience"},{"id":"node-3311425038","lat":24.8790148,"lon":121.0548471,"name":"舊湖口","decorType":"bus_stop"},{"id":"node-3311425039","lat":24.8787559,"lon":121.0551835,"name":"舊湖口","decorType":"bus_stop"},{"id":"node-3335658641","lat":24.9129823,"lon":121.1066377,"name":"二湖","decorType":"bus_stop"},{"id":"node-3341060359","lat":24.8619835,"lon":121.1295335,"name":"清水","decorType":"bus_stop"},{"id":"node-3341060360","lat":24.8619445,"lon":121.1297341,"name":"清水","decorType":"bus_stop"},{"id":"node-3488107925","lat":24.9129855,"lon":121.1457644,"name":"布雷瓦義式咖啡吧","decorType":"cafe"},{"id":"node-3511678909","lat":24.8988282,"lon":121.1394773,"name":"7-Eleven","decorType":"convenience"},{"id":"node-3511718809","lat":24.908178,"lon":121.1676217,"name":"西堤","decorType":"restaurant"},{"id":"node-3511718810","lat":24.9093026,"lon":121.1466048,"name":"全聯福利中心","decorType":"supermarket"},{"id":"node-3511718826","lat":24.9075625,"lon":121.137755,"name":"7-Eleven","decorType":"convenience"},{"id":"node-3511718827","lat":24.9045077,"lon":121.1286013,"name":"萊爾富","decorType":"convenience"},{"id":"node-3511718829","lat":24.9091384,"lon":121.1453578,"name":"7-Eleven","decorType":"convenience"},{"id":"node-3511718830","lat":24.9090408,"lon":121.1468885,"name":"全家便利商店","decorType":"convenience"},{"id":"node-3511718831","lat":24.9109522,"lon":121.1560277,"name":"7-Eleven","decorType":"convenience"},{"id":"node-3511718832","lat":24.9087724,"lon":121.1576745,"name":"全家便利商店","decorType":"convenience"},{"id":"node-3511718833","lat":24.9024621,"lon":121.149946,"name":"7-Eleven","decorType":"convenience"},{"id":"node-3511718834","lat":24.8994374,"lon":121.1509969,"name":"7-Eleven","decorType":"convenience"},{"id":"node-3511718840","lat":24.9021092,"lon":121.1480318,"name":"萊爾富","decorType":"convenience"},{"id":"node-3511718841","lat":24.9015893,"lon":121.1465037,"name":"7-Eleven","decorType":"convenience"},{"id":"node-3662526096","lat":25.0149862,"lon":121.1289536,"name":"寶蓮寺","decorType":"shrine"},{"id":"node-3768675475","lat":24.8881176,"lon":121.1615866,"name":"東森山林渡假酒店","decorType":"hotel"},{"id":"node-3768675476","lat":24.9095319,"lon":121.1393191,"name":"7-Eleven","decorType":"convenience"},{"id":"node-3785977605","lat":24.9891303,"lon":121.1811456,"name":"大崙廣盛壇","decorType":"shrine"},{"id":"node-3811447488","lat":24.8816696,"lon":121.0756753,"name":"未命名神社","decorType":"shrine"},{"id":"node-3999391547","lat":24.90722,"lon":121.1482017,"name":"未命名公車站","decorType":"bus_stop"},{"id":"node-3999391549","lat":24.907215,"lon":121.1492926,"name":"老坑溪橋","decorType":"bus_stop"},{"id":"node-3999391658","lat":24.9074921,"lon":121.1484057,"name":"未命名公車站","decorType":"bus_stop"},{"id":"node-3999391660","lat":24.9074862,"lon":121.1493502,"name":"老坑溪橋","decorType":"bus_stop"},{"id":"node-3999391662","lat":24.9077521,"lon":121.1533302,"name":"東電化","decorType":"bus_stop"},{"id":"node-3999391670","lat":24.9079325,"lon":121.1527345,"name":"東電化","decorType":"bus_stop"},{"id":"node-3999391673","lat":24.9083304,"lon":121.1572174,"name":"天成醫院","decorType":"bus_stop"},{"id":"node-3999391675","lat":24.9084903,"lon":121.1456097,"name":"大成路","decorType":"bus_stop"},{"id":"node-3999391676","lat":24.9084953,"lon":121.1454933,"name":"大成路","decorType":"bus_stop"},{"id":"node-3999391684","lat":24.9088525,"lon":121.1601609,"name":"大金山","decorType":"bus_stop"},{"id":"node-3999391698","lat":24.9090373,"lon":121.159572,"name":"大金山","decorType":"bus_stop"},{"id":"node-3999391703","lat":24.9103887,"lon":121.1456079,"name":"新街","decorType":"bus_stop"},{"id":"node-3999391704","lat":24.9106501,"lon":121.1457292,"name":"新街","decorType":"bus_stop"},{"id":"node-3999391724","lat":24.9127467,"lon":121.1457394,"name":"楊梅火車站","decorType":"bus_stop"},{"id":"node-3999391725","lat":24.9129001,"lon":121.1458953,"name":"楊梅火車站","decorType":"bus_stop"},{"id":"node-4124935592","lat":24.9129912,"lon":121.1684223,"name":"清心蔬食館","decorType":"restaurant"},{"id":"node-4243925098","lat":24.9092866,"lon":121.1468881,"name":"85度C","decorType":"cafe"},{"id":"node-4243925100","lat":24.9080975,"lon":121.1454543,"name":"福廣燒臘","decorType":"restaurant"},{"id":"node-4243925103","lat":24.9084124,"lon":121.14591,"name":"新竹鴨肉面","decorType":"restaurant"},{"id":"node-4243925104","lat":24.9082527,"lon":121.1458867,"name":"威仕頓牛排","decorType":"restaurant"},{"id":"node-4243925105","lat":24.9080866,"lon":121.1456526,"name":"鈺山牛肉麵","decorType":"restaurant"},{"id":"node-4243925106","lat":24.9079684,"lon":121.1456385,"name":"食品行","decorType":"restaurant"},{"id":"node-4243925108","lat":24.9104839,"lon":121.1455424,"name":"肯德基","decorType":"burger"},{"id":"node-4243925109","lat":24.9105818,"lon":121.1455415,"name":"屈臣氏","decorType":"pharmacy"},{"id":"node-4243925110","lat":24.9091398,"lon":121.1450808,"name":"八方雲集","decorType":"burger"},{"id":"node-4243925115","lat":24.907784,"lon":121.1454091,"name":"弘大藥局","decorType":"pharmacy"},{"id":"node-4243925116","lat":24.9073917,"lon":121.1455207,"name":"新日元中藥行","decorType":"pharmacy"},{"id":"node-4268315018","lat":24.931095,"lon":121.0675566,"name":"新富","decorType":"station"},{"id":"node-4326608090","lat":24.9557665,"lon":121.1085913,"name":"南非美食小屋","decorType":"restaurant"},{"id":"node-4326609395","lat":24.9586812,"lon":121.1153254,"name":"萊爾富","decorType":"convenience"},{"id":"node-4355292355","lat":24.8950794,"lon":121.1283784,"name":"正霖慈惠堂","decorType":"shrine"},{"id":"node-4357465289","lat":24.9022765,"lon":121.1497084,"name":"美廉社","decorType":"supermarket"},{"id":"node-4367038394","lat":24.9068557,"lon":121.141179,"name":"土地公","decorType":"shrine"},{"id":"node-4367059292","lat":24.9072822,"lon":121.1501034,"name":"7-Eleven","decorType":"convenience"},{"id":"node-4367059294","lat":24.9113625,"lon":121.1459207,"name":"大樹藥局","decorType":"pharmacy"},{"id":"node-4367062190","lat":24.9122284,"lon":121.1459097,"name":"拿坡里披薩","decorType":"restaurant"},{"id":"node-4367118191","lat":24.9083335,"lon":121.1456594,"name":"真善美藥局","decorType":"pharmacy"},{"id":"node-4367120291","lat":24.9109962,"lon":121.1453522,"name":"政東書局","decorType":"library"},{"id":"node-4367120390","lat":24.9089091,"lon":121.1456864,"name":"Easy shop","decorType":"clothing"},{"id":"node-4367140289","lat":24.9101679,"lon":121.1455231,"name":"佳瑪","decorType":"pharmacy"},{"id":"node-4420498230","lat":24.9193661,"lon":121.174199,"name":"小木屋","decorType":"cafe"},{"id":"node-4420498231","lat":24.9195475,"lon":121.1738189,"name":"福利社","decorType":"convenience"},{"id":"node-4420498232","lat":24.9195635,"lon":121.1750926,"name":"烘焙坊","decorType":"bakery"},{"id":"node-4432477251","lat":24.9138218,"lon":121.1808788,"name":"墨爾漢堡","decorType":"restaurant"},{"id":"node-4472223489","lat":24.9570076,"lon":121.0802347,"name":"耶和華見證人臺灣分部","decorType":"shrine"},{"id":"node-4511551889","lat":25.0531692,"lon":121.1202089,"name":"艾芮絲","decorType":"hair_salon"},{"id":"node-4563703539","lat":25.0309761,"lon":121.1219095,"name":"福德宮","decorType":"shrine"},{"id":"node-4632137851","lat":24.9122002,"lon":121.0507319,"name":"上和興","decorType":"bus_stop"},{"id":"node-4632137852","lat":24.9120765,"lon":121.0505168,"name":"上和興","decorType":"bus_stop"},{"id":"node-4632137853","lat":24.9149256,"lon":121.0517935,"name":"九股埤","decorType":"bus_stop"},{"id":"node-4632137854","lat":24.9147869,"lon":121.0515343,"name":"九股埤","decorType":"bus_stop"},{"id":"node-4632137855","lat":24.9180726,"lon":121.0535623,"name":"和興新村","decorType":"bus_stop"},{"id":"node-4632137856","lat":24.9181453,"lon":121.0534483,"name":"和興新村","decorType":"bus_stop"},{"id":"node-4632137998","lat":24.9195089,"lon":121.054928,"name":"中國科技大學","decorType":"bus_stop"},{"id":"node-4632137999","lat":24.9195886,"lon":121.0547649,"name":"中國科技大學","decorType":"bus_stop"},{"id":"node-4632138000","lat":24.9203732,"lon":121.0561111,"name":"山葉機車","decorType":"bus_stop"},{"id":"node-4632138001","lat":24.9203815,"lon":121.0557731,"name":"山葉機車","decorType":"bus_stop"},{"id":"node-4632138002","lat":24.9210815,"lon":121.0574219,"name":"六股橋","decorType":"bus_stop"},{"id":"node-4632138003","lat":24.9212347,"lon":121.0573442,"name":"六股橋","decorType":"bus_stop"},{"id":"node-4632138004","lat":24.9233752,"lon":121.059026,"name":"山葉社區","decorType":"bus_stop"},{"id":"node-4632138005","lat":24.9233461,"lon":121.0591862,"name":"山葉社區","decorType":"bus_stop"},{"id":"node-4632138012","lat":24.9250799,"lon":121.0603329,"name":"縣界","decorType":"bus_stop"},{"id":"node-4632138013","lat":24.9251419,"lon":121.0602142,"name":"縣界","decorType":"bus_stop"},{"id":"node-4632138026","lat":24.9046811,"lon":121.0526057,"name":"貴州新村","decorType":"bus_stop"},{"id":"node-4632138027","lat":24.9045284,"lon":121.0527301,"name":"貴州新村","decorType":"bus_stop"},{"id":"node-4632138028","lat":24.9052694,"lon":121.0556581,"name":"圳頭","decorType":"bus_stop"},{"id":"node-4632138029","lat":24.9051972,"lon":121.055812,"name":"圳頭","decorType":"bus_stop"},{"id":"node-4632138030","lat":24.9061826,"lon":121.0578316,"name":"四湖橋","decorType":"bus_stop"},{"id":"node-4632138031","lat":24.9062138,"lon":121.0581015,"name":"四湖橋","decorType":"bus_stop"},{"id":"node-4632138114","lat":24.8779373,"lon":121.0521445,"name":"湖鏡村","decorType":"bus_stop"},{"id":"node-4632138115","lat":24.8776834,"lon":121.0521685,"name":"湖鏡村","decorType":"bus_stop"},{"id":"node-4632138116","lat":24.8787108,"lon":121.0585,"name":"湖口老街","decorType":"bus_stop"},{"id":"node-4632138117","lat":24.8784367,"lon":121.0586918,"name":"湖口老街","decorType":"bus_stop"},{"id":"node-4632138118","lat":24.8797175,"lon":121.0648844,"name":"戴家","decorType":"bus_stop"},{"id":"node-4632138119","lat":24.8799558,"lon":121.0647883,"name":"戴家","decorType":"bus_stop"},{"id":"node-4632138120","lat":24.8836503,"lon":121.0731481,"name":"羊喜窩","decorType":"bus_stop"},{"id":"node-4632138121","lat":24.8832309,"lon":121.0732311,"name":"羊喜窩","decorType":"bus_stop"},{"id":"node-4632138122","lat":24.8867667,"lon":121.084111,"name":"長嶺村","decorType":"bus_stop"},{"id":"node-4632138123","lat":24.8872463,"lon":121.0846222,"name":"長嶺村","decorType":"bus_stop"},{"id":"node-4632138124","lat":24.8884467,"lon":121.0883639,"name":"長安","decorType":"bus_stop"},{"id":"node-4632138125","lat":24.8884238,"lon":121.0891627,"name":"長安","decorType":"bus_stop"},{"id":"node-4632138126","lat":24.8953768,"lon":121.1085147,"name":"畜試所","decorType":"bus_stop"},{"id":"node-4632138127","lat":24.8947688,"lon":121.1078367,"name":"畜試所","decorType":"bus_stop"},{"id":"node-4632138128","lat":24.8826022,"lon":121.054901,"name":"陳厝","decorType":"bus_stop"},{"id":"node-4632138129","lat":24.8822076,"lon":121.0546277,"name":"陳厝","decorType":"bus_stop"},{"id":"node-4632138130","lat":24.8838654,"lon":121.054297,"name":"磚窯","decorType":"bus_stop"},{"id":"node-4632138131","lat":24.8839326,"lon":121.0546505,"name":"磚窯","decorType":"bus_stop"},{"id":"node-4632138132","lat":24.8850886,"lon":121.0532693,"name":"富國新村","decorType":"bus_stop"},{"id":"node-4632138133","lat":24.8851184,"lon":121.053705,"name":"富國新村","decorType":"bus_stop"},{"id":"node-4632138134","lat":24.888124,"lon":121.0518881,"name":"美之城","decorType":"bus_stop"},{"id":"node-4632138135","lat":24.8881091,"lon":121.0522662,"name":"美之城","decorType":"bus_stop"},{"id":"node-4632138136","lat":24.8911146,"lon":121.0507617,"name":"湖口高中","decorType":"bus_stop"},{"id":"node-4632138137","lat":24.8912414,"lon":121.0510495,"name":"湖口高中","decorType":"bus_stop"},{"id":"node-4632138146","lat":24.8768935,"lon":121.0524028,"name":"天主堂","decorType":"bus_stop"},{"id":"node-4632138147","lat":24.876935,"lon":121.0522454,"name":"天主堂","decorType":"bus_stop"},{"id":"node-4632138148","lat":24.8759774,"lon":121.053235,"name":"畚箕窩口","decorType":"bus_stop"},{"id":"node-4632138149","lat":24.8758899,"lon":121.0533619,"name":"畚箕窩口","decorType":"bus_stop"},{"id":"node-4632138151","lat":24.8727181,"lon":121.0581067,"name":"畚箕窩","decorType":"bus_stop"},{"id":"node-4632138152","lat":24.8721625,"lon":121.0662294,"name":"電台","decorType":"bus_stop"},{"id":"node-4632138153","lat":24.8720106,"lon":121.0659849,"name":"電台","decorType":"bus_stop"},{"id":"node-4632138154","lat":24.8726766,"lon":121.0705661,"name":"金獅寺","decorType":"bus_stop"},{"id":"node-4632138155","lat":24.8724765,"lon":121.0705889,"name":"金獅寺","decorType":"bus_stop"},{"id":"node-4632138156","lat":24.8734683,"lon":121.0735086,"name":"綠藻","decorType":"bus_stop"},{"id":"node-4632138157","lat":24.873342,"lon":121.0734693,"name":"綠藻","decorType":"bus_stop"},{"id":"node-4632138158","lat":24.8723089,"lon":121.08039,"name":"林口","decorType":"bus_stop"},{"id":"node-4632138159","lat":24.8721849,"lon":121.0802565,"name":"林口","decorType":"bus_stop"},{"id":"node-4632138160","lat":24.8698397,"lon":121.0868284,"name":"崗頂","decorType":"bus_stop"},{"id":"node-4632138161","lat":24.8696135,"lon":121.0866754,"name":"崗頂","decorType":"bus_stop"},{"id":"node-4632138162","lat":24.8686317,"lon":121.0912376,"name":"羊喜窩","decorType":"bus_stop"},{"id":"node-4632138163","lat":24.8688486,"lon":121.0913273,"name":"羊喜窩","decorType":"bus_stop"},{"id":"node-4682754090","lat":25.0434307,"lon":121.1420984,"name":"宜欣文具行","decorType":"library"},{"id":"node-5056849671","lat":24.8776136,"lon":121.0520786,"name":"7-Eleven","decorType":"convenience"},{"id":"node-5056849672","lat":24.8783014,"lon":121.0583362,"name":"OK超商","decorType":"convenience"},{"id":"node-5061628880","lat":24.8774629,"lon":121.067979,"name":"姑娘廟","decorType":"shrine"},{"id":"node-5061628886","lat":24.8755767,"lon":121.0674568,"name":"福德亭","decorType":"shrine"},{"id":"node-5065465956","lat":24.8712113,"lon":121.1651807,"name":"山水緣庭園景觀餐廳","decorType":"restaurant"},{"id":"node-5092061904","lat":24.8573407,"lon":121.0938404,"name":"福德祠","decorType":"bus_stop"},{"id":"node-5092061905","lat":24.8573053,"lon":121.094002,"name":"福德祠","decorType":"bus_stop"},{"id":"node-5092061931","lat":24.8585154,"lon":121.0953232,"name":"大興","decorType":"bus_stop"},{"id":"node-5092061932","lat":24.8587705,"lon":121.0952732,"name":"大興","decorType":"bus_stop"},{"id":"node-5092061933","lat":24.8632557,"lon":121.0951217,"name":"福興","decorType":"bus_stop"},{"id":"node-5092061934","lat":24.8632265,"lon":121.0949681,"name":"福興","decorType":"bus_stop"},{"id":"node-5092061935","lat":24.8672239,"lon":121.0973576,"name":"窩尾","decorType":"bus_stop"},{"id":"node-5092061936","lat":24.8674719,"lon":121.0973399,"name":"窩尾","decorType":"bus_stop"},{"id":"node-5092061937","lat":24.8726535,"lon":121.0580371,"name":"畚箕窩","decorType":"bus_stop"},{"id":"node-5227921985","lat":24.8783778,"lon":121.0582076,"name":"湖口老街","decorType":"bus_stop"},{"id":"node-5266293979","lat":24.9844346,"lon":121.1062485,"name":"7-Eleven","decorType":"convenience"},{"id":"node-5298825422","lat":24.9581382,"lon":121.1429436,"name":"桃園玉明宮","decorType":"shrine"},{"id":"node-5313364686","lat":24.899206,"lon":121.1510726,"name":"合浦刀削麵食","decorType":"restaurant"},{"id":"node-5481944241","lat":25.0475029,"lon":121.1432479,"name":"7-Eleven","decorType":"convenience"},{"id":"node-5481952335","lat":25.0548475,"lon":121.1580306,"name":"7-Eleven","decorType":"convenience"},{"id":"node-5570252615","lat":25.0130609,"lon":121.1360253,"name":"7-Eleven","decorType":"convenience"},{"id":"node-5570252624","lat":25.014558,"lon":121.1336306,"name":"觀音高中","decorType":"bus_stop"},{"id":"node-5589996262","lat":24.8575057,"lon":121.1746889,"name":"伯公埂福德祠","decorType":"shrine"},{"id":"node-5610890221","lat":24.9137919,"lon":121.1510124,"name":"楊梅教會","decorType":"shrine"},{"id":"node-5754436734","lat":24.9587352,"lon":121.1723024,"name":"寶雅","decorType":"pharmacy"},{"id":"node-5781771356","lat":24.9007591,"lon":121.1563276,"name":"台北新都福德祠","decorType":"shrine"},{"id":"node-5781778231","lat":24.9078873,"lon":121.1204392,"name":"薪加坡社區福德祠","decorType":"shrine"},{"id":"node-5804318493","lat":25.0130047,"lon":121.1360696,"name":"八方雲集","decorType":"burger"},{"id":"node-5901110043","lat":24.9892356,"lon":121.179931,"name":"內厝社區圖書館","decorType":"library"},{"id":"node-6065237949","lat":24.9733114,"lon":121.0995238,"name":"萊爾富","decorType":"convenience"},{"id":"node-6065237964","lat":24.9729138,"lon":121.102186,"name":"7-Eleven","decorType":"convenience"},{"id":"node-6112609212","lat":24.9754946,"lon":121.1061511,"name":"7-Eleven","decorType":"convenience"},{"id":"node-6171374277","lat":24.9058929,"lon":121.177555,"name":"7-Eleven","decorType":"convenience"},{"id":"node-6196681226","lat":24.9712834,"lon":121.1099576,"name":"加油站","decorType":"bus_stop"},{"id":"node-6196681227","lat":24.9710693,"lon":121.1107851,"name":"加油站","decorType":"bus_stop"},{"id":"node-6196681228","lat":24.9716977,"lon":121.1092948,"name":"電信局","decorType":"bus_stop"},{"id":"node-6196681229","lat":24.9717284,"lon":121.1095632,"name":"電信局","decorType":"bus_stop"},{"id":"node-6196681232","lat":24.9728612,"lon":121.1025517,"name":"新屋站","decorType":"bus_stop"},{"id":"node-6196681253","lat":24.9734633,"lon":121.0996731,"name":"雙路口","decorType":"bus_stop"},{"id":"node-6196681254","lat":24.9733361,"lon":121.0997509,"name":"雙路口","decorType":"bus_stop"},{"id":"node-6196681255","lat":24.9739962,"lon":121.0968924,"name":"新明公司","decorType":"bus_stop"},{"id":"node-6196681256","lat":24.9737879,"lon":121.096915,"name":"新明公司","decorType":"bus_stop"},{"id":"node-6196681257","lat":24.9743547,"lon":121.0947178,"name":"邱厝","decorType":"bus_stop"},{"id":"node-6196681258","lat":24.9741986,"lon":121.0946572,"name":"邱厝","decorType":"bus_stop"},{"id":"node-6247158787","lat":24.9106611,"lon":121.1745171,"name":"貴族世家","decorType":"restaurant"},{"id":"node-6247159785","lat":24.9124526,"lon":121.1760936,"name":"優衣酷","decorType":"clothing"},{"id":"node-6247166987","lat":24.9083965,"lon":121.1676421,"name":"摩斯漢堡","decorType":"burger"},{"id":"node-6247189085","lat":24.9090994,"lon":121.1754778,"name":"全家便利商店","decorType":"convenience"},{"id":"node-6247189086","lat":24.9103597,"lon":121.178355,"name":"7-Eleven","decorType":"convenience"},{"id":"node-6247195185","lat":24.9097682,"lon":121.1764566,"name":"楊梅瑞塘郵局","decorType":"post_office"},{"id":"node-6333252719","lat":25.0373756,"lon":121.0815226,"name":"廟前(甘泉寺)","decorType":"bus_stop"},{"id":"node-6333252726","lat":25.0331702,"lon":121.0831104,"name":"水利站(文化中正路口)","decorType":"bus_stop"},{"id":"node-6333252753","lat":25.036525,"lon":121.08257,"name":"觀音分駐所","decorType":"bus_stop"},{"id":"node-6333252754","lat":25.0367086,"lon":121.0822012,"name":"7-Eleven","decorType":"convenience"},{"id":"node-6333252755","lat":25.0422092,"lon":121.0775234,"name":"白沙岬燈塔","decorType":"bus_stop"},{"id":"node-6339086671","lat":25.0463388,"lon":121.1386479,"name":"尾厝福德祠","decorType":"shrine"},{"id":"node-6503106416","lat":25.0392307,"lon":121.0830989,"name":"觀音甘泉池-步道公園","decorType":"park"},{"id":"node-6503106453","lat":25.0392062,"lon":121.0834126,"name":"觀音甘泉池-步道公園","decorType":"park"},{"id":"node-6518587917","lat":24.938221,"lon":121.0884688,"name":"許廚師","decorType":"restaurant"},{"id":"node-6657151229","lat":25.0345213,"lon":121.0746212,"name":"塘頭","decorType":"bus_stop"},{"id":"node-6657151230","lat":25.0344752,"lon":121.0748971,"name":"塘頭","decorType":"bus_stop"},{"id":"node-6838186110","lat":24.87811,"lon":121.0566544,"name":"OK超商","decorType":"convenience"},{"id":"node-6838193241","lat":24.8856956,"lon":121.0800755,"name":"新普科技","decorType":"bus_stop"},{"id":"node-6838193242","lat":24.88581,"lon":121.0796396,"name":"新普科技","decorType":"bus_stop"},{"id":"node-6838266126","lat":24.904966,"lon":121.1296213,"name":"中興","decorType":"bus_stop"},{"id":"node-6838266127","lat":24.9044697,"lon":121.1292779,"name":"中興","decorType":"bus_stop"},{"id":"node-6838266128","lat":24.9025234,"lon":121.125268,"name":"大東社區","decorType":"bus_stop"},{"id":"node-6838266129","lat":24.9024796,"lon":121.1245894,"name":"大東社區","decorType":"bus_stop"},{"id":"node-6838266130","lat":24.9006015,"lon":121.1207968,"name":"東流里","decorType":"bus_stop"},{"id":"node-6838266131","lat":24.9002913,"lon":121.1208075,"name":"東流里","decorType":"bus_stop"},{"id":"node-6838266132","lat":24.8973247,"lon":121.1140956,"name":"崩坡下","decorType":"bus_stop"},{"id":"node-6838266133","lat":24.8969667,"lon":121.1138821,"name":"崩坡下","decorType":"bus_stop"},{"id":"node-6838310057","lat":24.9072893,"lon":121.1372307,"name":"四季社區","decorType":"bus_stop"},{"id":"node-6838310058","lat":24.9075581,"lon":121.1374399,"name":"四季社區","decorType":"bus_stop"},{"id":"node-6838312264","lat":24.9058296,"lon":121.1317536,"name":"太平里","decorType":"bus_stop"},{"id":"node-6838312265","lat":24.905562,"lon":121.1319333,"name":"太平里","decorType":"bus_stop"},{"id":"node-6838333888","lat":24.9070289,"lon":121.1349025,"name":"瓦窯橋","decorType":"bus_stop"},{"id":"node-6838333889","lat":24.906703,"lon":121.1348623,"name":"瓦窯橋","decorType":"bus_stop"},{"id":"node-6838359009","lat":24.9069268,"lon":121.1450721,"name":"楊梅","decorType":"bus_stop"},{"id":"node-6838359010","lat":24.9066573,"lon":121.1448669,"name":"楊梅","decorType":"bus_stop"},{"id":"node-6838392170","lat":24.908541,"lon":121.1569109,"name":"天成醫院","decorType":"bus_stop"},{"id":"node-6838461612","lat":24.9150665,"lon":121.179851,"name":"全家便利商店","decorType":"convenience"},{"id":"node-6838461613","lat":24.9154082,"lon":121.1802144,"name":"四維新村","decorType":"bus_stop"},{"id":"node-6838461614","lat":24.9153742,"lon":121.1798,"name":"四維新村","decorType":"bus_stop"},{"id":"node-6838461622","lat":24.912865,"lon":121.1763842,"name":"瑞塘里","decorType":"bus_stop"},{"id":"node-6838461623","lat":24.9121984,"lon":121.1757177,"name":"瑞塘里","decorType":"bus_stop"},{"id":"node-6838461625","lat":24.9096952,"lon":121.1727512,"name":"楊梅工業區","decorType":"bus_stop"},{"id":"node-6838461626","lat":24.911122,"lon":121.1738737,"name":"楊梅工業區","decorType":"bus_stop"},{"id":"node-6838461629","lat":24.9087829,"lon":121.1707932,"name":"頭重溪","decorType":"bus_stop"},{"id":"node-6838461630","lat":24.9085105,"lon":121.1707087,"name":"頭重溪","decorType":"bus_stop"},{"id":"node-6838461631","lat":24.9081358,"lon":121.1693434,"name":"85度C","decorType":"cafe"},{"id":"node-6838461633","lat":24.9087142,"lon":121.1677837,"name":"楊梅交流道","decorType":"bus_stop"},{"id":"node-6838461634","lat":24.9084503,"lon":121.1680271,"name":"楊梅交流道","decorType":"bus_stop"},{"id":"node-6839745017","lat":24.9590745,"lon":121.1779034,"name":"中平國小","decorType":"bus_stop"},{"id":"node-6839745018","lat":24.9587524,"lon":121.1783756,"name":"中平國小","decorType":"bus_stop"},{"id":"node-6839807680","lat":24.9597133,"lon":121.1637846,"name":"中壢地政事務所(民族松勤路口)","decorType":"bus_stop"},{"id":"node-6839807682","lat":24.9581011,"lon":121.1668731,"name":"幸福社區","decorType":"bus_stop"},{"id":"node-6839807683","lat":24.9582507,"lon":121.1652906,"name":"高榮","decorType":"bus_stop"},{"id":"node-6839807684","lat":24.9582716,"lon":121.1655799,"name":"高榮","decorType":"bus_stop"},{"id":"node-6839810636","lat":24.962145,"lon":121.1595775,"name":"橡樹公司","decorType":"bus_stop"},{"id":"node-6839810637","lat":24.9623426,"lon":121.1593173,"name":"橡樹公司","decorType":"bus_stop"},{"id":"node-6839810638","lat":24.9617863,"lon":121.161207,"name":"寶祥","decorType":"bus_stop"},{"id":"node-6839810639","lat":24.962111,"lon":121.1610326,"name":"寶祥","decorType":"bus_stop"},{"id":"node-6839810786","lat":24.9581303,"lon":121.1681002,"name":"嘉裕紡織","decorType":"bus_stop"},{"id":"node-6839810787","lat":24.9579157,"lon":121.1676563,"name":"嘉裕紡織","decorType":"bus_stop"},{"id":"node-6839810788","lat":24.958495,"lon":121.1699805,"name":"全家便利商店","decorType":"convenience"},{"id":"node-6839810791","lat":24.9584501,"lon":121.1720069,"name":"國際兒童村","decorType":"bus_stop"},{"id":"node-6839810792","lat":24.9586008,"lon":121.1716005,"name":"國際兒童村","decorType":"bus_stop"},{"id":"node-6839810793","lat":24.9589413,"lon":121.1741982,"name":"龍太社區","decorType":"bus_stop"},{"id":"node-6839810794","lat":24.9587929,"lon":121.1742894,"name":"龍太社區","decorType":"bus_stop"},{"id":"node-6839810797","lat":24.9586859,"lon":121.1738013,"name":"萊爾富","decorType":"convenience"},{"id":"node-6839810798","lat":24.9593072,"lon":121.1765371,"name":"過嶺","decorType":"bus_stop"},{"id":"node-6839810799","lat":24.9591224,"lon":121.1765532,"name":"過嶺","decorType":"bus_stop"},{"id":"node-6839821999","lat":24.9624332,"lon":121.1580198,"name":"雙塘屋","decorType":"bus_stop"},{"id":"node-6839822000","lat":24.9622532,"lon":121.1579655,"name":"雙塘屋","decorType":"bus_stop"},{"id":"node-6839869987","lat":24.9646532,"lon":121.1520405,"name":"上富源","decorType":"bus_stop"},{"id":"node-6839869988","lat":24.9647232,"lon":121.1522531,"name":"上富源","decorType":"bus_stop"},{"id":"node-6839870003","lat":24.9638508,"lon":121.1534406,"name":"富泰公司","decorType":"bus_stop"},{"id":"node-6839870004","lat":24.963328,"lon":121.1541749,"name":"富泰公司","decorType":"bus_stop"},{"id":"node-6839870010","lat":24.9627797,"lon":121.1558291,"name":"中壢好市多","decorType":"bus_stop"},{"id":"node-6839870011","lat":24.9629912,"lon":121.1557326,"name":"中壢好市多","decorType":"bus_stop"},{"id":"node-6839902792","lat":24.9633268,"lon":121.1466882,"name":"志欣","decorType":"bus_stop"},{"id":"node-6839902793","lat":24.9632332,"lon":121.1469805,"name":"志欣","decorType":"bus_stop"},{"id":"node-6839902801","lat":24.9650032,"lon":121.1510395,"name":"7-Eleven","decorType":"convenience"},{"id":"node-6839902802","lat":24.9627967,"lon":121.1464682,"name":"7-Eleven","decorType":"convenience"},{"id":"node-6841072616","lat":24.9697705,"lon":121.1357743,"name":"豪軒","decorType":"bus_stop"},{"id":"node-6841072617","lat":24.9698756,"lon":121.1360646,"name":"豪軒","decorType":"bus_stop"},{"id":"node-6841072618","lat":24.9692118,"lon":121.1376612,"name":"富九","decorType":"bus_stop"},{"id":"node-6841072619","lat":24.9691644,"lon":121.1373266,"name":"富九","decorType":"bus_stop"},{"id":"node-6841072622","lat":24.9680319,"lon":121.1392987,"name":"和泰","decorType":"bus_stop"},{"id":"node-6841072623","lat":24.9678751,"lon":121.139068,"name":"和泰","decorType":"bus_stop"},{"id":"node-6841072646","lat":24.9635991,"lon":121.1432616,"name":"頭州新城","decorType":"bus_stop"},{"id":"node-6841072655","lat":24.9624745,"lon":121.1446832,"name":"黎頭洲","decorType":"bus_stop"},{"id":"node-6841072656","lat":24.9632964,"lon":121.1432724,"name":"頭州新城","decorType":"bus_stop"},{"id":"node-6841072657","lat":24.9626666,"lon":121.1447811,"name":"黎頭洲","decorType":"bus_stop"},{"id":"node-6841083469","lat":24.9705522,"lon":121.1130077,"name":"中山路","decorType":"bus_stop"},{"id":"node-6841083470","lat":24.9703382,"lon":121.1130439,"name":"中山路","decorType":"bus_stop"},{"id":"node-6841083471","lat":24.9699382,"lon":121.1153278,"name":"7-Eleven","decorType":"convenience"},{"id":"node-6841083472","lat":24.9703121,"lon":121.1149509,"name":"台一","decorType":"bus_stop"},{"id":"node-6841083473","lat":24.9701498,"lon":121.1146545,"name":"台一","decorType":"bus_stop"},{"id":"node-6841124028","lat":24.9728134,"lon":121.1044226,"name":"新屋郵局","decorType":"bus_stop"},{"id":"node-6841124029","lat":24.9726809,"lon":121.1045252,"name":"新屋郵局","decorType":"bus_stop"},{"id":"node-6841142786","lat":24.9712476,"lon":121.1199586,"name":"清華里","decorType":"bus_stop"},{"id":"node-6841142787","lat":24.970968,"lon":121.1197856,"name":"清華里","decorType":"bus_stop"},{"id":"node-6841142788","lat":24.970016,"lon":121.1168647,"name":"萊爾富","decorType":"convenience"},{"id":"node-6841142789","lat":24.9703631,"lon":121.1170974,"name":"紅泥坡","decorType":"bus_stop"},{"id":"node-6841142790","lat":24.9701242,"lon":121.1170625,"name":"紅泥坡","decorType":"bus_stop"},{"id":"node-6841142830","lat":24.9720451,"lon":121.1237593,"name":"鄧厝","decorType":"bus_stop"},{"id":"node-6841142831","lat":24.9717995,"lon":121.1235541,"name":"鄧厝","decorType":"bus_stop"},{"id":"node-6841142839","lat":24.9727271,"lon":121.1259855,"name":"頂紅泥坡","decorType":"bus_stop"},{"id":"node-6841142840","lat":24.9728785,"lon":121.1258286,"name":"頂紅泥坡","decorType":"bus_stop"},{"id":"node-6841142842","lat":24.9725709,"lon":121.1282359,"name":"元華公司","decorType":"bus_stop"},{"id":"node-6841142843","lat":24.9723843,"lon":121.128146,"name":"元華公司","decorType":"bus_stop"},{"id":"node-6841142849","lat":24.9716743,"lon":121.1313915,"name":"北勢","decorType":"bus_stop"},{"id":"node-6841142850","lat":24.9715685,"lon":121.1311313,"name":"北勢","decorType":"bus_stop"},{"id":"node-6841142851","lat":24.9717156,"lon":121.1313741,"name":"7-Eleven","decorType":"convenience"},{"id":"node-6842551467","lat":24.9774902,"lon":121.0779834,"name":"里界","decorType":"bus_stop"},{"id":"node-6842551468","lat":24.9776835,"lon":121.0780343,"name":"里界","decorType":"bus_stop"},{"id":"node-6842577685","lat":24.9765712,"lon":121.0833693,"name":"東明","decorType":"bus_stop"},{"id":"node-6842577686","lat":24.976356,"lon":121.0833867,"name":"東明","decorType":"bus_stop"},{"id":"node-6842577700","lat":24.9766806,"lon":121.0829093,"name":"OK","decorType":"convenience"},{"id":"node-6842577701","lat":24.9758296,"lon":121.0867609,"name":"新光","decorType":"bus_stop"},{"id":"node-6842577702","lat":24.9755913,"lon":121.086958,"name":"新光","decorType":"bus_stop"},{"id":"node-6842577703","lat":24.9751513,"lon":121.0914132,"name":"7-Eleven","decorType":"convenience"},{"id":"node-6842577704","lat":24.9748522,"lon":121.090917,"name":"全美公司","decorType":"bus_stop"},{"id":"node-6842577705","lat":24.9750941,"lon":121.0907547,"name":"全美公司","decorType":"bus_stop"},{"id":"node-6842583011","lat":24.9788354,"lon":121.0732077,"name":"玉皇宮","decorType":"bus_stop"},{"id":"node-6842583012","lat":24.9790183,"lon":121.0732312,"name":"玉皇宮","decorType":"bus_stop"},{"id":"node-6842583013","lat":24.9782257,"lon":121.0752596,"name":"六號坡","decorType":"bus_stop"},{"id":"node-6842583014","lat":24.9784725,"lon":121.0751778,"name":"六號坡","decorType":"bus_stop"},{"id":"node-6856773012","lat":24.9808175,"lon":121.0685031,"name":"永昌","decorType":"bus_stop"},{"id":"node-6856773013","lat":24.9795386,"lon":121.0710633,"name":"頂田心","decorType":"bus_stop"},{"id":"node-6856773014","lat":24.97971,"lon":121.07118,"name":"頂田心","decorType":"bus_stop"},{"id":"node-6867463766","lat":24.9250556,"lon":121.180476,"name":"餐飲區","decorType":"restaurant"},{"id":"node-6868909592","lat":24.925745,"lon":121.1803438,"name":"餐飲區","decorType":"restaurant"},{"id":"node-6869007046","lat":24.9253532,"lon":121.1801973,"name":"環場列車餐飲區站","decorType":"bus_stop"},{"id":"node-6869007047","lat":24.9274693,"lon":121.177879,"name":"環場列車動物表演區站","decorType":"bus_stop"},{"id":"node-6869007048","lat":24.9261701,"lon":121.1761582,"name":"環場列車總站","decorType":"bus_stop"},{"id":"node-6875651384","lat":24.957773,"lon":121.1666575,"name":"85度C","decorType":"cafe"},{"id":"node-6875673985","lat":24.9587017,"lon":121.1717802,"name":"億客成生鮮超市","decorType":"supermarket"},{"id":"node-6875726892","lat":24.9728378,"lon":121.1024076,"name":"全家便利商店","decorType":"convenience"},{"id":"node-6875726893","lat":24.9728438,"lon":121.1065999,"name":"7-Eleven","decorType":"convenience"},{"id":"node-6876636785","lat":24.985122,"lon":121.0524179,"name":"谷瑞公司","decorType":"bus_stop"},{"id":"node-6876636786","lat":24.9853846,"lon":121.0522033,"name":"谷瑞公司","decorType":"bus_stop"},{"id":"node-6876636787","lat":24.9844291,"lon":121.0543974,"name":"莊厝","decorType":"bus_stop"},{"id":"node-6876636788","lat":24.9846601,"lon":121.0544577,"name":"莊厝","decorType":"bus_stop"},{"id":"node-6876636806","lat":24.9839137,"lon":121.0567148,"name":"上庄","decorType":"bus_stop"},{"id":"node-6876636807","lat":24.9836609,"lon":121.0567939,"name":"上庄","decorType":"bus_stop"},{"id":"node-6876636808","lat":24.9827653,"lon":121.060752,"name":"田中","decorType":"bus_stop"},{"id":"node-6876636809","lat":24.9829728,"lon":121.0589795,"name":"邱厝二","decorType":"bus_stop"},{"id":"node-6876636810","lat":24.9818605,"lon":121.0646394,"name":"下田心","decorType":"bus_stop"},{"id":"node-6876636811","lat":24.981556,"lon":121.0651108,"name":"下田心","decorType":"bus_stop"},{"id":"node-6876636812","lat":24.9806291,"lon":121.0683596,"name":"永昌","decorType":"bus_stop"},{"id":"node-6961391780","lat":24.9617499,"lon":121.1641909,"name":"未命名公園","decorType":"park"},{"id":"node-7008435593","lat":24.9204578,"lon":121.1356791,"name":"7-Eleven","decorType":"convenience"},{"id":"node-7017482926","lat":24.9091539,"lon":121.1451714,"name":"偉士美牛仔男裝","decorType":"clothing"},{"id":"node-7044389436","lat":24.9131576,"lon":121.145576,"name":"7-Eleven","decorType":"convenience"},{"id":"node-7044389438","lat":24.9131358,"lon":121.146166,"name":"全家便利商店","decorType":"convenience"},{"id":"node-7044389439","lat":24.9160487,"lon":121.1457805,"name":"楊梅光華郵局","decorType":"post_office"},{"id":"node-7046041695","lat":24.9347165,"lon":121.1227206,"name":"7-Eleven","decorType":"convenience"},{"id":"node-7046041696","lat":24.9130137,"lon":121.1490025,"name":"7-Eleven","decorType":"convenience"},{"id":"node-7046041697","lat":24.9108946,"lon":121.1469552,"name":"7-Eleven","decorType":"convenience"},{"id":"node-7046041698","lat":24.9127627,"lon":121.1597548,"name":"7-Eleven","decorType":"convenience"},{"id":"node-7158656171","lat":24.8566675,"lon":121.1054436,"name":"劉家莊燜雞","decorType":"restaurant"},{"id":"node-7448165966","lat":25.0241901,"lon":121.0604873,"name":"上大潭","decorType":"bus_stop"},{"id":"node-7448165967","lat":25.0240661,"lon":121.0607006,"name":"上大潭","decorType":"bus_stop"},{"id":"node-7448165968","lat":25.0220817,"lon":121.0586876,"name":"大潭國小","decorType":"bus_stop"},{"id":"node-7448165969","lat":25.0218647,"lon":121.0581505,"name":"大潭國小","decorType":"bus_stop"},{"id":"node-7448165970","lat":25.0188236,"lon":121.053987,"name":"對面厝","decorType":"bus_stop"},{"id":"node-7448165971","lat":25.0185963,"lon":121.0540232,"name":"對面厝","decorType":"bus_stop"},{"id":"node-7448165975","lat":25.016681,"lon":121.0516964,"name":"過溪","decorType":"bus_stop"},{"id":"node-7448165976","lat":25.0165315,"lon":121.0519096,"name":"過溪","decorType":"bus_stop"},{"id":"node-7448322725","lat":25.0263738,"lon":121.0637838,"name":"黃厝","decorType":"bus_stop"},{"id":"node-7448322726","lat":25.0263045,"lon":121.0640869,"name":"黃厝","decorType":"bus_stop"},{"id":"node-7448515789","lat":25.0293255,"lon":121.0684642,"name":"塘尾","decorType":"bus_stop"},{"id":"node-7448515790","lat":25.0294725,"lon":121.0682376,"name":"塘尾","decorType":"bus_stop"},{"id":"node-7448515791","lat":25.028535,"lon":121.0668764,"name":"下塘尾","decorType":"bus_stop"},{"id":"node-7448515792","lat":25.0285392,"lon":121.0673042,"name":"下塘尾","decorType":"bus_stop"},{"id":"node-7448537342","lat":25.0334812,"lon":121.072737,"name":"未命名公車站","decorType":"bus_stop"},{"id":"node-7448537343","lat":25.0336356,"lon":121.0724835,"name":"未命名公車站","decorType":"bus_stop"},{"id":"node-7448537352","lat":25.0319004,"lon":121.0708393,"name":"上塘尾","decorType":"bus_stop"},{"id":"node-7448537353","lat":25.0318031,"lon":121.0711196,"name":"上塘尾","decorType":"bus_stop"},{"id":"node-7448551682","lat":25.0342686,"lon":121.0907909,"name":"下溝尾","decorType":"bus_stop"},{"id":"node-7448551683","lat":25.0340839,"lon":121.0907105,"name":"下溝尾","decorType":"bus_stop"},{"id":"node-7448551684","lat":25.0341095,"lon":121.0929085,"name":"溝尾","decorType":"bus_stop"},{"id":"node-7448555662","lat":25.0363282,"lon":121.0794197,"name":"燈塔","decorType":"bus_stop"},{"id":"node-7448555663","lat":25.0363453,"lon":121.0791609,"name":"燈塔","decorType":"bus_stop"},{"id":"node-7448555664","lat":25.0361545,"lon":121.079185,"name":"OK","decorType":"convenience"},{"id":"node-7448606885","lat":25.0338446,"lon":121.0930574,"name":"溝尾","decorType":"bus_stop"},{"id":"node-7448606897","lat":25.0344643,"lon":121.0887001,"name":"中心用品公司","decorType":"bus_stop"},{"id":"node-7448606898","lat":25.0342893,"lon":121.0890247,"name":"中心用品公司","decorType":"bus_stop"},{"id":"node-7448606959","lat":25.0346107,"lon":121.0869078,"name":"遠東紡織公司","decorType":"bus_stop"},{"id":"node-7448606960","lat":25.034508,"lon":121.0869218,"name":"遠東紡織公司","decorType":"bus_stop"},{"id":"node-7448606961","lat":25.0356915,"lon":121.0838722,"name":"觀音","decorType":"bus_stop"},{"id":"node-7448606962","lat":25.0355287,"lon":121.0838386,"name":"觀音","decorType":"bus_stop"},{"id":"node-7448606963","lat":25.03644,"lon":121.0824653,"name":"觀音分駐所","decorType":"bus_stop"},{"id":"node-7448606964","lat":25.0370184,"lon":121.0814662,"name":"廟前(甘泉寺)","decorType":"bus_stop"},{"id":"node-7448606965","lat":25.0377414,"lon":121.0806669,"name":"OK","decorType":"convenience"},{"id":"node-7448609093","lat":25.0361241,"lon":121.117499,"name":"富林社區","decorType":"bus_stop"},{"id":"node-7448609094","lat":25.0362566,"lon":121.1169948,"name":"富林社區","decorType":"bus_stop"},{"id":"node-7448609095","lat":25.0361363,"lon":121.1158723,"name":"富林橋","decorType":"bus_stop"},{"id":"node-7448609096","lat":25.0359297,"lon":121.1160117,"name":"富林橋","decorType":"bus_stop"},{"id":"node-7448609097","lat":25.035474,"lon":121.1113621,"name":"溪底","decorType":"bus_stop"},{"id":"node-7448609099","lat":25.0350317,"lon":121.1048819,"name":"上埔頂","decorType":"bus_stop"},{"id":"node-7448609100","lat":25.0348446,"lon":121.1050147,"name":"上埔頂","decorType":"bus_stop"},{"id":"node-7448609102","lat":25.0348094,"lon":121.1028294,"name":"埔頂","decorType":"bus_stop"},{"id":"node-7448609103","lat":25.0346295,"lon":121.1028575,"name":"埔頂","decorType":"bus_stop"},{"id":"node-7448609104","lat":25.0345445,"lon":121.0996811,"name":"小億","decorType":"bus_stop"},{"id":"node-7448609105","lat":25.0342237,"lon":121.0991903,"name":"小億","decorType":"bus_stop"},{"id":"node-7448609106","lat":25.0339503,"lon":121.0969627,"name":"福星公司","decorType":"bus_stop"},{"id":"node-7448609107","lat":25.0342613,"lon":121.0967696,"name":"福星公司","decorType":"bus_stop"},{"id":"node-7448609108","lat":25.0344971,"lon":121.0987088,"name":"7-Eleven","decorType":"convenience"},{"id":"node-7448624062","lat":25.0382602,"lon":121.1294161,"name":"樹林","decorType":"bus_stop"},{"id":"node-7448624063","lat":25.038293,"lon":121.1290714,"name":"樹林","decorType":"bus_stop"},{"id":"node-7448633837","lat":25.0512924,"lon":121.1495917,"name":"保障橋","decorType":"bus_stop"},{"id":"node-7448633838","lat":25.0510725,"lon":121.1497043,"name":"保障橋","decorType":"bus_stop"},{"id":"node-7448633839","lat":25.0529496,"lon":121.1543298,"name":"羅厝","decorType":"bus_stop"},{"id":"node-7448633857","lat":25.0510166,"lon":121.149644,"name":"全家便利商店","decorType":"convenience"},{"id":"node-7448642317","lat":25.0368495,"lon":121.1232108,"name":"富林","decorType":"bus_stop"},{"id":"node-7448642318","lat":25.0366648,"lon":121.1232121,"name":"富林","decorType":"bus_stop"},{"id":"node-7448657084","lat":25.0366004,"lon":121.1207083,"name":"富林國小","decorType":"bus_stop"},{"id":"node-7448660385","lat":25.0364437,"lon":121.1209685,"name":"富林國小","decorType":"bus_stop"},{"id":"node-7448660386","lat":25.0372019,"lon":121.1267607,"name":"詹厝前","decorType":"bus_stop"},{"id":"node-7448660387","lat":25.0370038,"lon":121.1266427,"name":"詹厝前","decorType":"bus_stop"},{"id":"node-7448726125","lat":25.0484166,"lon":121.1438745,"name":"OK超商","decorType":"convenience"},{"id":"node-7448732181","lat":25.0467709,"lon":121.1419601,"name":"草音","decorType":"bus_stop"},{"id":"node-7448732182","lat":25.046729,"lon":121.1421633,"name":"草音","decorType":"bus_stop"},{"id":"node-7448732183","lat":25.046068,"lon":121.1414337,"name":"OK超商","decorType":"convenience"},{"id":"node-7448732184","lat":25.0462224,"lon":121.1416751,"name":"全聯福利中心","decorType":"supermarket"},{"id":"node-7448737085","lat":25.0449417,"lon":121.1397091,"name":"草漯國中","decorType":"bus_stop"},{"id":"node-7448737086","lat":25.0449417,"lon":121.1400537,"name":"草漯國中","decorType":"bus_stop"},{"id":"node-7448737087","lat":25.0428458,"lon":121.1365776,"name":"瑞正","decorType":"bus_stop"},{"id":"node-7448737088","lat":25.044344,"lon":121.1394274,"name":"燦坤3C","decorType":"electronics"},{"id":"node-7448737089","lat":25.0432067,"lon":121.1371274,"name":"7-Eleven","decorType":"convenience"},{"id":"node-7448737090","lat":25.0429588,"lon":121.1372951,"name":"萊爾富","decorType":"convenience"},{"id":"node-7448737091","lat":25.0428835,"lon":121.1370939,"name":"瑞正","decorType":"bus_stop"},{"id":"node-7448741927","lat":25.0549773,"lon":121.1584778,"name":"浮圳","decorType":"bus_stop"},{"id":"node-7448741928","lat":25.0546626,"lon":121.1584282,"name":"浮圳","decorType":"bus_stop"},{"id":"node-7448749734","lat":25.0619373,"lon":121.1756627,"name":"桃禧航空城酒店","decorType":"bus_stop"},{"id":"node-7448749735","lat":25.062122,"lon":121.1754629,"name":"桃禧航空城酒店","decorType":"bus_stop"},{"id":"node-7448749737","lat":25.0613202,"lon":121.1734928,"name":"南港","decorType":"bus_stop"},{"id":"node-7448749738","lat":25.0610566,"lon":121.1735304,"name":"南港","decorType":"bus_stop"},{"id":"node-7448749739","lat":25.0586536,"lon":121.1684825,"name":"萊爾富","decorType":"convenience"},{"id":"node-7448749740","lat":25.058023,"lon":121.1663501,"name":"崙頂","decorType":"bus_stop"},{"id":"node-7448749741","lat":25.0581652,"lon":121.1661033,"name":"崙頂","decorType":"bus_stop"},{"id":"node-7448749742","lat":25.0575577,"lon":121.1646268,"name":"大同公司","decorType":"bus_stop"},{"id":"node-7448749743","lat":25.0573245,"lon":121.1646375,"name":"大同公司","decorType":"bus_stop"},{"id":"node-7448749752","lat":25.0561582,"lon":121.161215,"name":"大同社區","decorType":"bus_stop"},{"id":"node-7448749753","lat":25.0558885,"lon":121.1613491,"name":"大同社區","decorType":"bus_stop"},{"id":"node-7448749766","lat":25.0559249,"lon":121.1604425,"name":"7-Eleven","decorType":"convenience"},{"id":"node-7448819031","lat":25.0642516,"lon":121.1810634,"name":"新長發","decorType":"bus_stop"},{"id":"node-7448819033","lat":25.0633356,"lon":121.1783852,"name":"新長發","decorType":"bus_stop"},{"id":"node-7448819034","lat":25.0630926,"lon":121.1783047,"name":"新長發","decorType":"bus_stop"},{"id":"node-7448819035","lat":25.0622823,"lon":121.1755635,"name":"7-Eleven","decorType":"convenience"},{"id":"node-7448819036","lat":25.0623309,"lon":121.1756654,"name":"全家便利商店","decorType":"convenience"},{"id":"node-7597467685","lat":24.9080649,"lon":121.1537426,"name":"全家便利商店","decorType":"convenience"},{"id":"node-7597467686","lat":24.9097944,"lon":121.1532563,"name":"OK超商","decorType":"convenience"},{"id":"node-7641936023","lat":24.9133309,"lon":121.1461214,"name":"CoCo都可","decorType":"cafe"},{"id":"node-7694207181","lat":24.9649183,"lon":121.0539092,"name":"大庄埔一","decorType":"bus_stop"},{"id":"node-7694207182","lat":24.9650046,"lon":121.0537496,"name":"大庄埔一","decorType":"bus_stop"},{"id":"node-7694233686","lat":24.9664806,"lon":121.0605624,"name":"上糠榔","decorType":"bus_stop"},{"id":"node-7694233687","lat":24.9656879,"lon":121.0561448,"name":"大庄埔","decorType":"bus_stop"},{"id":"node-7694233688","lat":24.9655371,"lon":121.056177,"name":"大庄埔","decorType":"bus_stop"},{"id":"node-7694233692","lat":24.9651311,"lon":121.0545087,"name":"大坡社區","decorType":"bus_stop"},{"id":"node-7694233693","lat":24.9652186,"lon":121.0543518,"name":"大坡社區","decorType":"bus_stop"},{"id":"node-7694284771","lat":24.9729046,"lon":121.1034188,"name":"信宏鵝肉","decorType":"restaurant"},{"id":"node-7694287302","lat":24.9754637,"lon":121.0804,"name":"東福","decorType":"bus_stop"},{"id":"node-7694287303","lat":24.9752911,"lon":121.0803397,"name":"東福","decorType":"bus_stop"},{"id":"node-7694287305","lat":24.9734262,"lon":121.0760911,"name":"東坡","decorType":"bus_stop"},{"id":"node-7694287306","lat":24.9733873,"lon":121.0757799,"name":"東坡","decorType":"bus_stop"},{"id":"node-7694287371","lat":24.9688671,"lon":121.0709412,"name":"葉厝","decorType":"bus_stop"},{"id":"node-7694287372","lat":24.9686823,"lon":121.0708272,"name":"葉厝","decorType":"bus_stop"},{"id":"node-7694289695","lat":24.9676623,"lon":121.0660006,"name":"社子","decorType":"bus_stop"},{"id":"node-7694289696","lat":24.9677778,"lon":121.0659845,"name":"社子","decorType":"bus_stop"},{"id":"node-7694301752","lat":24.9743939,"lon":121.1064872,"name":"天主堂","decorType":"bus_stop"},{"id":"node-7694301753","lat":24.9745641,"lon":121.1066039,"name":"天主堂","decorType":"bus_stop"},{"id":"node-7694374394","lat":24.9588051,"lon":121.1152862,"name":"長祥宮","decorType":"bus_stop"},{"id":"node-7694374395","lat":24.9587881,"lon":121.1151313,"name":"長祥宮","decorType":"bus_stop"},{"id":"node-7694374396","lat":24.9636478,"lon":121.1124672,"name":"九斗里","decorType":"bus_stop"},{"id":"node-7694374397","lat":24.9634982,"lon":121.1124015,"name":"九斗里","decorType":"bus_stop"},{"id":"node-7694374399","lat":24.9673474,"lon":121.1101739,"name":"石坡下","decorType":"bus_stop"},{"id":"node-7694374400","lat":24.9675468,"lon":121.1102235,"name":"石坡下","decorType":"bus_stop"},{"id":"node-7694374401","lat":24.9721266,"lon":121.1078069,"name":"農會超市","decorType":"supermarket"},{"id":"node-7694374412","lat":24.9724499,"lon":121.1072355,"name":"未命名公車站","decorType":"bus_stop"},{"id":"node-7694427055","lat":24.9490365,"lon":121.1185102,"name":"埔頂","decorType":"bus_stop"},{"id":"node-7694427056","lat":24.9490365,"lon":121.118702,"name":"埔頂","decorType":"bus_stop"},{"id":"node-7694427057","lat":24.9522575,"lon":121.1180864,"name":"全富新城","decorType":"bus_stop"},{"id":"node-7694427058","lat":24.9522453,"lon":121.1179228,"name":"全富新城","decorType":"bus_stop"},{"id":"node-7694427059","lat":24.954769,"lon":121.1174782,"name":"二號池","decorType":"bus_stop"},{"id":"node-7694427060","lat":24.9548778,"lon":121.117556,"name":"二號池","decorType":"bus_stop"},{"id":"node-7694447138","lat":24.9320873,"lon":121.1249877,"name":"香榭社區","decorType":"bus_stop"},{"id":"node-7694447139","lat":24.9322746,"lon":121.1250401,"name":"香榭社區","decorType":"bus_stop"},{"id":"node-7694447140","lat":24.9343164,"lon":121.123251,"name":"老飯店","decorType":"bus_stop"},{"id":"node-7694447141","lat":24.9340951,"lon":121.1232537,"name":"老飯店","decorType":"bus_stop"},{"id":"node-7694447142","lat":24.9363108,"lon":121.1239135,"name":"萊爾富","decorType":"convenience"},{"id":"node-7694447144","lat":24.9366149,"lon":121.1236534,"name":"自由聯盟生鮮超市","decorType":"supermarket"},{"id":"node-7694447145","lat":24.9367425,"lon":121.1236587,"name":"上田里","decorType":"bus_stop"},{"id":"node-7694447146","lat":24.9420068,"lon":121.1216524,"name":"上田里","decorType":"bus_stop"},{"id":"node-7694447147","lat":24.9421357,"lon":121.1214801,"name":"上田里","decorType":"bus_stop"},{"id":"node-7694447148","lat":24.9463285,"lon":121.1198634,"name":"御花園","decorType":"bus_stop"},{"id":"node-7694477812","lat":24.9228371,"lon":121.1327259,"name":"彭厝","decorType":"bus_stop"},{"id":"node-7694477813","lat":24.922831,"lon":121.1324429,"name":"彭厝","decorType":"bus_stop"},{"id":"node-7694477814","lat":24.9257767,"lon":121.1297339,"name":"下彭厝","decorType":"bus_stop"},{"id":"node-7694477815","lat":24.9258423,"lon":121.1298653,"name":"下彭厝","decorType":"bus_stop"},{"id":"node-7694477825","lat":24.9293242,"lon":121.1272462,"name":"水尾","decorType":"bus_stop"},{"id":"node-7694477826","lat":24.9295261,"lon":121.1272971,"name":"水尾","decorType":"bus_stop"},{"id":"node-7694504295","lat":24.9133563,"lon":121.1452076,"name":"楊梅火車站 (楊新路)","decorType":"bus_stop"},{"id":"node-7694504296","lat":24.913228,"lon":121.1450098,"name":"楊梅火車站 (楊新路)","decorType":"bus_stop"},{"id":"node-7694504297","lat":24.9140959,"lon":121.1423363,"name":"水尾橋","decorType":"bus_stop"},{"id":"node-7694504298","lat":24.9142674,"lon":121.1423242,"name":"水尾橋","decorType":"bus_stop"},{"id":"node-7694504299","lat":24.9181887,"lon":121.1379066,"name":"水美國小","decorType":"bus_stop"},{"id":"node-7694504300","lat":24.918126,"lon":121.1377624,"name":"水美國小","decorType":"bus_stop"},{"id":"node-7694504304","lat":24.920013,"lon":121.1358105,"name":"建福新村","decorType":"bus_stop"},{"id":"node-7694504305","lat":24.9204351,"lon":121.1355811,"name":"建福新村","decorType":"bus_stop"},{"id":"node-7694541924","lat":24.907462,"lon":121.151657,"name":"85度CC","decorType":"cafe"},{"id":"node-7694541925","lat":24.9074413,"lon":121.1478214,"name":"民生報社","decorType":"bus_stop"},{"id":"node-7694541926","lat":24.9071713,"lon":121.1480011,"name":"民生報社","decorType":"bus_stop"},{"id":"node-7694541927","lat":24.9074091,"lon":121.1466265,"name":"全國電子","decorType":"electronics"},{"id":"node-7694541928","lat":24.9075982,"lon":121.1454959,"name":"楊梅區公所","decorType":"bus_stop"},{"id":"node-7694590105","lat":24.908401,"lon":121.1675423,"name":"燦坤3C","decorType":"electronics"},{"id":"node-7694590106","lat":24.9089399,"lon":121.1589351,"name":"萊爾富","decorType":"convenience"},{"id":"node-7700194980","lat":24.9129112,"lon":121.1505049,"name":"托啡熊精品咖啡烘焙坊","decorType":"cafe"},{"id":"node-7742455536","lat":24.8616248,"lon":121.1040907,"name":"鴛鴦池口","decorType":"bus_stop"},{"id":"node-7746460327","lat":24.9076294,"lon":121.0604185,"name":"水門","decorType":"bus_stop"},{"id":"node-7746460328","lat":24.907683,"lon":121.060382,"name":"水門","decorType":"bus_stop"},{"id":"node-7746460329","lat":24.9085574,"lon":121.0626247,"name":"劉厝","decorType":"bus_stop"},{"id":"node-7746460330","lat":24.9086219,"lon":121.0625697,"name":"劉厝","decorType":"bus_stop"},{"id":"node-7746460331","lat":24.9095579,"lon":121.0649246,"name":"下四湖","decorType":"bus_stop"},{"id":"node-7746460332","lat":24.9096362,"lon":121.0648721,"name":"下四湖","decorType":"bus_stop"},{"id":"node-7746460333","lat":24.9115096,"lon":121.0692115,"name":"四湖","decorType":"bus_stop"},{"id":"node-7746460334","lat":24.9115027,"lon":121.0698227,"name":"四湖","decorType":"bus_stop"},{"id":"node-7746460335","lat":24.9118209,"lon":121.072509,"name":"土牛坡","decorType":"bus_stop"},{"id":"node-7746460336","lat":24.9118906,"lon":121.072501,"name":"土牛坡","decorType":"bus_stop"},{"id":"node-7746460337","lat":24.9120948,"lon":121.0767731,"name":"周厝","decorType":"bus_stop"},{"id":"node-7746460338","lat":24.9121614,"lon":121.0767669,"name":"周厝","decorType":"bus_stop"},{"id":"node-7746460339","lat":24.9122157,"lon":121.079254,"name":"陳厝","decorType":"bus_stop"},{"id":"node-7746460340","lat":24.9122887,"lon":121.0792408,"name":"陳厝","decorType":"bus_stop"},{"id":"node-7746460348","lat":24.9124457,"lon":121.0839387,"name":"三元宮","decorType":"bus_stop"},{"id":"node-7746460349","lat":24.912517,"lon":121.0837988,"name":"三元宮","decorType":"bus_stop"},{"id":"node-7746460359","lat":24.9123916,"lon":121.0887564,"name":"上四湖","decorType":"bus_stop"},{"id":"node-7746460360","lat":24.9125018,"lon":121.0888248,"name":"上四湖","decorType":"bus_stop"},{"id":"node-7746460361","lat":24.912777,"lon":121.0945442,"name":"上湖","decorType":"bus_stop"},{"id":"node-7746460362","lat":24.9128329,"lon":121.0944733,"name":"上湖","decorType":"bus_stop"},{"id":"node-7746460363","lat":24.9143977,"lon":121.0997563,"name":"三湖","decorType":"bus_stop"},{"id":"node-7746460364","lat":24.9143356,"lon":121.1000018,"name":"三湖","decorType":"bus_stop"},{"id":"node-7746460365","lat":24.9142067,"lon":121.102027,"name":"彭厝","decorType":"bus_stop"},{"id":"node-7746460366","lat":24.9143067,"lon":121.1020225,"name":"彭厝","decorType":"bus_stop"},{"id":"node-7746460367","lat":24.91391,"lon":121.1043488,"name":"新和公司","decorType":"bus_stop"},{"id":"node-7746460368","lat":24.914006,"lon":121.1043031,"name":"新和公司","decorType":"bus_stop"},{"id":"node-7746460369","lat":24.9130477,"lon":121.1067184,"name":"二湖","decorType":"bus_stop"},{"id":"node-7746467391","lat":24.9119541,"lon":121.1110039,"name":"長坡","decorType":"bus_stop"},{"id":"node-7746467392","lat":24.912046,"lon":121.1111511,"name":"長坡","decorType":"bus_stop"},{"id":"node-7746467393","lat":24.9122841,"lon":121.1152144,"name":"紅坡","decorType":"bus_stop"},{"id":"node-7746467394","lat":24.9123961,"lon":121.115281,"name":"紅坡","decorType":"bus_stop"},{"id":"node-7746467414","lat":24.9111737,"lon":121.120031,"name":"頭湖","decorType":"bus_stop"},{"id":"node-7746467415","lat":24.9110785,"lon":121.1203632,"name":"頭湖","decorType":"bus_stop"},{"id":"node-7746467416","lat":24.9121612,"lon":121.1225309,"name":"泉水","decorType":"bus_stop"},{"id":"node-7746467417","lat":24.9122191,"lon":121.1228975,"name":"泉水","decorType":"bus_stop"},{"id":"node-7746467418","lat":24.9132071,"lon":121.1264096,"name":"惠普公司","decorType":"bus_stop"},{"id":"node-7746467419","lat":24.9131229,"lon":121.1264466,"name":"惠普公司","decorType":"bus_stop"},{"id":"node-7746467420","lat":24.9131011,"lon":121.1288605,"name":"厚恒公司","decorType":"bus_stop"},{"id":"node-7746467421","lat":24.9130028,"lon":121.1287228,"name":"厚恒公司","decorType":"bus_stop"},{"id":"node-7746467422","lat":24.9121103,"lon":121.1334992,"name":"嶺頭","decorType":"bus_stop"},{"id":"node-7746467423","lat":24.9119106,"lon":121.1338423,"name":"嶺頭","decorType":"bus_stop"},{"id":"node-7746467424","lat":24.911068,"lon":121.1359828,"name":"水美新村","decorType":"bus_stop"},{"id":"node-7746467425","lat":24.9110165,"lon":121.1361988,"name":"水美新村","decorType":"bus_stop"},{"id":"node-7746467426","lat":24.9092002,"lon":121.1395833,"name":"圓岡","decorType":"bus_stop"},{"id":"node-7746467427","lat":24.9091698,"lon":121.139499,"name":"圓岡","decorType":"bus_stop"},{"id":"node-7746467428","lat":24.9066426,"lon":121.1411586,"name":"錫褔宮","decorType":"bus_stop"},{"id":"node-7746467429","lat":24.9065664,"lon":121.1410675,"name":"錫褔宮","decorType":"bus_stop"},{"id":"node-7746467430","lat":24.9134168,"lon":121.1482963,"name":"楊梅站","decorType":"bus_stop"},{"id":"node-7746467431","lat":24.9269228,"lon":121.0615593,"name":"徐厝","decorType":"bus_stop"},{"id":"node-7746467432","lat":24.9269753,"lon":121.0614472,"name":"徐厝","decorType":"bus_stop"},{"id":"node-7746467433","lat":24.9292742,"lon":121.063962,"name":"石埤","decorType":"bus_stop"},{"id":"node-7746467434","lat":24.9293335,"lon":121.0638473,"name":"石埤","decorType":"bus_stop"},{"id":"node-7746467435","lat":24.9304986,"lon":121.0681095,"name":"下埤","decorType":"bus_stop"},{"id":"node-7746467436","lat":24.9305911,"lon":121.0681559,"name":"下埤","decorType":"bus_stop"},{"id":"node-7746467464","lat":24.9302928,"lon":121.0727491,"name":"水塔","decorType":"bus_stop"},{"id":"node-7746467465","lat":24.9304881,"lon":121.0728472,"name":"水塔","decorType":"bus_stop"},{"id":"node-7746467466","lat":24.9315796,"lon":121.075397,"name":"梅花新城","decorType":"bus_stop"},{"id":"node-7746467467","lat":24.9316634,"lon":121.0753483,"name":"梅花新城","decorType":"bus_stop"},{"id":"node-7746467468","lat":24.9355723,"lon":121.0803777,"name":"新明","decorType":"bus_stop"},{"id":"node-7746467469","lat":24.9355207,"lon":121.0805761,"name":"新明","decorType":"bus_stop"},{"id":"node-7746467471","lat":24.9364113,"lon":121.0821028,"name":"大井頭","decorType":"supermarket"},{"id":"node-7746467473","lat":24.9348003,"lon":121.0835301,"name":"富岡","decorType":"bus_stop"},{"id":"node-7746467474","lat":24.9346868,"lon":121.0833673,"name":"富岡","decorType":"bus_stop"},{"id":"node-7746467488","lat":24.9349639,"lon":121.0848252,"name":"富岡口","decorType":"bus_stop"},{"id":"node-7746467489","lat":24.9350276,"lon":121.0847743,"name":"富岡口","decorType":"bus_stop"},{"id":"node-7746467490","lat":24.9350664,"lon":121.0866526,"name":"福德","decorType":"bus_stop"},{"id":"node-7746467491","lat":24.934946,"lon":121.0866628,"name":"福德","decorType":"bus_stop"},{"id":"node-7746467492","lat":24.9343374,"lon":121.0912122,"name":"聯華公司","decorType":"bus_stop"},{"id":"node-7746467493","lat":24.9344468,"lon":121.0912743,"name":"聯華公司","decorType":"bus_stop"},{"id":"node-7746467494","lat":24.9331648,"lon":121.0936482,"name":"磚窯","decorType":"bus_stop"},{"id":"node-7746467495","lat":24.9332152,"lon":121.0937603,"name":"磚窯","decorType":"bus_stop"},{"id":"node-7746467496","lat":24.9322319,"lon":121.0956395,"name":"清龍新村","decorType":"bus_stop"},{"id":"node-7746467497","lat":24.9321442,"lon":121.095568,"name":"清龍新村","decorType":"bus_stop"},{"id":"node-7746467498","lat":24.9303654,"lon":121.0992165,"name":"富東","decorType":"bus_stop"},{"id":"node-7746467499","lat":24.9304802,"lon":121.0992224,"name":"富東","decorType":"bus_stop"},