{"bbox":{"south":25.078125,"north":25.3,"west":121.8375,"east":121.96875},"pois":[{"id":"node-10066804430","lat":25.126912,"lon":121.922401,"name":"鼻頭角山","decorType":"mountain"},{"id":"node-10300157009","lat":25.107324,"lon":121.845736,"name":"神隱國度","decorType":"hotel"},{"id":"node-10784468988","lat":25.084461,"lon":121.877605,"name":"草山南峰","decorType":"mountain"},{"id":"node-10802153990","lat":25.124031,"lon":121.914149,"name":"7-Eleven","decorType":"convenience"},{"id":"node-10901598486","lat":25.084999,"lon":121.84452,"name":"三貂崙","decorType":"mountain"},{"id":"node-10990524731","lat":25.106529,"lon":121.846706,"name":"福山宮","decorType":"bus_stop"},{"id":"node-11143512950","lat":25.114213,"lon":121.869632,"name":"未命名山丘","decorType":"mountain"},{"id":"node-11180476608","lat":25.115932,"lon":121.863295,"name":"未命名山丘","decorType":"mountain"},{"id":"node-11404879169","lat":25.108736,"lon":121.845117,"name":"Wow Box Inn (Entrance via Old Street)","decorType":"hotel"},{"id":"node-11404921169","lat":25.108544,"lon":121.845164,"name":"慈鴻素食","decorType":"restaurant"},{"id":"node-11413924112","lat":25.107691,"lon":121.846947,"name":"福山宮一","decorType":"bus_stop"},{"id":"node-11413924113","lat":25.107739,"lon":121.846829,"name":"福山宮一","decorType":"bus_stop"},{"id":"node-11419711179","lat":25.125963,"lon":121.850486,"name":"海濱路三巷","decorType":"bus_stop"},{"id":"node-11422453469","lat":25.106789,"lon":121.851724,"name":"食不厭","decorType":"restaurant"},{"id":"node-11693378569","lat":25.108008,"lon":121.84387,"name":"Niandai Beef Noodles","decorType":"restaurant"},{"id":"node-11809878739","lat":25.108365,"lon":121.84399,"name":"賴阿婆芋圓","decorType":"restaurant"},{"id":"node-12027950660","lat":25.102285,"lon":121.840282,"name":"未命名山丘","decorType":"mountain"},{"id":"node-12027950665","lat":25.07919,"lon":121.869077,"name":"未命名山丘","decorType":"mountain"},{"id":"node-12029688602","lat":25.111884,"lon":121.919358,"name":"歐夫寇斯","decorType":"hotel"},{"id":"node-12091117779","lat":25.1102,"lon":121.845365,"name":"全家便利商店","decorType":"convenience"},{"id":"node-12165531413","lat":25.117503,"lon":121.884983,"name":"南子吝山東南峰","decorType":"mountain"},{"id":"node-12513708801","lat":25.108909,"lon":121.840806,"name":"未命名飯店","decorType":"hotel"},{"id":"node-12778493146","lat":25.112666,"lon":121.850877,"name":"山尖步道","decorType":"bus_stop"},{"id":"node-12778493148","lat":25.111945,"lon":121.848158,"name":"隔頂","decorType":"bus_stop"},{"id":"node-12809342201","lat":25.107116,"lon":121.843838,"name":"拾光書院","decorType":"hotel"},{"id":"node-12814778701","lat":25.109869,"lon":121.859594,"name":"彩虹梯蔥油餅","decorType":"restaurant"},{"id":"node-12814778801","lat":25.106766,"lon":121.845455,"name":"Twilight Cafe","decorType":"cafe"},{"id":"node-13062847735","lat":25.109651,"lon":121.845246,"name":"金采的","decorType":"burger"},{"id":"node-13062913728","lat":25.108404,"lon":121.843939,"name":"未命名郵局","decorType":"post_office"},{"id":"node-13062970085","lat":25.108801,"lon":121.844784,"name":"百年老屋","decorType":"restaurant"},{"id":"node-13062984521","lat":25.108425,"lon":121.843373,"name":"海悦樓","decorType":"cafe"},{"id":"node-13169118001","lat":25.125009,"lon":121.915658,"name":"鼻頭1號","decorType":"cafe"},{"id":"node-13372706899","lat":25.110446,"lon":121.854563,"name":"石山","decorType":"bus_stop"},{"id":"node-13423767482","lat":25.124377,"lon":121.861156,"name":"萊爾富","decorType":"convenience"},{"id":"node-2071356259","lat":25.108535,"lon":121.843663,"name":"阿妹茶樓","decorType":"restaurant"},{"id":"node-2077450615","lat":25.106222,"lon":121.84684,"name":"福山宮","decorType":"bus_stop"},{"id":"node-2077454205","lat":25.111976,"lon":121.848213,"name":"隔頂","decorType":"bus_stop"},{"id":"node-2078146119","lat":25.109501,"lon":121.842862,"name":"九份派出所","decorType":"bus_stop"},{"id":"node-2078146121","lat":25.109458,"lon":121.842623,"name":"九份派出所","decorType":"bus_stop"},{"id":"node-2078184567","lat":25.108462,"lon":121.856117,"name":"金瓜石(黃金博物館)","decorType":"bus_stop"},{"id":"node-2078192954","lat":25.110804,"lon":121.859487,"name":"勸濟堂","decorType":"bus_stop"},{"id":"node-2079679446","lat":25.118912,"lon":121.849214,"name":"基隆山","decorType":"mountain"},{"id":"node-2194118416","lat":25.09197,"lon":121.91643,"name":"未命名山丘","decorType":"mountain"},{"id":"node-2268440741","lat":25.093025,"lon":121.865633,"name":"燦光寮山","decorType":"mountain"},{"id":"node-2291348648","lat":25.109737,"lon":121.845348,"name":"7-Eleven","decorType":"convenience"},{"id":"node-2383920461","lat":25.122298,"lon":121.864168,"name":"水湳洞","decorType":"bus_stop"},{"id":"node-2383920462","lat":25.122109,"lon":121.863543,"name":"水湳洞","decorType":"bus_stop"},{"id":"node-2482610611","lat":25.100977,"lon":121.907711,"name":"蚊子坑山","decorType":"mountain"},{"id":"node-2482624445","lat":25.094417,"lon":121.875801,"name":"草山","decorType":"mountain"},{"id":"node-2482632010","lat":25.101235,"lon":121.895756,"name":"紅毛山","decorType":"mountain"},{"id":"node-2482632056","lat":25.120923,"lon":121.881665,"name":"南子吝山","decorType":"mountain"},{"id":"node-2482644232","lat":25.09964,"lon":121.843856,"name":"金瓜石山","decorType":"mountain"},{"id":"node-2687896981","lat":25.120139,"lon":121.855283,"name":"基隆山東峰","decorType":"mountain"},{"id":"node-2688466746","lat":25.123418,"lon":121.919638,"name":"鼻頭山","decorType":"mountain"},{"id":"node-2769117087","lat":25.10276,"lon":121.839142,"name":"小粗坑山","decorType":"mountain"},{"id":"node-2769117127","lat":25.099806,"lon":121.838174,"name":"未命名神社","decorType":"shrine"},{"id":"node-2806178243","lat":25.108155,"lon":121.843534,"name":"九份茶坊","decorType":"cafe"},{"id":"node-2806184801","lat":25.10824,"lon":121.843548,"name":"九份藝術館","decorType":"art_gallery"},{"id":"node-2806184802","lat":25.108308,"lon":121.843466,"name":"陶工坊","decorType":"art_gallery"},{"id":"node-2864143769","lat":25.120826,"lon":121.888037,"name":"南雅南新宮","decorType":"bus_stop"},{"id":"node-2864197220","lat":25.113629,"lon":121.899358,"name":"南雅山","decorType":"mountain"},{"id":"node-2879729039","lat":25.108667,"lon":121.843767,"name":"芋仔番薯茶坊","decorType":"restaurant"},{"id":"node-2879969392","lat":25.110286,"lon":121.845991,"name":"九份老街","decorType":"bus_stop"},{"id":"node-2880026584","lat":25.11366,"lon":121.859629,"name":"報時山","decorType":"mountain"},{"id":"node-2882817312","lat":25.110301,"lon":121.866227,"name":"煙囪山","decorType":"mountain"},{"id":"node-2993467443","lat":25.108092,"lon":121.857283,"name":"煉金文創咖啡","decorType":"cafe"},{"id":"node-2993481244","lat":25.107992,"lon":121.858125,"name":"礦工食堂","decorType":"restaurant"},{"id":"node-2997066266","lat":25.112042,"lon":121.848067,"name":"隔頂","decorType":"bus_stop"},{"id":"node-2997086568","lat":25.111145,"lon":121.859652,"name":"勸濟堂","decorType":"bus_stop"},{"id":"node-3039353944","lat":25.104716,"lon":121.919725,"name":"佛祖廟","decorType":"bus_stop"},{"id":"node-3039353945","lat":25.104866,"lon":121.919995,"name":"佛祖廟","decorType":"bus_stop"},{"id":"node-3039353946","lat":25.090374,"lon":121.912755,"name":"北勢坑口","decorType":"bus_stop"},{"id":"node-3039353947","lat":25.090798,"lon":121.91337,"name":"北勢坑口","decorType":"bus_stop"},{"id":"node-3039353948","lat":25.083072,"lon":121.914016,"name":"和美","decorType":"bus_stop"},{"id":"node-3039353949","lat":25.083144,"lon":121.913838,"name":"和美","decorType":"bus_stop"},{"id":"node-3039354021","lat":25.099396,"lon":121.916991,"name":"龍洞南口海洋公園","decorType":"bus_stop"},{"id":"node-3039354022","lat":25.100141,"lon":121.917316,"name":"龍洞南口海洋公園","decorType":"bus_stop"},{"id":"node-3039360213","lat":25.11426,"lon":121.912695,"name":"龍洞","decorType":"bus_stop"},{"id":"node-3039360214","lat":25.114328,"lon":121.912546,"name":"龍洞","decorType":"bus_stop"},{"id":"node-3039360215","lat":25.110911,"lon":121.915822,"name":"龍洞港","decorType":"bus_stop"},{"id":"node-3039360216","lat":25.111127,"lon":121.915889,"name":"龍洞港","decorType":"bus_stop"},{"id":"node-3039360217","lat":25.11746,"lon":121.91624,"name":"龍洞灣公園","decorType":"bus_stop"},{"id":"node-3039360218","lat":25.117604,"lon":121.916182,"name":"龍洞灣公園","decorType":"bus_stop"},{"id":"node-3039397881","lat":25.120631,"lon":121.888135,"name":"南雅南新宮","decorType":"bus_stop"},{"id":"node-3039397882","lat":25.122943,"lon":121.876016,"name":"台金公司","decorType":"bus_stop"},{"id":"node-3039397883","lat":25.123246,"lon":121.875775,"name":"台金公司","decorType":"bus_stop"},{"id":"node-3039397884","lat":25.122864,"lon":121.863236,"name":"陰陽海","decorType":"bus_stop"},{"id":"node-3039397887","lat":25.124506,"lon":121.86125,"name":"玄明宮","decorType":"bus_stop"},{"id":"node-3039397901","lat":25.121782,"lon":121.866728,"name":"船塢","decorType":"bus_stop"},{"id":"node-3039397902","lat":25.12202,"lon":121.86671,"name":"船塢","decorType":"bus_stop"},{"id":"node-3039397903","lat":25.124086,"lon":121.913584,"name":"鼻頭","decorType":"bus_stop"},{"id":"node-3039397904","lat":25.121527,"lon":121.916819,"name":"鼻頭角","decorType":"bus_stop"},{"id":"node-3039397905","lat":25.121702,"lon":121.916887,"name":"鼻頭角","decorType":"bus_stop"},{"id":"node-3150162543","lat":25.106363,"lon":121.865935,"name":"無耳茶壺山","decorType":"mountain"},{"id":"node-3287089093","lat":25.109015,"lon":121.845583,"name":"途中．九份 國際青年旅舍","decorType":"hotel"},{"id":"node-3407335926","lat":25.106921,"lon":121.841759,"name":"九份柳園民宿 Liu House","decorType":"hotel"},{"id":"node-3407340567","lat":25.107014,"lon":121.841738,"name":"喝杯咖啡 Her back Cafe","decorType":"cafe"},{"id":"node-4113556341","lat":25.092902,"lon":121.852663,"name":"牡丹山","decorType":"mountain"},{"id":"node-4113611406","lat":25.121388,"lon":121.88225,"name":"南子吝山東峰","decorType":"mountain"},{"id":"node-4198083024","lat":25.116152,"lon":121.861919,"name":"水螺山","decorType":"mountain"},{"id":"node-4201346296","lat":25.107266,"lon":121.872111,"name":"555峰","decorType":"mountain"},{"id":"node-4201346297","lat":25.109997,"lon":121.894962,"name":"苦苓嶺","decorType":"mountain"},{"id":"node-4227950893","lat":25.107816,"lon":121.84311,"name":"九份觀海樓","decorType":"restaurant"},{"id":"node-4400785155","lat":25.080652,"lon":121.854631,"name":"十三層老樹","decorType":"bus_stop"},{"id":"node-4450109491","lat":25.117791,"lon":121.861733,"name":"黃金瀑布","decorType":"bus_stop"},{"id":"node-4499791642","lat":25.117525,"lon":121.841788,"name":"基隆山西峰","decorType":"mountain"},{"id":"node-4524105553","lat":25.119089,"lon":121.893581,"name":"老鷹岩","decorType":"mountain"},{"id":"node-4524105554","lat":25.116316,"lon":121.901881,"name":"門牙岩","decorType":"mountain"},{"id":"node-4572252792","lat":25.108645,"lon":121.852235,"name":"Adagio stone house","decorType":"hotel"},{"id":"node-4789287823","lat":25.106758,"lon":121.851756,"name":"台北市食不厭","decorType":"hotel"},{"id":"node-4789626127","lat":25.108371,"lon":121.855899,"name":"金瓜石(黃金博物館)","decorType":"bus_stop"},{"id":"node-4789626128","lat":25.106541,"lon":121.855507,"name":"瓜山站","decorType":"bus_stop"},{"id":"node-4789637021","lat":25.107299,"lon":121.853176,"name":"新山","decorType":"bus_stop"},{"id":"node-4789637121","lat":25.107699,"lon":121.850127,"name":"金瓜橋頭","decorType":"bus_stop"},{"id":"node-4789637122","lat":25.110021,"lon":121.845405,"name":"分子冰琪淋","decorType":"cafe"},{"id":"node-4791258221","lat":25.106862,"lon":121.851967,"name":"保民宮","decorType":"bus_stop"},{"id":"node-4794578022","lat":25.121024,"lon":121.918648,"name":"燈塔小鋪","decorType":"cafe"},{"id":"node-4794578023","lat":25.124646,"lon":121.916806,"name":"阿春姨五十年古早味老店","decorType":"restaurant"},{"id":"node-4810723023","lat":25.106298,"lon":121.841165,"name":"林園村莊民宿九份山城","decorType":"hotel"},{"id":"node-4845964323","lat":25.109648,"lon":121.845319,"name":"九份22号咖啡旅社","decorType":"hotel"},{"id":"node-4850713024","lat":25.10951,"lon":121.843002,"name":"九份故事楼民宿","decorType":"hotel"},{"id":"node-4883106321","lat":25.107759,"lon":121.845196,"name":"溫莎堡民宿(老舍)","decorType":"hotel"},{"id":"node-4886170121","lat":25.107735,"lon":121.84365,"name":"九份阿柑姨芋圓","decorType":"restaurant"},{"id":"node-4891527261","lat":25.120272,"lon":121.868165,"name":"威遠廟","decorType":"shrine"},{"id":"node-5110580399","lat":25.087793,"lon":121.912055,"name":"和美1號橋","decorType":"bus_stop"},{"id":"node-5110580400","lat":25.091037,"lon":121.914866,"name":"未命名神社","decorType":"shrine"},{"id":"node-5110580401","lat":25.09524,"lon":121.916765,"name":"未命名神社","decorType":"shrine"},{"id":"node-5110580402","lat":25.121647,"lon":121.916989,"name":"藍姑娘廟","decorType":"shrine"},{"id":"node-5110580404","lat":25.120957,"lon":121.868749,"name":"威遠廟","decorType":"bus_stop"},{"id":"node-5110580405","lat":25.122166,"lon":121.86384,"name":"水湳洞","decorType":"bus_stop"},{"id":"node-5110580406","lat":25.12023,"lon":121.8619,"name":"茹川橋","decorType":"bus_stop"},{"id":"node-5110580407","lat":25.119772,"lon":121.861743,"name":"茹川橋","decorType":"bus_stop"},{"id":"node-5110580408","lat":25.117797,"lon":121.861538,"name":"黃金瀑布","decorType":"bus_stop"},{"id":"node-5110580409","lat":25.111286,"lon":121.856703,"name":"瓜山國小(戰俘營)","decorType":"bus_stop"},{"id":"node-5110580410","lat":25.110466,"lon":121.854722,"name":"石山","decorType":"bus_stop"},{"id":"node-5110580413","lat":25.106685,"lon":121.855465,"name":"瓜山站","decorType":"bus_stop"},{"id":"node-5110580414","lat":25.10672,"lon":121.851964,"name":"保民宮","decorType":"bus_stop"},{"id":"node-5110580415","lat":25.109902,"lon":121.849837,"name":"南新山","decorType":"bus_stop"},{"id":"node-5110580416","lat":25.110346,"lon":121.84574,"name":"九份老街","decorType":"bus_stop"},{"id":"node-5110580417","lat":25.11108,"lon":121.846018,"name":"喜來園景觀民宿","decorType":"hotel"},{"id":"node-5110580418","lat":25.110689,"lon":121.845308,"name":"代天府","decorType":"bus_stop"},{"id":"node-5110580419","lat":25.108677,"lon":121.841073,"name":"大竿林","decorType":"bus_stop"},{"id":"node-5110580420","lat":25.110036,"lon":121.838862,"name":"七番坑","decorType":"bus_stop"},{"id":"node-5110581221","lat":25.109952,"lon":121.838945,"name":"七番坑","decorType":"bus_stop"},{"id":"node-5110978053","lat":25.088193,"lon":121.912319,"name":"和美1號橋","decorType":"bus_stop"},{"id":"node-5389558575","lat":25.107735,"lon":121.84224,"name":"九份金礦博物館","decorType":"art_gallery"},{"id":"node-5468483041","lat":25.110046,"lon":121.867496,"name":"復興山","decorType":"mountain"},{"id":"node-5468755155","lat":25.113143,"lon":121.881025,"name":"保羅尖","decorType":"mountain"},{"id":"node-5531077320","lat":25.126133,"lon":121.849435,"name":"海濱路三巷","decorType":"bus_stop"},{"id":"node-5536046526","lat":25.124029,"lon":121.913961,"name":"鼻頭","decorType":"bus_stop"},{"id":"node-5542923537","lat":25.093115,"lon":121.861077,"name":"福德祠","decorType":"shrine"},{"id":"node-5603128333","lat":25.109226,"lon":121.843613,"name":"未命名餐廳","decorType":"restaurant"},{"id":"node-6115945169","lat":25.118434,"lon":121.881125,"name":"景觀點","decorType":"mountain"},{"id":"node-6115945170","lat":25.121752,"lon":121.882386,"name":"未命名山丘","decorType":"mountain"},{"id":"node-6159112217","lat":25.108427,"lon":121.843891,"name":"未命名郵局","decorType":"post_office"},{"id":"node-6159112218","lat":25.107565,"lon":121.842968,"name":"金山岩","decorType":"shrine"},{"id":"node-6159112219","lat":25.1074,"lon":121.842703,"name":"未命名郵局","decorType":"post_office"},{"id":"node-6255951209","lat":25.109875,"lon":121.849778,"name":"南新山","decorType":"bus_stop"},{"id":"node-6255951211","lat":25.108849,"lon":121.840966,"name":"大竿林","decorType":"bus_stop"},{"id":"node-6255951212","lat":25.107816,"lon":121.850213,"name":"金瓜橋頭","decorType":"bus_stop"},{"id":"node-6255951213","lat":25.107928,"lon":121.85126,"name":"六號橋","decorType":"bus_stop"},{"id":"node-6255951214","lat":25.107894,"lon":121.850986,"name":"六號橋","decorType":"bus_stop"},{"id":"node-6255951215","lat":25.110598,"lon":121.845244,"name":"代天府","decorType":"bus_stop"},{"id":"node-6256165437","lat":25.107282,"lon":121.853329,"name":"新山","decorType":"bus_stop"},{"id":"node-6326558201","lat":25.111991,"lon":121.86035,"name":"金瓜石砲台(雲長山)","decorType":"mountain"},{"id":"node-6327210125","lat":25.101627,"lon":121.868384,"name":"半屏山","decorType":"mountain"},{"id":"node-6335130468","lat":25.103701,"lon":121.847858,"name":"九份大眾廟","decorType":"shrine"},{"id":"node-6430986481","lat":25.107336,"lon":121.868391,"name":"黃金台","decorType":"mountain"},{"id":"node-6453580966","lat":25.114902,"lon":121.844623,"name":"未命名森林","decorType":"forest"},{"id":"node-6466685585","lat":25.111376,"lon":121.876069,"name":"381峰","decorType":"mountain"},{"id":"node-6466685586","lat":25.109886,"lon":121.875003,"name":"龍牙岩","decorType":"mountain"},{"id":"node-6475657732","lat":25.099054,"lon":121.854192,"name":"百年土地公廟","decorType":"shrine"},{"id":"node-6482212553","lat":25.099009,"lon":121.854203,"name":"福德正神碑","decorType":"shrine"},{"id":"node-6482249906","lat":25.093703,"lon":121.845216,"name":"有應祠","decorType":"shrine"},{"id":"node-6616775585","lat":25.108597,"lon":121.844456,"name":"未命名餐廳","decorType":"restaurant"},{"id":"node-6734905604","lat":25.10817,"lon":121.843331,"name":"山海觀","decorType":"restaurant"},{"id":"node-6734905613","lat":25.109722,"lon":121.844892,"name":"配夜","decorType":"restaurant"},{"id":"node-6734905626","lat":25.109235,"lon":121.843682,"name":"山之細道","decorType":"restaurant"},{"id":"node-6792205739","lat":25.110177,"lon":121.858061,"name":"未命名公園","decorType":"park"},{"id":"node-6794354109","lat":25.122007,"lon":121.915286,"name":"The Bivy","decorType":"hotel"},{"id":"node-6794573760","lat":25.109158,"lon":121.84405,"name":"琚九屋","decorType":"hotel"},{"id":"node-6794573761","lat":25.110146,"lon":121.844973,"name":"CHLIV","decorType":"cafe"},{"id":"node-6794573762","lat":25.110085,"lon":121.844961,"name":"酉時暮光","decorType":"cafe"},{"id":"node-6954578581","lat":25.110778,"lon":121.842056,"name":"陽光味宿","decorType":"hotel"},{"id":"node-6957537985","lat":25.110828,"lon":121.842593,"name":"Sunny Room","decorType":"hotel"},{"id":"node-6961392089","lat":25.107618,"lon":121.844627,"name":"九份惠風民宿","decorType":"hotel"},{"id":"node-7008824586","lat":25.108682,"lon":121.844388,"name":"阿蘭草仔粿","decorType":"sweetshop"},{"id":"node-7008824587","lat":25.108094,"lon":121.843328,"name":"護理長的店滷味","decorType":"burger"},{"id":"node-7014045688","lat":25.109113,"lon":121.845517,"name":"米詩堤甜點王國","decorType":"sweetshop"},{"id":"node-7136029992","lat":25.108648,"lon":121.857355,"name":"全家便利商店","decorType":"convenience"},{"id":"node-8432400482","lat":25.118002,"lon":121.866118,"name":"長仁社區(新巴士)","decorType":"bus_stop"},{"id":"node-8432400630","lat":25.123265,"lon":121.86129,"name":"職員宿舍觀景台","decorType":"bus_stop"},{"id":"node-8432400640","lat":25.111675,"lon":121.915569,"name":"龍洞漁港","decorType":"bus_stop"},{"id":"node-8432400913","lat":25.112353,"lon":121.919128,"name":"和美國小","decorType":"bus_stop"},{"id":"node-8432401546","lat":25.114288,"lon":121.912488,"name":"龍洞","decorType":"bus_stop"},{"id":"node-8432401583","lat":25.115258,"lon":121.855085,"name":"福興宮","decorType":"bus_stop"},{"id":"node-8432401586","lat":25.116113,"lon":121.854671,"name":"石山社區","decorType":"bus_stop"},{"id":"node-8432401587","lat":25.111329,"lon":121.856814,"name":"瓜山國小(戰俘營)","decorType":"bus_stop"},{"id":"node-8432401590","lat":25.109506,"lon":121.84264,"name":"九份派出所","decorType":"bus_stop"},{"id":"node-8432401591","lat":25.109525,"lon":121.842889,"name":"九份派出所","decorType":"bus_stop"},{"id":"node-8837114617","lat":25.101213,"lon":121.918283,"name":"龍洞四季灣","decorType":"hotel"},{"id":"node-8862669360","lat":25.080581,"lon":121.84086,"name":"三貂嶺山","decorType":"mountain"},{"id":"node-8862669361","lat":25.113828,"lon":121.897501,"name":"南雅山西峰","decorType":"mountain"},{"id":"node-9197126503","lat":25.080579,"lon":121.870021,"name":"大牛埔山","decorType":"mountain"},{"id":"node-9950430367","lat":25.115073,"lon":121.855317,"name":"土地公廟","decorType":"shrine"},{"id":"node-9979395800","lat":25.104745,"lon":121.865537,"name":"金老二","decorType":"mountain"},{"id":"way-1003838136","lat":25.086808,"lon":121.867187,"name":"燦光寮古道","decorType":"bridge"},{"id":"way-1003838138","lat":25.085237,"lon":121.865306,"name":"燦光寮古道","decorType":"bridge"},{"id":"way-1003838140","lat":25.08501,"lon":121.86485,"name":"燦光寮古道","decorType":"bridge"},{"id":"way-1039615779","lat":25.107748,"lon":121.841808,"name":"未命名橋樑","decorType":"bridge"},{"id":"way-1039615781","lat":25.108251,"lon":121.841906,"name":"大竿林橋","decorType":"bridge"},{"id":"way-1058554001","lat":25.122149,"lon":121.866666,"name":"未命名水邊","decorType":"waterside"},{"id":"way-1058554002","lat":25.121922,"lon":121.866675,"name":"未命名水邊","decorType":"waterside"},{"id":"way-1058554004","lat":25.120932,"lon":121.866755,"name":"未命名橋樑","decorType":"bridge"},{"id":"way-1058554006","lat":25.120043,"lon":121.867002,"name":"未命名橋樑","decorType":"bridge"},{"id":"way-1058554008","lat":25.119068,"lon":121.867559,"name":"未命名橋樑","decorType":"bridge"},{"id":"way-1058554010","lat":25.117791,"lon":121.868108,"name":"未命名橋樑","decorType":"bridge"},{"id":"way-1058554012","lat":25.117564,"lon":121.86815,"name":"未命名橋樑","decorType":"bridge"},{"id":"way-1058554014","lat":25.123181,"lon":121.870738,"name":"樂利橋","decorType":"bridge"},{"id":"way-1058554017","lat":25.123566,"lon":121.869011,"name":"未命名山丘","decorType":"mountain"},{"id":"way-1058554018","lat":25.124391,"lon":121.869932,"name":"未命名山丘","decorType":"mountain"},{"id":"way-1076866786","lat":25.106001,"lon":121.842454,"name":"未命名水邊","decorType":"waterside"},{"id":"way-1076866789","lat":25.10746,"lon":121.841574,"name":"未命名水邊","decorType":"waterside"},{"id":"way-1076874203","lat":25.111729,"lon":121.838178,"name":"未命名水邊","decorType":"waterside"},{"id":"way-1084603818","lat":25.104764,"lon":121.859343,"name":"未命名水邊","decorType":"waterside"},{"id":"way-1085949800","lat":25.109921,"lon":121.858641,"name":"洗衣亭","decorType":"laundry"},{"id":"way-1085949806","lat":25.111485,"lon":121.857601,"name":"瓜山橋","decorType":"bridge"},{"id":"way-1086559397","lat":25.111488,"lon":121.844314,"name":"九份星塵餐廳","decorType":"restaurant"},{"id":"way-1090167951","lat":25.104125,"lon":121.865707,"name":"未命名水邊","decorType":"waterside"},{"id":"way-1093278241","lat":25.105552,"lon":121.862385,"name":"未命名水邊","decorType":"waterside"},{"id":"way-1126140057","lat":25.124987,"lon":121.837799,"name":"未命名水邊","decorType":"waterside"},{"id":"way-1149342890","lat":25.07884,"lon":121.892095,"name":"未命名水邊","decorType":"waterside"},{"id":"way-1154051112","lat":25.081835,"lon":121.91409,"name":"和美二號橋","decorType":"bridge"},{"id":"way-1156314642","lat":25.11141,"lon":121.869831,"name":"未命名水邊","decorType":"waterside"},{"id":"way-1176835235","lat":25.105553,"lon":121.860969,"name":"廢棄蓄水池","decorType":"waterside"},{"id":"way-1181241258","lat":25.115209,"lon":121.913897,"name":"龍洞地質公園","decorType":"park"},{"id":"way-1181241261","lat":25.11562,"lon":121.914123,"name":"未命名橋樑","decorType":"bridge"},{"id":"way-1184114698","lat":25.082569,"lon":121.911165,"name":"未命名橋樑","decorType":"bridge"},{"id":"way-1185498665","lat":25.10886,"lon":121.857828,"name":"共學館","decorType":"art_gallery"},{"id":"way-1197110059","lat":25.126682,"lon":121.919314,"name":"鼻頭角稜谷步道","decorType":"bridge"},{"id":"way-1197186063","lat":25.119645,"lon":121.861923,"name":"未命名橋樑","decorType":"bridge"},{"id":"way-1197186068","lat":25.115241,"lon":121.864855,"name":"未命名水邊","decorType":"waterside"},{"id":"way-1197186069","lat":25.117114,"lon":121.864432,"name":"未命名水邊","decorType":"waterside"},{"id":"way-1206545156","lat":25.112179,"lon":121.853728,"name":"未命名橋樑","decorType":"bridge"},{"id":"way-1227275763","lat":25.107583,"lon":121.841852,"name":"未命名橋樑","decorType":"bridge"},{"id":"way-1227324092","lat":25.108406,"lon":121.842768,"name":"未命名森林","decorType":"forest"},{"id":"way-1227324093","lat":25.108035,"lon":121.841882,"name":"未命名森林","decorType":"forest"},{"id":"way-1227324094","lat":25.10823,"lon":121.838459,"name":"未命名森林","decorType":"forest"},{"id":"way-1227324095","lat":25.104797,"lon":121.845521,"name":"未命名森林","decorType":"forest"},{"id":"way-1227324096","lat":25.104591,"lon":121.845624,"name":"未命名森林","decorType":"forest"},{"id":"way-1227324097","lat":25.104316,"lon":121.845812,"name":"未命名森林","decorType":"forest"},{"id":"way-1227324098","lat":25.10626,"lon":121.850449,"name":"未命名森林","decorType":"forest"},{"id":"way-1227324099","lat":25.106201,"lon":121.848463,"name":"未命名森林","decorType":"forest"},{"id":"way-1227324100","lat":25.105185,"lon":121.849173,"name":"未命名森林","decorType":"forest"},{"id":"way-1227324101","lat":25.107493,"lon":121.851769,"name":"未命名森林","decorType":"forest"},{"id":"way-1227324102","lat":25.107811,"lon":121.850709,"name":"未命名森林","decorType":"forest"},{"id":"way-1229640043","lat":25.088428,"lon":121.855612,"name":"未命名水邊","decorType":"waterside"},{"id":"way-1230264132","lat":25.088455,"lon":121.912192,"name":"和美一號橋","decorType":"bridge"},{"id":"way-1230787651","lat":25.120771,"lon":121.887793,"name":"水南橋","decorType":"bridge"},{"id":"way-1231058490","lat":25.11057,"lon":121.840647,"name":"未命名水邊","decorType":"waterside"},{"id":"way-1231060863","lat":25.126446,"lon":121.839769,"name":"未命名水邊","decorType":"waterside"},{"id":"way-1237415967","lat":25.097157,"lon":121.854836,"name":"未命名水邊","decorType":"waterside"},{"id":"way-1274039884","lat":25.106213,"lon":121.859534,"name":"未命名橋樑","decorType":"bridge"},{"id":"way-1341355340","lat":25.120437,"lon":121.888111,"name":"南雅南新宮","decorType":"shrine"},{"id":"way-1347070788","lat":25.106578,"lon":121.85331,"name":"未命名森林","decorType":"forest"},{"id":"way-1347070789","lat":25.107162,"lon":121.852755,"name":"未命名森林","decorType":"forest"},{"id":"way-1351817352","lat":25.111972,"lon":121.848244,"name":"未命名橋樑","decorType":"bridge"},{"id":"way-1380272547","lat":25.113098,"lon":121.854848,"name":"石在幸福水岸石頭公園","decorType":"park"},{"id":"way-1380272552","lat":25.112766,"lon":121.852754,"name":"未命名橋樑","decorType":"bridge"},{"id":"way-1380667724","lat":25.12257,"lon":121.863681,"name":"安和橋","decorType":"bridge"},{"id":"way-1380667725","lat":25.122255,"lon":121.864187,"name":"未命名橋樑","decorType":"bridge"},{"id":"way-1413463748","lat":25.122735,"lon":121.860742,"name":"台電金水基地","decorType":"art_gallery"},{"id":"way-1433692043","lat":25.102298,"lon":121.851958,"name":"未命名水邊","decorType":"waterside"},{"id":"way-1433692044","lat":25.102642,"lon":121.852432,"name":"未命名水邊","decorType":"waterside"},{"id":"way-1433692045","lat":25.106696,"lon":121.8547,"name":"未命名水邊","decorType":"waterside"},{"id":"way-1433692046","lat":25.106367,"lon":121.854554,"name":"未命名水邊","decorType":"waterside"},{"id":"way-1433692048","lat":25.106606,"lon":121.8554,"name":"金瓜石橋","decorType":"bridge"},{"id":"way-1433692049","lat":25.103917,"lon":121.854953,"name":"九份溪","decorType":"waterside"},{"id":"way-1433692050","lat":25.108674,"lon":121.854386,"name":"九份溪","decorType":"waterside"},{"id":"way-1433692051","lat":25.10786,"lon":121.854656,"name":"九份溪","decorType":"waterside"},{"id":"way-1433692052","lat":25.107056,"lon":121.854847,"name":"九份溪","decorType":"waterside"},{"id":"way-1433692053","lat":25.09929,"lon":121.854575,"name":"九份溪","decorType":"waterside"},{"id":"way-1433692054","lat":25.100781,"lon":121.85468,"name":"九份溪","decorType":"waterside"},{"id":"way-1434447546","lat":25.105962,"lon":121.890405,"name":"石梯坑溪","decorType":"waterside"},{"id":"way-1434447547","lat":25.107945,"lon":121.891341,"name":"石梯坑溪","decorType":"waterside"},{"id":"way-1434447548","lat":25.119236,"lon":121.89275,"name":"石梯坑溪","decorType":"waterside"},{"id":"way-1434447549","lat":25.118319,"lon":121.89279,"name":"石梯坑溪","decorType":"waterside"},{"id":"way-1434447550","lat":25.117361,"lon":121.892948,"name":"石梯坑溪","decorType":"waterside"},{"id":"way-1434447551","lat":25.116374,"lon":121.893189,"name":"石梯坑溪","decorType":"waterside"},{"id":"way-1434447552","lat":25.115861,"lon":121.893253,"name":"石梯坑溪","decorType":"waterside"},{"id":"way-1434447553","lat":25.115379,"lon":121.893344,"name":"石梯坑溪","decorType":"waterside"},{"id":"way-1434447554","lat":25.1168,"lon":121.886171,"name":"未命名水邊","decorType":"waterside"},{"id":"way-1434447555","lat":25.117938,"lon":121.88604,"name":"未命名水邊","decorType":"waterside"},{"id":"way-1434447556","lat":25.118078,"lon":121.886012,"name":"未命名水邊","decorType":"waterside"},{"id":"way-1434447557","lat":25.118216,"lon":121.886014,"name":"未命名水邊","decorType":"waterside"},{"id":"way-1434447558","lat":25.118782,"lon":121.886664,"name":"未命名水邊","decorType":"waterside"},{"id":"way-1434447559","lat":25.11935,"lon":121.887108,"name":"未命名水邊","decorType":"waterside"},{"id":"way-1434447560","lat":25.121197,"lon":121.888104,"name":"未命名水邊","decorType":"waterside"},{"id":"way-1434447561","lat":25.120653,"lon":121.887763,"name":"未命名水邊","decorType":"waterside"},{"id":"way-1434447562","lat":25.120782,"lon":121.887794,"name":"未命名水邊","decorType":"waterside"},{"id":"way-1434447563","lat":25.12091,"lon":121.887786,"name":"未命名水邊","decorType":"waterside"},{"id":"way-1434447564","lat":25.117193,"lon":121.872744,"name":"未命名水邊","decorType":"waterside"},{"id":"way-1434447565","lat":25.118024,"lon":121.873001,"name":"未命名水邊","decorType":"waterside"},{"id":"way-1434447566","lat":25.118198,"lon":121.872998,"name":"未命名水邊","decorType":"waterside"},{"id":"way-1434447567","lat":25.118343,"lon":121.872994,"name":"未命名水邊","decorType":"waterside"},{"id":"way-1434447568","lat":25.119681,"lon":121.873226,"name":"未命名水邊","decorType":"waterside"},{"id":"way-1434447569","lat":25.121005,"lon":121.87314,"name":"未命名水邊","decorType":"waterside"},{"id":"way-1434447570","lat":25.121673,"lon":121.873457,"name":"未命名水邊","decorType":"waterside"},{"id":"way-1434447571","lat":25.122298,"lon":121.87401,"name":"未命名水邊","decorType":"waterside"},{"id":"way-1434447572","lat":25.123292,"lon":121.876061,"name":"未命名水邊","decorType":"waterside"},{"id":"way-1434447573","lat":25.123151,"lon":121.875641,"name":"未命名水邊","decorType":"waterside"},{"id":"way-1434447574","lat":25.123167,"lon":121.875773,"name":"未命名水邊","decorType":"waterside"},{"id":"way-1434447575","lat":25.123157,"lon":121.875692,"name":"未命名水邊","decorType":"waterside"},{"id":"way-1434789998","lat":25.090341,"lon":121.870137,"name":"牡丹溪","decorType":"waterside"},{"id":"way-1434789999","lat":25.087367,"lon":121.868538,"name":"牡丹溪","decorType":"waterside"},{"id":"way-1434790000","lat":25.081105,"lon":121.857108,"name":"牡丹溪","decorType":"waterside"},{"id":"way-1434790001","lat":25.081276,"lon":121.858794,"name":"牡丹溪","decorType":"waterside"},{"id":"way-1434790002","lat":25.081296,"lon":121.855441,"name":"未命名水邊","decorType":"waterside"},{"id":"way-1434790003","lat":25.081384,"lon":121.855414,"name":"未命名水邊","decorType":"waterside"},{"id":"way-1434790004","lat":25.078276,"lon":121.852438,"name":"未命名水邊","decorType":"waterside"},{"id":"way-1434790005","lat":25.079239,"lon":121.852002,"name":"未命名水邊","decorType":"waterside"},{"id":"way-1434790008","lat":25.091545,"lon":121.861577,"name":"未命名水邊","decorType":"waterside"},{"id":"way-1434790009","lat":25.091035,"lon":121.861837,"name":"未命名水邊","decorType":"waterside"},{"id":"way-1434790010","lat":25.090871,"lon":121.861856,"name":"未命名水邊","decorType":"waterside"},{"id":"way-1434790011","lat":25.090946,"lon":121.861868,"name":"未命名水邊","decorType":"waterside"},{"id":"way-1434790028","lat":25.088539,"lon":121.87048,"name":"未命名水邊","decorType":"waterside"},{"id":"way-1434790029","lat":25.08836,"lon":121.870484,"name":"未命名水邊","decorType":"waterside"},{"id":"way-1434790030","lat":25.088558,"lon":121.871142,"name":"未命名水邊","decorType":"waterside"},{"id":"way-1434790031","lat":25.088414,"lon":121.870963,"name":"未命名水邊","decorType":"waterside"},{"id":"way-1434790032","lat":25.086406,"lon":121.872021,"name":"未命名水邊","decorType":"waterside"},{"id":"way-1434790033","lat":25.086591,"lon":121.871593,"name":"未命名水邊","decorType":"waterside"},{"id":"way-1441501303","lat":25.082703,"lon":121.862546,"name":"未命名水邊","decorType":"waterside"},{"id":"way-1441501304","lat":25.083114,"lon":121.86225,"name":"未命名水邊","decorType":"waterside"},{"id":"way-1441501305","lat":25.082276,"lon":121.862909,"name":"未命名水邊","decorType":"waterside"},{"id":"way-1441501306","lat":25.082314,"lon":121.86286,"name":"未命名水邊","decorType":"waterside"},{"id":"way-1442076352","lat":25.090645,"lon":121.84242,"name":"未命名水邊","decorType":"waterside"},{"id":"way-1442076353","lat":25.0904,"lon":121.842754,"name":"未命名水邊","decorType":"waterside"},{"id":"way-1442076354","lat":25.090097,"lon":121.843092,"name":"未命名水邊","decorType":"waterside"},{"id":"way-1442076355","lat":25.089794,"lon":121.843415,"name":"未命名水邊","decorType":"waterside"},{"id":"way-1442076380","lat":25.128129,"lon":121.838757,"name":"未命名水邊","decorType":"waterside"},{"id":"way-1442076381","lat":25.127593,"lon":121.838924,"name":"未命名水邊","decorType":"waterside"},{"id":"way-1442076386","lat":25.114131,"lon":121.838243,"name":"未命名水邊","decorType":"waterside"},{"id":"way-1442076387","lat":25.113588,"lon":121.838347,"name":"未命名水邊","decorType":"waterside"},{"id":"way-1442076388","lat":25.110874,"lon":121.838353,"name":"未命名水邊","decorType":"waterside"},{"id":"way-1442076389","lat":25.111004,"lon":121.838247,"name":"未命名水邊","decorType":"waterside"},{"id":"way-1442076390","lat":25.111101,"lon":121.838168,"name":"未命名水邊","decorType":"waterside"},{"id":"way-1442076391","lat":25.111052,"lon":121.838208,"name":"未命名水邊","decorType":"waterside"},{"id":"way-1442076392","lat":25.112923,"lon":121.838409,"name":"未命名水邊","decorType":"waterside"},{"id":"way-1442076393","lat":25.112345,"lon":121.83842,"name":"未命名水邊","decorType":"waterside"},{"id":"way-1442076394","lat":25.113504,"lon":121.838356,"name":"未命名水邊","decorType":"waterside"},{"id":"way-1442076395","lat":25.114113,"lon":121.838718,"name":"未命名水邊","decorType":"waterside"},{"id":"way-1442076396","lat":25.113565,"lon":121.839328,"name":"未命名水邊","decorType":"waterside"},{"id":"way-1442076399","lat":25.110645,"lon":121.838507,"name":"未命名水邊","decorType":"waterside"},{"id":"way-1442076400","lat":25.110741,"lon":121.838451,"name":"未命名水邊","decorType":"waterside"},{"id":"way-1442076401","lat":25.107395,"lon":121.841937,"name":"未命名水邊","decorType":"waterside"},{"id":"way-1442076402","lat":25.107137,"lon":121.842103,"name":"未命名水邊","decorType":"waterside"},{"id":"way-1442076403","lat":25.106976,"lon":121.842147,"name":"未命名水邊","decorType":"waterside"},{"id":"way-1442076404","lat":25.106798,"lon":121.842184,"name":"未命名水邊","decorType":"waterside"},{"id":"way-1442076451","lat":25.099854,"lon":121.840988,"name":"小粗坑","decorType":"waterside"},{"id":"way-1442076452","lat":25.099636,"lon":121.840502,"name":"小粗坑","decorType":"waterside"},{"id":"way-1442076459","lat":25.109951,"lon":121.852543,"name":"未命名水邊","decorType":"waterside"},{"id":"way-1442076460","lat":25.109863,"lon":121.852122,"name":"未命名水邊","decorType":"waterside"},{"id":"way-1442076461","lat":25.105278,"lon":121.851305,"name":"未命名水邊","decorType":"waterside"},{"id":"way-1442076462","lat":25.106725,"lon":121.851851,"name":"未命名水邊","decorType":"waterside"},{"id":"way-1442076463","lat":25.1095,"lon":121.852903,"name":"未命名水邊","decorType":"waterside"},{"id":"way-1442076464","lat":25.108626,"lon":121.852503,"name":"未命名水邊","decorType":"waterside"},{"id":"way-1442265162","lat":25.118909,"lon":121.861847,"name":"未命名水邊","decorType":"waterside"},{"id":"way-1442265163","lat":25.118893,"lon":121.861959,"name":"未命名水邊","decorType":"waterside"},{"id":"way-1442265164","lat":25.11842,"lon":121.861385,"name":"未命名水邊","decorType":"waterside"},{"id":"way-1442265165","lat":25.117681,"lon":121.861443,"name":"未命名水邊","decorType":"waterside"},{"id":"way-1442265166","lat":25.117779,"lon":121.861407,"name":"未命名水邊","decorType":"waterside"},{"id":"way-1442265167","lat":25.11786,"lon":121.861383,"name":"未命名水邊","decorType":"waterside"},{"id":"way-1442265168","lat":25.117955,"lon":121.86136,"name":"未命名水邊","decorType":"waterside"},{"id":"way-1442265169","lat":25.118192,"lon":121.861409,"name":"未命名水邊","decorType":"waterside"},{"id":"way-1442265170","lat":25.118066,"lon":121.861358,"name":"未命名水邊","decorType":"waterside"},{"id":"way-1442265171","lat":25.118284,"lon":121.861434,"name":"未命名水邊","decorType":"waterside"},{"id":"way-1442265172","lat":25.114648,"lon":121.851917,"name":"未命名水邊","decorType":"waterside"},{"id":"way-1442265173","lat":25.114787,"lon":121.852261,"name":"未命名水邊","decorType":"waterside"},{"id":"way-1442265174","lat":25.113114,"lon":121.850638,"name":"未命名水邊","decorType":"waterside"},{"id":"way-1442265175","lat":25.112905,"lon":121.85087,"name":"未命名水邊","decorType":"waterside"},{"id":"way-1442265176","lat":25.112815,"lon":121.850969,"name":"未命名水邊","decorType":"waterside"},{"id":"way-1442265177","lat":25.11285,"lon":121.850931,"name":"未命名水邊","decorType":"waterside"},{"id":"way-1442265178","lat":25.112734,"lon":121.851687,"name":"未命名水邊","decorType":"waterside"},{"id":"way-1442265179","lat":25.112658,"lon":121.852439,"name":"未命名水邊","decorType":"waterside"},{"id":"way-1442265180","lat":25.114932,"lon":121.852953,"name":"未命名水邊","decorType":"waterside"},{"id":"way-1442265181","lat":25.11506,"lon":121.853643,"name":"未命名水邊","decorType":"waterside"},{"id":"way-1443630962","lat":25.084175,"lon":121.892907,"name":"南勢坑溪","decorType":"waterside"},{"id":"way-1443630963","lat":25.084149,"lon":121.897062,"name":"南勢坑溪","decorType":"waterside"},{"id":"way-1443630964","lat":25.084226,"lon":121.897384,"name":"南勢坑溪","decorType":"waterside"},{"id":"way-1443630965","lat":25.084218,"lon":121.897699,"name":"南勢坑溪","decorType":"waterside"},{"id":"way-1443630966","lat":25.083983,"lon":121.898141,"name":"南勢坑溪","decorType":"waterside"},{"id":"way-1443630967","lat":25.083845,"lon":121.898607,"name":"南勢坑溪","decorType":"waterside"},{"id":"way-1443630968","lat":25.083874,"lon":121.898762,"name":"南勢坑溪","decorType":"waterside"},{"id":"way-1443630969","lat":25.083876,"lon":121.898697,"name":"南勢坑溪","decorType":"waterside"},{"id":"way-1443630970","lat":25.083705,"lon":121.899302,"name":"南勢坑溪","decorType":"waterside"},{"id":"way-1443630971","lat":25.083583,"lon":121.899839,"name":"南勢坑溪","decorType":"waterside"},{"id":"way-1443630972","lat":25.083665,"lon":121.900043,"name":"南勢坑溪","decorType":"waterside"},{"id":"way-1443630973","lat":25.083745,"lon":121.900244,"name":"南勢坑溪","decorType":"waterside"},{"id":"way-1443630974","lat":25.083966,"lon":121.9017,"name":"南勢坑溪","decorType":"waterside"},{"id":"way-1443630975","lat":25.084191,"lon":121.903156,"name":"南勢坑溪","decorType":"waterside"},{"id":"way-1443630976","lat":25.084328,"lon":121.903577,"name":"南勢坑溪","decorType":"waterside"},{"id":"way-1443630977","lat":25.084352,"lon":121.904002,"name":"南勢坑溪","decorType":"waterside"},{"id":"way-1443630978","lat":25.084517,"lon":121.906132,"name":"南勢坑溪","decorType":"waterside"},{"id":"way-1443630979","lat":25.084295,"lon":121.908257,"name":"南勢坑溪","decorType":"waterside"},{"id":"way-1443630990","lat":25.078769,"lon":121.882581,"name":"文秀坑溪","decorType":"waterside"},{"id":"way-1443630991","lat":25.078318,"lon":121.882632,"name":"文秀坑溪","decorType":"waterside"},{"id":"way-1443631006","lat":25.110185,"lon":121.917994,"name":"未命名水邊","decorType":"waterside"},{"id":"way-1443631007","lat":25.110308,"lon":121.917926,"name":"未命名水邊","decorType":"waterside"},{"id":"way-1443631008","lat":25.120996,"lon":121.91438,"name":"未命名水邊","decorType":"waterside"},{"id":"way-1443631009","lat":25.121592,"lon":121.914616,"name":"未命名水邊","decorType":"waterside"},{"id":"way-1443631010","lat":25.121913,"lon":121.915229,"name":"未命名水邊","decorType":"waterside"},{"id":"way-1443631011","lat":25.122237,"lon":121.915865,"name":"未命名水邊","decorType":"waterside"},{"id":"way-1443631012","lat":25.121381,"lon":121.879219,"name":"半屏溪","decorType":"waterside"},{"id":"way-1443631013","lat":25.119796,"lon":121.87919,"name":"半屏溪","decorType":"waterside"},{"id":"way-1443631014","lat":25.119752,"lon":121.876928,"name":"未命名水邊","decorType":"waterside"},{"id":"way-1443631015","lat":25.11941,"lon":121.876691,"name":"未命名水邊","decorType":"waterside"},{"id":"way-1443631016","lat":25.119236,"lon":121.876649,"name":"未命名水邊","decorType":"waterside"},{"id":"way-1443631017","lat":25.119091,"lon":121.876613,"name":"未命名水邊","decorType":"waterside"},{"id":"way-1443631018","lat":25.121838,"lon":121.866674,"name":"未命名水邊","decorType":"waterside"},{"id":"way-1443631019","lat":25.116478,"lon":121.864337,"name":"未命名水邊","decorType":"waterside"},{"id":"way-1443631020","lat":25.115904,"lon":121.864443,"name":"未命名水邊","decorType":"waterside"},{"id":"way-1443631021","lat":25.116725,"lon":121.861117,"name":"未命名水邊","decorType":"waterside"},{"id":"way-1443631022","lat":25.116846,"lon":121.861165,"name":"未命名水邊","decorType":"waterside"},{"id":"way-1443631023","lat":25.113963,"lon":121.856773,"name":"內九份溪","decorType":"waterside"},{"id":"way-1443631024","lat":25.113134,"lon":121.857427,"name":"內九份溪","decorType":"waterside"},{"id":"way-1443631027","lat":25.113516,"lon":121.8551,"name":"未命名水邊","decorType":"waterside"},{"id":"way-1443631028","lat":25.113216,"lon":121.855211,"name":"未命名水邊","decorType":"waterside"},{"id":"way-1443631029","lat":25.112801,"lon":121.855315,"name":"未命名水邊","decorType":"waterside"},{"id":"way-1443631030","lat":25.112384,"lon":121.855379,"name":"未命名水邊","decorType":"waterside"},{"id":"way-1443631031","lat":25.110976,"lon":121.855991,"name":"未命名水邊","decorType":"waterside"},{"id":"way-1443631032","lat":25.111247,"lon":121.856057,"name":"未命名水邊","decorType":"waterside"},{"id":"way-1443786235","lat":25.110592,"lon":121.864713,"name":"未命名水邊","decorType":"waterside"},{"id":"way-1443786236","lat":25.111224,"lon":121.864522,"name":"未命名水邊","decorType":"waterside"},{"id":"way-1443786237","lat":25.108721,"lon":121.852497,"name":"未命名水邊","decorType":"waterside"},{"id":"way-1443786238","lat":25.10881,"lon":121.852496,"name":"未命名水邊","decorType":"waterside"},{"id":"way-1443786239","lat":25.106039,"lon":121.860032,"name":"未命名水邊","decorType":"waterside"},{"id":"way-1443786240","lat":25.106007,"lon":121.859999,"name":"未命名水邊","decorType":"waterside"},{"id":"way-1443786241","lat":25.105869,"lon":121.860453,"name":"未命名水邊","decorType":"waterside"},{"id":"way-1443786242","lat":25.105849,"lon":121.860545,"name":"未命名水邊","decorType":"waterside"},{"id":"way-1443786243","lat":25.104189,"lon":121.861579,"name":"未命名水邊","decorType":"waterside"},{"id":"way-1443786244","lat":25.10423,"lon":121.861741,"name":"未命名水邊","decorType":"waterside"},{"id":"way-1443786245","lat":25.105562,"lon":121.864315,"name":"未命名水邊","decorType":"waterside"},{"id":"way-1443786246","lat":25.105432,"lon":121.863611,"name":"未命名水邊","decorType":"waterside"},{"id":"way-1443786247","lat":25.101021,"lon":121.863474,"name":"未命名水邊","decorType":"waterside"},{"id":"way-1443786248","lat":25.101056,"lon":121.863527,"name":"未命名水邊","decorType":"waterside"},{"id":"way-1443786249","lat":25.099234,"lon":121.865076,"name":"內九份溪","decorType":"waterside"},{"id":"way-1443786250","lat":25.100234,"lon":121.863965,"name":"內九份溪","decorType":"waterside"},{"id":"way-1443786251","lat":25.100659,"lon":121.863596,"name":"未命名水邊","decorType":"waterside"},{"id":"way-1443786252","lat":25.10066,"lon":121.863667,"name":"未命名水邊","decorType":"waterside"},{"id":"way-1443786253","lat":25.100211,"lon":121.864026,"name":"內九份溪","decorType":"waterside"},{"id":"way-1443786254","lat":25.100154,"lon":121.864078,"name":"內九份溪","decorType":"waterside"},{"id":"way-1443786255","lat":25.097833,"lon":121.866468,"name":"內九份溪","decorType":"waterside"},{"id":"way-1443786256","lat":25.098354,"lon":121.866085,"name":"內九份溪","decorType":"waterside"},{"id":"way-1443786257","lat":25.0991,"lon":121.865082,"name":"未命名水邊","decorType":"waterside"},{"id":"way-1443786258","lat":25.099152,"lon":121.865258,"name":"未命名水邊","decorType":"waterside"},{"id":"way-1443786259","lat":25.108068,"lon":121.868961,"name":"未命名水邊","decorType":"waterside"},{"id":"way-1443786260","lat":25.107855,"lon":121.869022,"name":"未命名水邊","decorType":"waterside"},{"id":"way-1443786261","lat":25.107802,"lon":121.869085,"name":"未命名水邊","decorType":"waterside"},{"id":"way-1443786262","lat":25.107767,"lon":121.869147,"name":"未命名水邊","decorType":"waterside"},{"id":"way-1443786263","lat":25.107745,"lon":121.869198,"name":"未命名水邊","decorType":"waterside"},{"id":"way-1443786264","lat":25.107709,"lon":121.869247,"name":"未命名水邊","decorType":"waterside"},{"id":"way-1443786265","lat":25.108465,"lon":121.869467,"name":"未命名水邊","decorType":"waterside"},{"id":"way-1443786266","lat":25.108274,"lon":121.869591,"name":"未命名水邊","decorType":"waterside"},{"id":"way-1443786267","lat":25.108275,"lon":121.868957,"name":"茶壺溪","decorType":"waterside"},{"id":"way-1443786268","lat":25.108255,"lon":121.86892,"name":"茶壺溪","decorType":"waterside"},{"id":"way-1443786269","lat":25.114316,"lon":121.879675,"name":"未命名水邊","decorType":"waterside"},{"id":"way-1443786270","lat":25.114455,"lon":121.879063,"name":"未命名水邊","decorType":"waterside"},{"id":"way-1443786271","lat":25.114411,"lon":121.879218,"name":"未命名水邊","decorType":"waterside"},{"id":"way-1443786272","lat":25.114428,"lon":121.879158,"name":"未命名水邊","decorType":"waterside"},{"id":"way-1443786273","lat":25.114159,"lon":121.880639,"name":"未命名水邊","decorType":"waterside"},{"id":"way-1443786274","lat":25.114234,"lon":121.88012,"name":"未命名水邊","decorType":"waterside"},{"id":"way-1443786275","lat":25.114227,"lon":121.880262,"name":"未命名水邊","decorType":"waterside"},{"id":"way-1443786276","lat":25.114219,"lon":121.880425,"name":"未命名水邊","decorType":"waterside"},{"id":"way-1443786277","lat":25.114063,"lon":121.880854,"name":"未命名水邊","decorType":"waterside"},{"id":"way-1443786278","lat":25.114089,"lon":121.880814,"name":"未命名水邊","decorType":"waterside"},{"id":"way-1443786279","lat":25.117481,"lon":121.880381,"name":"半屏溪","decorType":"waterside"},{"id":"way-1443786280","lat":25.113993,"lon":121.88085,"name":"半屏溪","decorType":"waterside"},{"id":"way-1443786281","lat":25.114083,"lon":121.880902,"name":"半屏溪","decorType":"waterside"},{"id":"way-1443786282","lat":25.114045,"lon":121.880873,"name":"半屏溪","decorType":"waterside"},{"id":"way-1443786283","lat":25.114147,"lon":121.881124,"name":"半屏溪","decorType":"waterside"},{"id":"way-1443786284","lat":25.114182,"lon":121.88136,"name":"半屏溪","decorType":"waterside"},{"id":"way-1443786285","lat":25.114187,"lon":121.881484,"name":"半屏溪","decorType":"waterside"},{"id":"way-1443786286","lat":25.114192,"lon":121.881604,"name":"半屏溪","decorType":"waterside"},{"id":"way-1443786287","lat":25.114183,"lon":121.881673,"name":"未命名水邊","decorType":"waterside"},{"id":"way-1443786288","lat":25.114145,"lon":121.881636,"name":"未命名水邊","decorType":"waterside"},{"id":"way-1443786289","lat":25.114689,"lon":121.881768,"name":"半屏溪","decorType":"waterside"},{"id":"way-1443786290","lat":25.115183,"lon":121.881566,"name":"半屏溪","decorType":"waterside"},{"id":"way-1443786291","lat":25.115027,"lon":121.881626,"name":"半屏溪","decorType":"waterside"},{"id":"way-1443786292","lat":25.114887,"lon":121.881692,"name":"半屏溪","decorType":"waterside"},{"id":"way-1443786293","lat":25.114221,"lon":121.881698,"name":"半屏溪","decorType":"waterside"},{"id":"way-1443786294","lat":25.114269,"lon":121.881782,"name":"半屏溪","decorType":"waterside"},{"id":"way-1443786295","lat":25.113888,"lon":121.880806,"name":"半屏溪","decorType":"waterside"},{"id":"way-1443786296","lat":25.113798,"lon":121.880768,"name":"半屏溪","decorType":"waterside"},{"id":"way-1443786297","lat":25.114365,"lon":121.881821,"name":"半屏溪","decorType":"waterside"},{"id":"way-1443786298","lat":25.114474,"lon":121.881834,"name":"半屏溪","decorType":"waterside"},{"id":"way-1443786299","lat":25.099588,"lon":121.871557,"name":"半屏溪","decorType":"waterside"},{"id":"way-1443786300","lat":25.102251,"lon":121.872599,"name":"半屏溪","decorType":"waterside"},{"id":"way-1443786330","lat":25.079524,"lon":121.882278,"name":"文秀坑溪","decorType":"waterside"},{"id":"way-1443786331","lat":25.07922,"lon":121.882425,"name":"文秀坑溪","decorType":"waterside"},{"id":"way-1443786336","lat":25.089645,"lon":121.883412,"name":"未命名水邊","decorType":"waterside"},{"id":"way-1443786337","lat":25.089929,"lon":121.883661,"name":"未命名水邊","decorType":"waterside"},{"id":"way-1443786348","lat":25.092264,"lon":121.886668,"name":"未命名水邊","decorType":"waterside"},{"id":"way-1443786349","lat":25.092405,"lon":121.886437,"name":"未命名水邊","decorType":"waterside"},{"id":"way-1443786350","lat":25.097778,"lon":121.888144,"name":"未命名水邊","decorType":"waterside"},{"id":"way-1443786351","lat":25.097251,"lon":121.888017,"name":"未命名水邊","decorType":"waterside"},{"id":"way-1443786352","lat":25.097639,"lon":121.887182,"name":"未命名水邊","decorType":"waterside"},{"id":"way-1443786353","lat":25.098328,"lon":121.890282,"name":"未命名水邊","decorType":"waterside"},{"id":"way-1443786366","lat":25.103051,"lon":121.888033,"name":"石梯坑溪","decorType":"waterside"},{"id":"way-1443786367","lat":25.10397,"lon":121.889475,"name":"石梯坑溪","decorType":"waterside"},{"id":"way-1460473007","lat":25.106557,"lon":121.905367,"name":"和美池","decorType":"waterside"},{"id":"way-196684506","lat":25.094039,"lon":121.840769,"name":"大粗坑","decorType":"waterside"},{"id":"way-196842740","lat":25.109505,"lon":121.845239,"name":"老友號芋圓","decorType":"restaurant"},{"id":"way-197607039","lat":25.106326,"lon":121.859344,"name":"黃金館","decorType":"art_gallery"},{"id":"way-197607372","lat":25.110141,"lon":121.859782,"name":"勸濟堂","decorType":"shrine"},{"id":"way-197608886","lat":25.106435,"lon":121.859802,"name":"勸濟橋","decorType":"bridge"},{"id":"way-198405109","lat":25.107961,"lon":121.85811,"name":"金水特展室","decorType":"art_gallery"},{"id":"way-198409807","lat":25.119185,"lon":121.845132,"name":"未命名森林","decorType":"forest"},{"id":"way-208476684","lat":25.122931,"lon":121.867664,"name":"水湳洞漁港","decorType":"waterside"},{"id":"way-208476685","lat":25.122658,"lon":121.868397,"name":"未命名水邊","decorType":"waterside"},{"id":"way-208893457","lat":25.11204,"lon":121.915746,"name":"龍洞漁港","decorType":"waterside"},{"id":"way-208893460","lat":25.123563,"lon":121.915558,"name":"鼻頭漁港","decorType":"waterside"},{"id":"way-208987652","lat":25.108015,"lon":121.923695,"name":"未命名山丘","decorType":"mountain"},{"id":"way-208987654","lat":25.104319,"lon":121.923478,"name":"龍洞一支(危險水域)","decorType":"mountain"},{"id":"way-208987657","lat":25.112305,"lon":121.923401,"name":"未命名山丘","decorType":"mountain"},{"id":"way-209180681","lat":25.079658,"lon":121.915629,"name":"和美漁港","decorType":"waterside"},{"id":"way-209180682","lat":25.097328,"lon":121.918118,"name":"龍洞南口遊艇港","decorType":"waterside"},{"id":"way-209180683","lat":25.098452,"lon":121.917915,"name":"未命名海邊","decorType":"beach"},{"id":"way-209185610","lat":25.115724,"lon":121.858461,"name":"九份溪","decorType":"waterside"},{"id":"way-217447173","lat":25.109757,"lon":121.844212,"name":"天方夜譚","decorType":"hotel"},{"id":"way-217447181","lat":25.110578,"lon":121.845845,"name":"霞海城隍 昭靈廟","decorType":"shrine"},{"id":"way-217447188","lat":25.111254,"lon":121.83871,"name":"金山寺","decorType":"shrine"},{"id":"way-217447192","lat":25.109787,"lon":121.844568,"name":"九份景棧","decorType":"hotel"},{"id":"way-230921002","lat":25.122326,"lon":121.863643,"name":"未命名橋樑","decorType":"bridge"},{"id":"way-232001664","lat":25.107719,"lon":121.858483,"name":"太子賓館","decorType":"hotel"},{"id":"way-255644192","lat":25.113897,"lon":121.855244,"name":"石山橋","decorType":"bridge"},{"id":"way-258429947","lat":25.090935,"lon":121.8424,"name":"未命名橋樑","decorType":"bridge"},{"id":"way-258429960","lat":25.096311,"lon":121.846745,"name":"大德宮","decorType":"shrine"},{"id":"way-258429961","lat":25.097502,"lon":121.847734,"name":"大粗坑古道","decorType":"bridge"},{"id":"way-259521692","lat":25.122425,"lon":121.9161,"name":"鼻頭路","decorType":"bridge"},{"id":"way-261855541","lat":25.124109,"lon":121.913061,"name":"海園活海鮮餐廳","decorType":"restaurant"},{"id":"way-261856816","lat":25.124077,"lon":121.913331,"name":"未命名神社","decorType":"shrine"},{"id":"way-269882452","lat":25.122306,"lon":121.87932,"name":"瑞能橋","decorType":"bridge"},{"id":"way-269882455","lat":25.106669,"lon":121.860445,"name":"內九份溪","decorType":"waterside"},{"id":"way-269882457","lat":25.103112,"lon":121.87802,"name":"未命名水邊","decorType":"waterside"},{"id":"way-269882460","lat":25.10802,"lon":121.87668,"name":"半屏溪","decorType":"waterside"},{"id":"way-269882464","lat":25.120904,"lon":121.873118,"name":"黃金池","decorType":"waterside"},{"id":"way-269905937","lat":25.117405,"lon":121.893091,"name":"未命名橋樑","decorType":"bridge"},{"id":"way-269905989","lat":25.111653,"lon":121.892395,"name":"石梯坑溪","decorType":"waterside"},{"id":"way-269905992","lat":25.107274,"lon":121.867976,"name":"未命名水邊","decorType":"waterside"},{"id":"way-269905995","lat":25.119378,"lon":121.892613,"name":"仁愛橋","decorType":"bridge"},{"id":"way-270769512","lat":25.107622,"lon":121.858205,"name":"金采廣場","decorType":"art_gallery"},{"id":"way-270769611","lat":25.108221,"lon":121.856975,"name":"四連棟","decorType":"art_gallery"},{"id":"way-271451013","lat":25.122031,"lon":121.888054,"name":"南雅漁港","decorType":"waterside"},{"id":"way-271979276","lat":25.107136,"lon":121.842239,"name":"五番坑公園","decorType":"park"},{"id":"way-271979320","lat":25.111114,"lon":121.84448,"name":"九份明聖宮","decorType":"shrine"},{"id":"way-271979324","lat":25.107369,"lon":121.846849,"name":"福山宮(廟中廟)","decorType":"shrine"},{"id":"way-271979325","lat":25.10788,"lon":121.844257,"name":"聖明宮","decorType":"shrine"},{"id":"way-271979329","lat":25.116127,"lon":121.841592,"name":"青雲殿","decorType":"shrine"},{"id":"way-271979330","lat":25.108398,"lon":121.840183,"name":"頌德公園","decorType":"park"},{"id":"way-272005172","lat":25.106014,"lon":121.853693,"name":"保民堂","decorType":"shrine"},{"id":"way-272005232","lat":25.107899,"lon":121.846717,"name":"開成殿 天公廟","decorType":"shrine"},{"id":"way-272732655","lat":25.108518,"lon":121.843249,"name":"昇平戲院","decorType":"movie_theater"},{"id":"way-273402342","lat":25.108944,"lon":121.860158,"name":"金瓜石101民宿","decorType":"hotel"},{"id":"way-280197057","lat":25.114068,"lon":121.854483,"name":"緩慢-金瓜石民宿","decorType":"hotel"},{"id":"way-283726584","lat":25.114857,"lon":121.853854,"name":"雲山水民宿","decorType":"hotel"},{"id":"way-284252066","lat":25.114722,"lon":121.85572,"name":"石山橋","decorType":"bridge"},{"id":"way-284262877","lat":25.10813,"lon":121.857822,"name":"瑞芳金瓜石郵局","decorType":"post_office"},{"id":"way-284262878","lat":25.10841,"lon":121.859018,"name":"祈堂橋","decorType":"bridge"},{"id":"way-284348516","lat":25.107954,"lon":121.857873,"name":"金水茶坊","decorType":"cafe"},{"id":"way-284349157","lat":25.104957,"lon":121.858652,"name":"金瓜石神社","decorType":"shrine"},{"id":"way-284349459","lat":25.106626,"lon":121.859045,"name":"本山五坑","decorType":"art_gallery"},{"id":"way-284349619","lat":25.10824,"lon":121.857555,"name":"煉金樓","decorType":"art_gallery"},{"id":"way-284349631","lat":25.108034,"lon":121.857316,"name":"金屬工藝館","decorType":"art_gallery"},{"id":"way-284441487","lat":25.112819,"lon":121.856401,"name":"金福宮","decorType":"shrine"},{"id":"way-284446589","lat":25.12185,"lon":121.861689,"name":"山城食堂","decorType":"restaurant"},{"id":"way-284556833","lat":25.110714,"lon":121.858335,"name":"國際終戰和平公園","decorType":"park"},{"id":"way-285645985","lat":25.117825,"lon":121.859705,"name":"長仁橋","decorType":"bridge"},{"id":"way-285871256","lat":25.105133,"lon":121.921193,"name":"西靈巖","decorType":"shrine"},{"id":"way-291767275","lat":25.110606,"lon":121.915958,"name":"龍安宮","decorType":"shrine"},{"id":"way-292835201","lat":25.082002,"lon":121.911962,"name":"國聖橋","decorType":"bridge"},{"id":"way-292839334","lat":25.082756,"lon":121.912616,"name":"保安廟","decorType":"shrine"},{"id":"way-294778067","lat":25.106713,"lon":121.858649,"name":"本山五坑出口","decorType":"art_gallery"},{"id":"way-295176190","lat":25.107259,"lon":121.858095,"name":"黃金博物館","decorType":"art_gallery"},{"id":"way-295376003","lat":25.119687,"lon":121.861916,"name":"茹川橋","decorType":"bridge"},{"id":"way-295376004","lat":25.121158,"lon":121.862572,"name":"濓洞橋","decorType":"bridge"},{"id":"way-295376007","lat":25.122262,"lon":121.863609,"name":"未命名橋樑","decorType":"bridge"},{"id":"way-295608652","lat":25.108682,"lon":121.857813,"name":"金礦28號餐廳","decorType":"restaurant"},{"id":"way-295608653","lat":25.108606,"lon":121.857848,"name":"金礦山莊","decorType":"hotel"},{"id":"way-295944787","lat":25.112172,"lon":121.853732,"name":"外九份三層橋","decorType":"bridge"},{"id":"way-302780700","lat":25.11224,"lon":121.839291,"name":"未命名森林","decorType":"forest"},{"id":"way-309682655","lat":25.10641,"lon":121.865877,"name":"未命名山丘","decorType":"mountain"},{"id":"way-329817786","lat":25.107537,"lon":121.842746,"name":"九份愛的物語景觀Cafe & 民宿","decorType":"hotel"},{"id":"way-334684869","lat":25.085969,"lon":121.838761,"name":"未命名森林","decorType":"forest"},{"id":"way-334684881","lat":25.10937,"lon":121.838635,"name":"未命名森林","decorType":"forest"},{"id":"way-369610972","lat":25.084186,"lon":121.863675,"name":"牡丹溪","decorType":"waterside"},{"id":"way-421917797","lat":25.125389,"lon":121.915595,"name":"鼻頭角海濱公園 大廟埕","decorType":"park"},{"id":"way-421917798","lat":25.125348,"lon":121.915853,"name":"未命名神社","decorType":"shrine"},{"id":"way-426269444","lat":25.10978,"lon":121.907469,"name":"未命名水邊","decorType":"waterside"},{"id":"way-426269445","lat":25.119992,"lon":121.88749,"name":"未命名水邊","decorType":"waterside"},{"id":"way-426269446","lat":25.117458,"lon":121.885129,"name":"未命名水邊","decorType":"waterside"},{"id":"way-426269447","lat":25.122689,"lon":121.874818,"name":"未命名水邊","decorType":"waterside"},{"id":"way-426269452","lat":25.119425,"lon":121.873616,"name":"未命名水邊","decorType":"waterside"},{"id":"way-426269453","lat":25.105782,"lon":121.868569,"name":"未命名水邊","decorType":"waterside"},{"id":"way-426269454","lat":25.107878,"lon":121.870258,"name":"未命名水邊","decorType":"waterside"},{"id":"way-426269455","lat":25.109158,"lon":121.869087,"name":"未命名水邊","decorType":"waterside"},{"id":"way-426269456","lat":25.105669,"lon":121.868983,"name":"未命名水邊","decorType":"waterside"},{"id":"way-430459924","lat":25.119293,"lon":121.86749,"name":"未命名水邊","decorType":"waterside"},{"id":"way-430459925","lat":25.114067,"lon":121.862179,"name":"未命名水邊","decorType":"waterside"},{"id":"way-430459931","lat":25.112603,"lon":121.853191,"name":"未命名水邊","decorType":"waterside"},{"id":"way-433374079","lat":25.121206,"lon":121.917203,"name":"未命名橋樑","decorType":"bridge"},{"id":"way-442178995","lat":25.093782,"lon":121.855972,"name":"貂山古道","decorType":"bridge"},{"id":"way-442389082","lat":25.078407,"lon":121.853744,"name":"三貂親水公園","decorType":"park"},{"id":"way-489196370","lat":25.122468,"lon":121.91614,"name":"未命名橋樑","decorType":"bridge"},{"id":"way-489196371","lat":25.122408,"lon":121.91627,"name":"未命名橋樑","decorType":"bridge"},{"id":"way-489221317","lat":25.124675,"lon":121.916305,"name":"新興宮","decorType":"shrine"},{"id":"way-489232793","lat":25.126913,"lon":121.918955,"name":"未命名山丘","decorType":"mountain"},{"id":"way-489232795","lat":25.127207,"lon":121.920246,"name":"未命名山丘","decorType":"mountain"},{"id":"way-489232796","lat":25.12777,"lon":121.921894,"name":"未命名山丘","decorType":"mountain"},{"id":"way-489232797","lat":25.128771,"lon":121.923163,"name":"未命名山丘","decorType":"mountain"},{"id":"way-489232798","lat":25.127012,"lon":121.922076,"name":"未命名山丘","decorType":"mountain"},{"id":"way-489232799","lat":25.124664,"lon":121.922087,"name":"未命名山丘","decorType":"mountain"},{"id":"way-489232800","lat":25.126043,"lon":121.922821,"name":"未命名山丘","decorType":"mountain"},{"id":"way-489232801","lat":25.127072,"lon":121.921296,"name":"未命名山丘","decorType":"mountain"},{"id":"way-489232802","lat":25.125402,"lon":121.915857,"name":"未命名山丘","decorType":"mountain"},{"id":"way-489252480","lat":25.127529,"lon":121.923041,"name":"未命名山丘","decorType":"mountain"},{"id":"way-489252497","lat":25.127141,"lon":121.918528,"name":"未命名山丘","decorType":"mountain"},{"id":"way-489262120","lat":25.126967,"lon":121.920708,"name":"未命名山丘","decorType":"mountain"},{"id":"way-489262126","lat":25.127605,"lon":121.920068,"name":"未命名山丘","decorType":"mountain"},{"id":"way-489262128","lat":25.127281,"lon":121.918761,"name":"未命名山丘","decorType":"mountain"},{"id":"way-489262132","lat":25.126299,"lon":121.916715,"name":"未命名山丘","decorType":"mountain"},{"id":"way-489262135","lat":25.127601,"lon":121.923378,"name":"未命名山丘","decorType":"mountain"},{"id":"way-489991401","lat":25.12682,"lon":121.914207,"name":"未命名山丘","decorType":"mountain"},{"id":"way-489991402","lat":25.127146,"lon":121.915003,"name":"未命名山丘","decorType":"mountain"},{"id":"way-489991403","lat":25.127383,"lon":121.915646,"name":"未命名山丘","decorType":"mountain"},{"id":"way-489991404","lat":25.127643,"lon":121.916,"name":"未命名山丘","decorType":"mountain"},{"id":"way-489991405","lat":25.127912,"lon":121.916511,"name":"未命名山丘","decorType":"mountain"},{"id":"way-491301424","lat":25.118268,"lon":121.919356,"name":"未命名山丘","decorType":"mountain"},{"id":"way-491301427","lat":25.118598,"lon":121.919546,"name":"未命名山丘","decorType":"mountain"},{"id":"way-528377379","lat":25.090063,"lon":121.910569,"name":"北勢坑一號橋","decorType":"bridge"},{"id":"way-528377381","lat":25.091353,"lon":121.908684,"name":"北勢坑二號橋","decorType":"bridge"},{"id":"way-528377384","lat":25.097432,"lon":121.893394,"name":"北勢坑街","decorType":"bridge"},{"id":"way-528377389","lat":25.096365,"lon":121.893827,"name":"南極玉明殿","decorType":"shrine"},{"id":"way-529708728","lat":25.106975,"lon":121.923674,"name":"龍洞三支(危險水域)","decorType":"mountain"},{"id":"way-529708729","lat":25.104957,"lon":121.923322,"name":"龍洞二支(危險水域)","decorType":"mountain"},{"id":"way-537615535","lat":25.108991,"lon":121.857333,"name":"金漫會館","decorType":"hotel"},{"id":"way-543805758","lat":25.121532,"lon":121.919646,"name":"未命名公園","decorType":"park"},{"id":"way-543805761","lat":25.1265,"lon":121.921415,"name":"聽濤營區咖啡店","decorType":"restaurant"},{"id":"way-546033513","lat":25.119326,"lon":121.899118,"name":"信義橋","decorType":"bridge"},{"id":"way-575608016","lat":25.083049,"lon":121.849752,"name":"未命名水邊","decorType":"waterside"},{"id":"way-576547443","lat":25.127203,"lon":121.843717,"name":"員山子分洪隧道出口","decorType":"waterside"},{"id":"way-619144031","lat":25.112577,"lon":121.872733,"name":"未命名水邊","decorType":"waterside"},{"id":"way-619144032","lat":25.10675,"lon":121.849767,"name":"未命名水邊","decorType":"waterside"},{"id":"way-619144033","lat":25.107701,"lon":121.852189,"name":"未命名水邊","decorType":"waterside"},{"id":"way-619144034","lat":25.104486,"lon":121.85352,"name":"未命名水邊","decorType":"waterside"},{"id":"way-619144035","lat":25.111822,"lon":121.855718,"name":"未命名水邊","decorType":"waterside"},{"id":"way-619144036","lat":25.099355,"lon":121.862003,"name":"未命名水邊","decorType":"waterside"},{"id":"way-619144037","lat":25.100542,"lon":121.861698,"name":"未命名水邊","decorType":"waterside"},{"id":"way-619144038","lat":25.098751,"lon":121.863706,"name":"未命名水邊","decorType":"waterside"},{"id":"way-619144039","lat":25.099581,"lon":121.863675,"name":"未命名水邊","decorType":"waterside"},{"id":"way-619144040","lat":25.098602,"lon":121.86535,"name":"未命名水邊","decorType":"waterside"},{"id":"way-619144041","lat":25.099286,"lon":121.865474,"name":"未命名水邊","decorType":"waterside"},{"id":"way-619144042","lat":25.1006,"lon":121.864296,"name":"未命名水邊","decorType":"waterside"},{"id":"way-619144043","lat":25.101322,"lon":121.864207,"name":"未命名水邊","decorType":"waterside"},{"id":"way-619144044","lat":25.10174,"lon":121.862411,"name":"未命名水邊","decorType":"waterside"},{"id":"way-619144045","lat":25.102823,"lon":121.86168,"name":"未命名水邊","decorType":"waterside"},{"id":"way-619144046","lat":25.105784,"lon":121.861193,"name":"未命名水邊","decorType":"waterside"},{"id":"way-619144047","lat":25.104101,"lon":121.863586,"name":"未命名水邊","decorType":"waterside"},{"id":"way-619144048","lat":25.106749,"lon":121.868864,"name":"未命名水邊","decorType":"waterside"},{"id":"way-619144049","lat":25.112651,"lon":121.869397,"name":"未命名水邊","decorType":"waterside"},{"id":"way-619144050","lat":25.115638,"lon":121.870106,"name":"未命名水邊","decorType":"waterside"},{"id":"way-619144051","lat":25.114664,"lon":121.864795,"name":"未命名水邊","decorType":"waterside"},{"id":"way-619144052","lat":25.112138,"lon":121.863594,"name":"未命名水邊","decorType":"waterside"},{"id":"way-619144056","lat":25.08307,"lon":121.911579,"name":"南勢坑溪","decorType":"waterside"},{"id":"way-619144057","lat":25.096392,"lon":121.88762,"name":"未命名水邊","decorType":"waterside"},{"id":"way-619144058","lat":25.097382,"lon":121.893624,"name":"未命名水邊","decorType":"waterside"},{"id":"way-619144059","lat":25.093158,"lon":121.890319,"name":"未命名水邊","decorType":"waterside"},{"id":"way-619144060","lat":25.092397,"lon":121.905483,"name":"梗枋北溪","decorType":"waterside"},{"id":"way-619144061","lat":25.114348,"lon":121.875075,"name":"未命名水邊","decorType":"waterside"},{"id":"way-619144062","lat":25.113549,"lon":121.87768,"name":"未命名水邊","decorType":"waterside"},{"id":"way-619144063","lat":25.113728,"lon":121.881753,"name":"未命名水邊","decorType":"waterside"},{"id":"way-619144064","lat":25.108647,"lon":121.878978,"name":"未命名水邊","decorType":"waterside"},{"id":"way-619144065","lat":25.102238,"lon":121.879881,"name":"未命名水邊","decorType":"waterside"},{"id":"way-619144066","lat":25.103723,"lon":121.875146,"name":"未命名水邊","decorType":"waterside"},{"id":"way-619144067","lat":25.10268,"lon":121.874185,"name":"未命名水邊","decorType":"waterside"},{"id":"way-619144068","lat":25.10201,"lon":121.872848,"name":"未命名水邊","decorType":"waterside"},{"id":"way-619144069","lat":25.098746,"lon":121.872065,"name":"未命名水邊","decorType":"waterside"},{"id":"way-619144070","lat":25.096709,"lon":121.871168,"name":"未命名水邊","decorType":"waterside"},{"id":"way-619144071","lat":25.09626,"lon":121.8703,"name":"未命名水邊","decorType":"waterside"},{"id":"way-619144072","lat":25.095388,"lon":121.870718,"name":"未命名水邊","decorType":"waterside"},{"id":"way-619144073","lat":25.096041,"lon":121.870775,"name":"未命名水邊","decorType":"waterside"},{"id":"way-619144075","lat":25.11805,"lon":121.863199,"name":"未命名水邊","decorType":"waterside"},{"id":"way-619144077","lat":25.114997,"lon":121.85447,"name":"未命名水邊","decorType":"waterside"},{"id":"way-619144079","lat":25.117106,"lon":121.861394,"name":"未命名水邊","decorType":"waterside"},{"id":"way-619368804","lat":25.119148,"lon":121.862442,"name":"未命名水邊","decorType":"waterside"},{"id":"way-619370270","lat":25.117188,"lon":121.861595,"name":"未命名水邊","decorType":"waterside"},{"id":"way-619370271","lat":25.117236,"lon":121.861323,"name":"未命名水邊","decorType":"waterside"},{"id":"way-633894159","lat":25.109697,"lon":121.916411,"name":"未命名水邊","decorType":"waterside"},{"id":"way-633894160","lat":25.110542,"lon":121.917909,"name":"未命名水邊","decorType":"waterside"},{"id":"way-633894161","lat":25.107465,"lon":121.913631,"name":"未命名水邊","decorType":"waterside"},{"id":"way-633894162","lat":25.09267,"lon":121.88568,"name":"未命名水邊","decorType":"waterside"},{"id":"way-633894166","lat":25.078943,"lon":121.891688,"name":"未命名水邊","decorType":"waterside"},{"id":"way-633894168","lat":25.078512,"lon":121.891087,"name":"未命名水邊","decorType":"waterside"},{"id":"way-686428073","lat":25.109839,"lon":121.858756,"name":"未命名橋樑","decorType":"bridge"},{"id":"way-686429894","lat":25.109398,"lon":121.858771,"name":"未命名橋樑","decorType":"bridge"},{"id":"way-688137637","lat":25.100269,"lon":121.83906,"name":"未命名神社","decorType":"shrine"},{"id":"way-688137639","lat":25.101689,"lon":121.839655,"name":"山神廟","decorType":"shrine"},{"id":"way-688137640","lat":25.097158,"lon":121.837953,"name":"土地公","decorType":"shrine"},{"id":"way-688137642","lat":25.097737,"lon":121.838294,"name":"小粗坑古道","decorType":"bridge"},{"id":"way-688262109","lat":25.107854,"lon":121.849761,"name":"金石橋","decorType":"bridge"},{"id":"way-688262118","lat":25.109143,"lon":121.850613,"name":"未命名橋樑","decorType":"bridge"},{"id":"way-689449941","lat":25.085056,"lon":121.869654,"name":"未命名水邊","decorType":"waterside"},{"id":"way-689449942","lat":25.086073,"lon":121.869701,"name":"未命名水邊","decorType":"waterside"},{"id":"way-689665663","lat":25.120107,"lon":121.887783,"name":"未命名橋樑","decorType":"bridge"},{"id":"way-689795460","lat":25.118344,"lon":121.870129,"name":"茶壺溪","decorType":"waterside"},{"id":"way-690233178","lat":25.097937,"lon":121.854385,"name":"百二崁步道","decorType":"bridge"},{"id":"way-690492184","lat":25.089615,"lon":121.844289,"name":"未命名水邊","decorType":"waterside"},{"id":"way-690492185","lat":25.089092,"lon":121.840751,"name":"未命名水邊","decorType":"waterside"},{"id":"way-690823144","lat":25.089346,"lon":121.848071,"name":"不厭亭","decorType":"park"},{"id":"way-690823145","lat":25.10237,"lon":121.853691,"name":"未命名公園","decorType":"park"},{"id":"way-690874610","lat":25.097258,"lon":121.854775,"name":"百二崁步道","decorType":"bridge"},{"id":"way-690874613","lat":25.095882,"lon":121.855161,"name":"金山土地公坪","decorType":"park"},{"id":"way-690874619","lat":25.088937,"lon":121.857205,"name":"未命名公園","decorType":"park"},{"id":"way-690900347","lat":25.120382,"lon":121.869314,"name":"濂新橋","decorType":"bridge"},{"id":"way-690900349","lat":25.117269,"lon":121.866375,"name":"未命名水邊","decorType":"waterside"},{"id":"way-690903872","lat":25.101293,"lon":121.849694,"name":"樹梅坪景觀平台","decorType":"park"},{"id":"way-690903873","lat":25.095215,"lon":121.851451,"name":"鷹山岩山神廟","decorType":"shrine"},{"id":"way-691971871","lat":25.110653,"lon":121.859878,"name":"未命名公園","decorType":"park"},{"id":"way-691971873","lat":25.112001,"lon":121.860089,"name":"未命名公園","decorType":"park"},{"id":"way-691981461","lat":25.11424,"lon":121.862415,"name":"未命名橋樑","decorType":"bridge"},{"id":"way-692151688","lat":25.108921,"lon":121.855329,"name":"基督教堂","decorType":"shrine"},{"id":"way-692391166","lat":25.12387,"lon":121.859398,"name":"未命名公園","decorType":"park"},{"id":"way-692391167","lat":25.123176,"lon":121.861457,"name":"未命名公園","decorType":"park"},{"id":"way-692391169","lat":25.121207,"lon":121.861845,"name":"未命名公園","decorType":"park"},{"id":"way-692391177","lat":25.119996,"lon":121.866395,"name":"長仁公園","decorType":"park"},{"id":"way-702035104","lat":25.079192,"lon":121.870598,"name":"未命名水邊","decorType":"waterside"},{"id":"way-706719496","lat":25.082758,"lon":121.86566,"name":"未命名水邊","decorType":"waterside"},{"id":"way-706947318","lat":25.087252,"lon":121.865122,"name":"燦光寮步道","decorType":"bridge"},{"id":"way-706947322","lat":25.086567,"lon":121.865344,"name":"未命名水邊","decorType":"waterside"},{"id":"way-713363376","lat":25.087033,"lon":121.872728,"name":"未命名水邊","decorType":"waterside"},{"id":"way-713363381","lat":25.087532,"lon":121.870583,"name":"未命名水邊","decorType":"waterside"},{"id":"way-713363382","lat":25.088138,"lon":121.870433,"name":"未命名水邊","decorType":"waterside"},{"id":"way-716711059","lat":25.10579,"lon":121.859976,"name":"未命名水邊","decorType":"waterside"},{"id":"way-716711260","lat":25.106325,"lon":121.859916,"name":"未命名水邊","decorType":"waterside"},{"id":"way-727252431","lat":25.083997,"lon":121.862438,"name":"未命名水邊","decorType":"waterside"},{"id":"way-727252432","lat":25.085111,"lon":121.864379,"name":"未命名水邊","decorType":"waterside"},{"id":"way-727252435","lat":25.08657,"lon":121.866937,"name":"未命名水邊","decorType":"waterside"},{"id":"way-738260335","lat":25.110381,"lon":121.842086,"name":"九份第一站背包客青旅民宿","decorType":"hotel"},{"id":"way-738260336","lat":25.110819,"lon":121.842174,"name":"九份第一站背包客青旅車棚","decorType":"hotel"},{"id":"way-762069568","lat":25.109071,"lon":121.86927,"name":"茶壺溪","decorType":"waterside"},{"id":"way-784649082","lat":25.107279,"lon":121.869948,"name":"未命名水邊","decorType":"waterside"},{"id":"way-788427642","lat":25.11981,"lon":121.878217,"name":"未命名水邊","decorType":"waterside"},{"id":"way-851066515","lat":25.118284,"lon":121.898869,"name":"未命名水邊","decorType":"waterside"},{"id":"way-851066516","lat":25.123405,"lon":121.915667,"name":"未命名水邊","decorType":"waterside"},{"id":"way-864042439","lat":25.087828,"lon":121.862496,"name":"未命名水邊","decorType":"waterside"},{"id":"way-892515720","lat":25.107487,"lon":121.868802,"name":"未命名山丘","decorType":"mountain"},{"id":"way-911279735","lat":25.103829,"lon":121.859127,"name":"本山礦坑步道","decorType":"bridge"},{"id":"way-911279757","lat":25.101776,"lon":121.858677,"name":"台電本山地質公園","decorType":"park"},{"id":"way-911279758","lat":25.106247,"lon":121.859494,"name":"未命名橋樑","decorType":"bridge"},{"id":"way-911279759","lat":25.106215,"lon":121.859494,"name":"未命名橋樑","decorType":"bridge"},{"id":"way-911279784","lat":25.108219,"lon":121.857207,"name":"未命名橋樑","decorType":"bridge"},{"id":"way-912420962","lat":25.104319,"lon":121.9229,"name":"龍洞一支(危險水域)","decorType":"mountain"},{"id":"way-912420963","lat":25.105541,"lon":121.923056,"name":"龍洞二支(危險水域)","decorType":"mountain"},{"id":"way-912420964","lat":25.105536,"lon":121.922757,"name":"龍洞二支(危險水域)","decorType":"mountain"},{"id":"way-913810029","lat":25.097652,"lon":121.854162,"name":"未命名水邊","decorType":"waterside"},{"id":"way-966146326","lat":25.111429,"lon":121.91764,"name":"未命名公園","decorType":"park"},{"id":"way-966146327","lat":25.10678,"lon":121.914767,"name":"未命名水邊","decorType":"waterside"},{"id":"way-969125882","lat":25.117942,"lon":121.88605,"name":"未命名橋樑","decorType":"bridge"},{"id":"way-973252385","lat":25.108885,"lon":121.915959,"name":"龍洞三號橋","decorType":"bridge"},{"id":"way-973252387","lat":25.111718,"lon":121.917831,"name":"龍洞街","decorType":"bridge"},{"id":"way-973252389","lat":25.115599,"lon":121.913741,"name":"龍洞一號橋","decorType":"bridge"},{"id":"way-973252966","lat":25.109546,"lon":121.922249,"name":"未命名山丘","decorType":"mountain"}]}