{"bbox":{"south":25.078125,"north":25.3,"west":121.83749999999999,"east":121.96875},"pois":[{"id":"node-10066804430","lat":25.1269121,"lon":121.9224011,"name":"鼻頭角山","decorType":"mountain"},{"id":"node-10300157009","lat":25.1073243,"lon":121.8457363,"name":"神隱國度","decorType":"hotel"},{"id":"node-10784468988","lat":25.0844612,"lon":121.8776051,"name":"草山南峰","decorType":"mountain"},{"id":"node-10802153990","lat":25.1240313,"lon":121.9141491,"name":"7-Eleven","decorType":"convenience"},{"id":"node-10901598486","lat":25.0849991,"lon":121.8445199,"name":"三貂崙","decorType":"mountain"},{"id":"node-10990524731","lat":25.1065292,"lon":121.8467061,"name":"福山宮","decorType":"bus_stop"},{"id":"node-11143512950","lat":25.1142129,"lon":121.869632,"name":"未命名山丘","decorType":"mountain"},{"id":"node-11180476608","lat":25.1159323,"lon":121.863295,"name":"未命名山丘","decorType":"mountain"},{"id":"node-11404879169","lat":25.1087357,"lon":121.8451167,"name":"Wow Box Inn (Entrance via Old Street)","decorType":"hotel"},{"id":"node-11404921169","lat":25.1085443,"lon":121.8451637,"name":"慈鴻素食","decorType":"restaurant"},{"id":"node-11413924112","lat":25.1076912,"lon":121.8469466,"name":"福山宮一","decorType":"bus_stop"},{"id":"node-11413924113","lat":25.1077385,"lon":121.8468292,"name":"福山宮一","decorType":"bus_stop"},{"id":"node-11419711179","lat":25.1259633,"lon":121.8504864,"name":"海濱路三巷","decorType":"bus_stop"},{"id":"node-11422453469","lat":25.1067891,"lon":121.851724,"name":"食不厭","decorType":"restaurant"},{"id":"node-11693378569","lat":25.1080082,"lon":121.84387,"name":"Niandai Beef Noodles","decorType":"restaurant"},{"id":"node-11809878739","lat":25.1083647,"lon":121.8439895,"name":"賴阿婆芋圓","decorType":"restaurant"},{"id":"node-12027950660","lat":25.1022851,"lon":121.840282,"name":"未命名山丘","decorType":"mountain"},{"id":"node-12027950665","lat":25.0791901,"lon":121.869077,"name":"未命名山丘","decorType":"mountain"},{"id":"node-12029688602","lat":25.1118835,"lon":121.9193583,"name":"歐夫寇斯","decorType":"hotel"},{"id":"node-12091117779","lat":25.1102002,"lon":121.8453651,"name":"全家便利商店","decorType":"convenience"},{"id":"node-12165531413","lat":25.1175026,"lon":121.8849828,"name":"南子吝山東南峰","decorType":"mountain"},{"id":"node-12513708801","lat":25.1089092,"lon":121.8408058,"name":"未命名飯店","decorType":"hotel"},{"id":"node-12778493146","lat":25.1126663,"lon":121.8508771,"name":"山尖步道","decorType":"bus_stop"},{"id":"node-12778493148","lat":25.1119445,"lon":121.8481579,"name":"隔頂","decorType":"bus_stop"},{"id":"node-12809342201","lat":25.1071162,"lon":121.8438383,"name":"拾光書院","decorType":"hotel"},{"id":"node-12814778701","lat":25.1098694,"lon":121.8595937,"name":"彩虹梯蔥油餅","decorType":"restaurant"},{"id":"node-12814778801","lat":25.1067662,"lon":121.8454551,"name":"Twilight Cafe","decorType":"cafe"},{"id":"node-13062847735","lat":25.1096509,"lon":121.8452455,"name":"金采的","decorType":"burger"},{"id":"node-13062913728","lat":25.1084044,"lon":121.843939,"name":"未命名郵局","decorType":"post_office"},{"id":"node-13062970085","lat":25.1088014,"lon":121.8447837,"name":"百年老屋","decorType":"restaurant"},{"id":"node-13062984521","lat":25.1084246,"lon":121.8433725,"name":"海悦樓","decorType":"cafe"},{"id":"node-13169118001","lat":25.1250092,"lon":121.9156582,"name":"鼻頭1號","decorType":"cafe"},{"id":"node-13372706899","lat":25.110446,"lon":121.8545634,"name":"石山","decorType":"bus_stop"},{"id":"node-13423767482","lat":25.1243773,"lon":121.8611561,"name":"萊爾富","decorType":"convenience"},{"id":"node-2071356259","lat":25.1085348,"lon":121.8436634,"name":"阿妹茶樓","decorType":"restaurant"},{"id":"node-2077450615","lat":25.1062216,"lon":121.8468396,"name":"福山宮","decorType":"bus_stop"},{"id":"node-2077454205","lat":25.1119763,"lon":121.8482134,"name":"隔頂","decorType":"bus_stop"},{"id":"node-2078146119","lat":25.1095005,"lon":121.8428616,"name":"九份派出所","decorType":"bus_stop"},{"id":"node-2078146121","lat":25.1094581,"lon":121.842623,"name":"九份派出所","decorType":"bus_stop"},{"id":"node-2078184567","lat":25.1084623,"lon":121.8561166,"name":"金瓜石(黃金博物館)","decorType":"bus_stop"},{"id":"node-2078192954","lat":25.1108039,"lon":121.8594874,"name":"勸濟堂","decorType":"bus_stop"},{"id":"node-2079679446","lat":25.1189121,"lon":121.8492141,"name":"基隆山","decorType":"mountain"},{"id":"node-2194118416","lat":25.0919703,"lon":121.9164298,"name":"未命名山丘","decorType":"mountain"},{"id":"node-2268440741","lat":25.0930251,"lon":121.865633,"name":"燦光寮山","decorType":"mountain"},{"id":"node-2291348648","lat":25.1097369,"lon":121.845348,"name":"7-Eleven","decorType":"convenience"},{"id":"node-2383920461","lat":25.1222982,"lon":121.8641682,"name":"水湳洞","decorType":"bus_stop"},{"id":"node-2383920462","lat":25.1221085,"lon":121.8635428,"name":"水湳洞","decorType":"bus_stop"},{"id":"node-2482610611","lat":25.1009765,"lon":121.9077109,"name":"蚊子坑山","decorType":"mountain"},{"id":"node-2482624445","lat":25.0944171,"lon":121.8758012,"name":"草山","decorType":"mountain"},{"id":"node-2482632010","lat":25.1012351,"lon":121.8957561,"name":"紅毛山","decorType":"mountain"},{"id":"node-2482632056","lat":25.1209231,"lon":121.8816651,"name":"南子吝山","decorType":"mountain"},{"id":"node-2482644232","lat":25.0996401,"lon":121.843856,"name":"金瓜石山","decorType":"mountain"},{"id":"node-2687896981","lat":25.1201387,"lon":121.8552832,"name":"基隆山東峰","decorType":"mountain"},{"id":"node-2688466746","lat":25.1234181,"lon":121.919638,"name":"鼻頭山","decorType":"mountain"},{"id":"node-2769117087","lat":25.1027601,"lon":121.839142,"name":"小粗坑山","decorType":"mountain"},{"id":"node-2769117127","lat":25.0998062,"lon":121.8381735,"name":"未命名神社","decorType":"shrine"},{"id":"node-2806178243","lat":25.1081545,"lon":121.8435344,"name":"九份茶坊","decorType":"cafe"},{"id":"node-2806184801","lat":25.1082403,"lon":121.8435475,"name":"九份藝術館","decorType":"art_gallery"},{"id":"node-2806184802","lat":25.1083083,"lon":121.8434659,"name":"陶工坊","decorType":"art_gallery"},{"id":"node-2864143769","lat":25.1208263,"lon":121.8880366,"name":"南雅南新宮","decorType":"bus_stop"},{"id":"node-2864197220","lat":25.1136287,"lon":121.8993578,"name":"南雅山","decorType":"mountain"},{"id":"node-2879729039","lat":25.1086667,"lon":121.8437667,"name":"芋仔番薯茶坊","decorType":"restaurant"},{"id":"node-2879969392","lat":25.1102859,"lon":121.8459907,"name":"九份老街","decorType":"bus_stop"},{"id":"node-2880026584","lat":25.1136603,"lon":121.8596293,"name":"報時山","decorType":"mountain"},{"id":"node-2882817312","lat":25.1103013,"lon":121.8662265,"name":"煙囪山","decorType":"mountain"},{"id":"node-2993467443","lat":25.108092,"lon":121.8572833,"name":"煉金文創咖啡","decorType":"cafe"},{"id":"node-2993481244","lat":25.1079921,"lon":121.8581253,"name":"礦工食堂","decorType":"restaurant"},{"id":"node-2997066266","lat":25.1120424,"lon":121.8480673,"name":"隔頂","decorType":"bus_stop"},{"id":"node-2997086568","lat":25.1111452,"lon":121.8596523,"name":"勸濟堂","decorType":"bus_stop"},{"id":"node-3039353944","lat":25.1047156,"lon":121.9197253,"name":"佛祖廟","decorType":"bus_stop"},{"id":"node-3039353945","lat":25.1048658,"lon":121.9199949,"name":"佛祖廟","decorType":"bus_stop"},{"id":"node-3039353946","lat":25.0903735,"lon":121.9127549,"name":"北勢坑口","decorType":"bus_stop"},{"id":"node-3039353947","lat":25.0907979,"lon":121.9133695,"name":"北勢坑口","decorType":"bus_stop"},{"id":"node-3039353948","lat":25.0830722,"lon":121.9140158,"name":"和美","decorType":"bus_stop"},{"id":"node-3039353949","lat":25.0831439,"lon":121.9138375,"name":"和美","decorType":"bus_stop"},{"id":"node-3039354021","lat":25.0993961,"lon":121.9169907,"name":"龍洞南口海洋公園","decorType":"bus_stop"},{"id":"node-3039354022","lat":25.1001405,"lon":121.9173164,"name":"龍洞南口海洋公園","decorType":"bus_stop"},{"id":"node-3039360213","lat":25.1142599,"lon":121.9126948,"name":"龍洞","decorType":"bus_stop"},{"id":"node-3039360214","lat":25.1143275,"lon":121.9125455,"name":"龍洞","decorType":"bus_stop"},{"id":"node-3039360215","lat":25.1109114,"lon":121.9158223,"name":"龍洞港","decorType":"bus_stop"},{"id":"node-3039360216","lat":25.1111269,"lon":121.9158887,"name":"龍洞港","decorType":"bus_stop"},{"id":"node-3039360217","lat":25.1174597,"lon":121.9162398,"name":"龍洞灣公園","decorType":"bus_stop"},{"id":"node-3039360218","lat":25.1176037,"lon":121.9161819,"name":"龍洞灣公園","decorType":"bus_stop"},{"id":"node-3039397881","lat":25.120631,"lon":121.8881353,"name":"南雅南新宮","decorType":"bus_stop"},{"id":"node-3039397882","lat":25.1229428,"lon":121.8760161,"name":"台金公司","decorType":"bus_stop"},{"id":"node-3039397883","lat":25.1232464,"lon":121.8757746,"name":"台金公司","decorType":"bus_stop"},{"id":"node-3039397884","lat":25.1228644,"lon":121.8632361,"name":"陰陽海","decorType":"bus_stop"},{"id":"node-3039397887","lat":25.1245055,"lon":121.8612498,"name":"玄明宮","decorType":"bus_stop"},{"id":"node-3039397901","lat":25.1217824,"lon":121.866728,"name":"船塢","decorType":"bus_stop"},{"id":"node-3039397902","lat":25.1220204,"lon":121.8667097,"name":"船塢","decorType":"bus_stop"},{"id":"node-3039397903","lat":25.1240858,"lon":121.9135836,"name":"鼻頭","decorType":"bus_stop"},{"id":"node-3039397904","lat":25.1215266,"lon":121.9168193,"name":"鼻頭角","decorType":"bus_stop"},{"id":"node-3039397905","lat":25.1217016,"lon":121.9168874,"name":"鼻頭角","decorType":"bus_stop"},{"id":"node-3150162543","lat":25.106363,"lon":121.865935,"name":"無耳茶壺山","decorType":"mountain"},{"id":"node-3287089093","lat":25.1090153,"lon":121.8455832,"name":"途中．九份 國際青年旅舍","decorType":"hotel"},{"id":"node-3407335926","lat":25.1069209,"lon":121.8417594,"name":"九份柳園民宿 Liu House","decorType":"hotel"},{"id":"node-3407340567","lat":25.1070142,"lon":121.8417376,"name":"喝杯咖啡 Her back Cafe","decorType":"cafe"},{"id":"node-4113556341","lat":25.0929021,"lon":121.8526625,"name":"牡丹山","decorType":"mountain"},{"id":"node-4113611406","lat":25.1213875,"lon":121.8822497,"name":"南子吝山東峰","decorType":"mountain"},{"id":"node-4198083024","lat":25.1161524,"lon":121.8619189,"name":"水螺山","decorType":"mountain"},{"id":"node-4201346296","lat":25.1072663,"lon":121.8721108,"name":"555峰","decorType":"mountain"},{"id":"node-4201346297","lat":25.1099965,"lon":121.8949622,"name":"苦苓嶺","decorType":"mountain"},{"id":"node-4227950893","lat":25.1078162,"lon":121.84311,"name":"九份觀海樓","decorType":"restaurant"},{"id":"node-4400785155","lat":25.0806519,"lon":121.854631,"name":"十三層老樹","decorType":"bus_stop"},{"id":"node-4450109491","lat":25.117791,"lon":121.8617327,"name":"黃金瀑布","decorType":"bus_stop"},{"id":"node-4499791642","lat":25.1175251,"lon":121.8417878,"name":"基隆山西峰","decorType":"mountain"},{"id":"node-4524105553","lat":25.1190886,"lon":121.8935805,"name":"老鷹岩","decorType":"mountain"},{"id":"node-4524105554","lat":25.116316,"lon":121.9018813,"name":"門牙岩","decorType":"mountain"},{"id":"node-4572252792","lat":25.1086445,"lon":121.8522347,"name":"Adagio stone house","decorType":"hotel"},{"id":"node-4789287823","lat":25.1067582,"lon":121.8517564,"name":"台北市食不厭","decorType":"hotel"},{"id":"node-4789626127","lat":25.1083706,"lon":121.8558985,"name":"金瓜石(黃金博物館)","decorType":"bus_stop"},{"id":"node-4789626128","lat":25.106541,"lon":121.855507,"name":"瓜山站","decorType":"bus_stop"},{"id":"node-4789637021","lat":25.107299,"lon":121.8531761,"name":"新山","decorType":"bus_stop"},{"id":"node-4789637121","lat":25.107699,"lon":121.8501269,"name":"金瓜橋頭","decorType":"bus_stop"},{"id":"node-4789637122","lat":25.1100206,"lon":121.8454052,"name":"分子冰琪淋","decorType":"cafe"},{"id":"node-4791258221","lat":25.1068624,"lon":121.8519669,"name":"保民宮","decorType":"bus_stop"},{"id":"node-4794578022","lat":25.1210237,"lon":121.9186476,"name":"燈塔小鋪","decorType":"cafe"},{"id":"node-4794578023","lat":25.1246459,"lon":121.9168063,"name":"阿春姨五十年古早味老店","decorType":"restaurant"},{"id":"node-4810723023","lat":25.1062979,"lon":121.8411647,"name":"林園村莊民宿九份山城","decorType":"hotel"},{"id":"node-4845964323","lat":25.109648,"lon":121.8453185,"name":"九份22号咖啡旅社","decorType":"hotel"},{"id":"node-4850713024","lat":25.1095096,"lon":121.8430018,"name":"九份故事楼民宿","decorType":"hotel"},{"id":"node-4883106321","lat":25.107759,"lon":121.8451956,"name":"溫莎堡民宿(老舍)","decorType":"hotel"},{"id":"node-4886170121","lat":25.1077352,"lon":121.8436496,"name":"九份阿柑姨芋圓","decorType":"restaurant"},{"id":"node-4891527261","lat":25.1202721,"lon":121.868165,"name":"威遠廟","decorType":"shrine"},{"id":"node-5110580399","lat":25.0877927,"lon":121.9120554,"name":"和美1號橋","decorType":"bus_stop"},{"id":"node-5110580400","lat":25.0910369,"lon":121.9148664,"name":"未命名神社","decorType":"shrine"},{"id":"node-5110580401","lat":25.0952397,"lon":121.9167645,"name":"未命名神社","decorType":"shrine"},{"id":"node-5110580402","lat":25.1216468,"lon":121.9169885,"name":"藍姑娘廟","decorType":"shrine"},{"id":"node-5110580404","lat":25.1209571,"lon":121.8687486,"name":"威遠廟","decorType":"bus_stop"},{"id":"node-5110580405","lat":25.122166,"lon":121.8638396,"name":"水湳洞","decorType":"bus_stop"},{"id":"node-5110580406","lat":25.12023,"lon":121.8619,"name":"茹川橋","decorType":"bus_stop"},{"id":"node-5110580407","lat":25.1197715,"lon":121.8617432,"name":"茹川橋","decorType":"bus_stop"},{"id":"node-5110580408","lat":25.117797,"lon":121.8615376,"name":"黃金瀑布","decorType":"bus_stop"},{"id":"node-5110580409","lat":25.1112858,"lon":121.8567032,"name":"瓜山國小(戰俘營)","decorType":"bus_stop"},{"id":"node-5110580410","lat":25.1104656,"lon":121.8547218,"name":"石山","decorType":"bus_stop"},{"id":"node-5110580413","lat":25.1066845,"lon":121.8554654,"name":"瓜山站","decorType":"bus_stop"},{"id":"node-5110580414","lat":25.10672,"lon":121.8519635,"name":"保民宮","decorType":"bus_stop"},{"id":"node-5110580415","lat":25.1099017,"lon":121.849837,"name":"南新山","decorType":"bus_stop"},{"id":"node-5110580416","lat":25.1103464,"lon":121.8457398,"name":"九份老街","decorType":"bus_stop"},{"id":"node-5110580417","lat":25.1110802,"lon":121.8460176,"name":"喜來園景觀民宿","decorType":"hotel"},{"id":"node-5110580418","lat":25.1106894,"lon":121.8453078,"name":"代天府","decorType":"bus_stop"},{"id":"node-5110580419","lat":25.1086769,"lon":121.8410731,"name":"大竿林","decorType":"bus_stop"},{"id":"node-5110580420","lat":25.110036,"lon":121.838862,"name":"七番坑","decorType":"bus_stop"},{"id":"node-5110581221","lat":25.109952,"lon":121.8389447,"name":"七番坑","decorType":"bus_stop"},{"id":"node-5110978053","lat":25.0881933,"lon":121.9123194,"name":"和美1號橋","decorType":"bus_stop"},{"id":"node-5389558575","lat":25.1077345,"lon":121.8422399,"name":"九份金礦博物館","decorType":"art_gallery"},{"id":"node-5468483041","lat":25.1100457,"lon":121.8674962,"name":"復興山","decorType":"mountain"},{"id":"node-5468755155","lat":25.113143,"lon":121.8810247,"name":"保羅尖","decorType":"mountain"},{"id":"node-5531077320","lat":25.1261333,"lon":121.849435,"name":"海濱路三巷","decorType":"bus_stop"},{"id":"node-5536046526","lat":25.124029,"lon":121.9139609,"name":"鼻頭","decorType":"bus_stop"},{"id":"node-5542923537","lat":25.093115,"lon":121.8610765,"name":"福德祠","decorType":"shrine"},{"id":"node-5603128333","lat":25.109226,"lon":121.843613,"name":"未命名餐廳","decorType":"restaurant"},{"id":"node-6115945169","lat":25.1184337,"lon":121.8811249,"name":"景觀點","decorType":"mountain"},{"id":"node-6115945170","lat":25.1217515,"lon":121.8823862,"name":"未命名山丘","decorType":"mountain"},{"id":"node-6159112217","lat":25.1084271,"lon":121.8438912,"name":"未命名郵局","decorType":"post_office"},{"id":"node-6159112218","lat":25.1075648,"lon":121.8429675,"name":"金山岩","decorType":"shrine"},{"id":"node-6159112219","lat":25.1073996,"lon":121.8427026,"name":"未命名郵局","decorType":"post_office"},{"id":"node-6255951209","lat":25.1098751,"lon":121.8497778,"name":"南新山","decorType":"bus_stop"},{"id":"node-6255951211","lat":25.108849,"lon":121.8409659,"name":"大竿林","decorType":"bus_stop"},{"id":"node-6255951212","lat":25.1078158,"lon":121.8502129,"name":"金瓜橋頭","decorType":"bus_stop"},{"id":"node-6255951213","lat":25.107928,"lon":121.8512596,"name":"六號橋","decorType":"bus_stop"},{"id":"node-6255951214","lat":25.107894,"lon":121.8509863,"name":"六號橋","decorType":"bus_stop"},{"id":"node-6255951215","lat":25.110598,"lon":121.8452439,"name":"代天府","decorType":"bus_stop"},{"id":"node-6256165437","lat":25.107282,"lon":121.853329,"name":"新山","decorType":"bus_stop"},{"id":"node-6326558201","lat":25.1119905,"lon":121.8603499,"name":"金瓜石砲台(雲長山)","decorType":"mountain"},{"id":"node-6327210125","lat":25.1016266,"lon":121.8683844,"name":"半屏山","decorType":"mountain"},{"id":"node-6335130468","lat":25.1037011,"lon":121.8478577,"name":"九份大眾廟","decorType":"shrine"},{"id":"node-6430986481","lat":25.1073364,"lon":121.8683911,"name":"黃金台","decorType":"mountain"},{"id":"node-6453580966","lat":25.1149017,"lon":121.8446226,"name":"未命名森林","decorType":"forest"},{"id":"node-6466685585","lat":25.1113757,"lon":121.8760686,"name":"381峰","decorType":"mountain"},{"id":"node-6466685586","lat":25.1098856,"lon":121.8750025,"name":"龍牙岩","decorType":"mountain"},{"id":"node-6475657732","lat":25.0990544,"lon":121.8541922,"name":"百年土地公廟","decorType":"shrine"},{"id":"node-6482212553","lat":25.0990093,"lon":121.8542029,"name":"福德正神碑","decorType":"shrine"},{"id":"node-6482249906","lat":25.0937031,"lon":121.8452161,"name":"有應祠","decorType":"shrine"},{"id":"node-6616775585","lat":25.1085972,"lon":121.8444555,"name":"未命名餐廳","decorType":"restaurant"},{"id":"node-6734905604","lat":25.1081701,"lon":121.8433312,"name":"山海觀","decorType":"restaurant"},{"id":"node-6734905613","lat":25.109722,"lon":121.8448921,"name":"配夜","decorType":"restaurant"},{"id":"node-6734905626","lat":25.1092346,"lon":121.8436821,"name":"山之細道","decorType":"restaurant"},{"id":"node-6792205739","lat":25.1101773,"lon":121.8580605,"name":"未命名公園","decorType":"park"},{"id":"node-6794354109","lat":25.1220072,"lon":121.9152863,"name":"The Bivy","decorType":"hotel"},{"id":"node-6794573760","lat":25.1091581,"lon":121.8440496,"name":"琚九屋","decorType":"hotel"},{"id":"node-6794573761","lat":25.1101455,"lon":121.8449732,"name":"CHLIV","decorType":"cafe"},{"id":"node-6794573762","lat":25.1100848,"lon":121.8449611,"name":"酉時暮光","decorType":"cafe"},{"id":"node-6954578581","lat":25.1107775,"lon":121.8420562,"name":"陽光味宿","decorType":"hotel"},{"id":"node-6957537985","lat":25.1108281,"lon":121.8425933,"name":"Sunny Room","decorType":"hotel"},{"id":"node-6961392089","lat":25.1076177,"lon":121.8446271,"name":"九份惠風民宿","decorType":"hotel"},{"id":"node-7008824586","lat":25.108682,"lon":121.8443875,"name":"阿蘭草仔粿","decorType":"sweetshop"},{"id":"node-7008824587","lat":25.1080941,"lon":121.8433276,"name":"護理長的店滷味","decorType":"burger"},{"id":"node-7014045688","lat":25.1091132,"lon":121.8455166,"name":"米詩堤甜點王國","decorType":"sweetshop"},{"id":"node-7136029992","lat":25.1086483,"lon":121.8573553,"name":"全家便利商店","decorType":"convenience"},{"id":"node-8432400482","lat":25.1180016,"lon":121.866118,"name":"長仁社區(新巴士)","decorType":"bus_stop"},{"id":"node-8432400630","lat":25.123265,"lon":121.86129,"name":"職員宿舍觀景台","decorType":"bus_stop"},{"id":"node-8432400640","lat":25.111675,"lon":121.915569,"name":"龍洞漁港","decorType":"bus_stop"},{"id":"node-8432400913","lat":25.112353,"lon":121.919128,"name":"和美國小","decorType":"bus_stop"},{"id":"node-8432401546","lat":25.1142881,"lon":121.9124883,"name":"龍洞","decorType":"bus_stop"},{"id":"node-8432401583","lat":25.115258,"lon":121.8550852,"name":"福興宮","decorType":"bus_stop"},{"id":"node-8432401586","lat":25.116113,"lon":121.854671,"name":"石山社區","decorType":"bus_stop"},{"id":"node-8432401587","lat":25.1113293,"lon":121.856814,"name":"瓜山國小(戰俘營)","decorType":"bus_stop"},{"id":"node-8432401590","lat":25.1095062,"lon":121.8426403,"name":"九份派出所","decorType":"bus_stop"},{"id":"node-8432401591","lat":25.109525,"lon":121.842889,"name":"九份派出所","decorType":"bus_stop"},{"id":"node-8837114617","lat":25.101213,"lon":121.918283,"name":"龍洞四季灣","decorType":"hotel"},{"id":"node-8862669360","lat":25.0805811,"lon":121.8408599,"name":"三貂嶺山","decorType":"mountain"},{"id":"node-8862669361","lat":25.1138276,"lon":121.8975009,"name":"南雅山西峰","decorType":"mountain"},{"id":"node-9197126503","lat":25.0805791,"lon":121.870021,"name":"大牛埔山","decorType":"mountain"},{"id":"node-9950430367","lat":25.1150729,"lon":121.8553172,"name":"土地公廟","decorType":"shrine"},{"id":"node-9979395800","lat":25.104745,"lon":121.8655372,"name":"金老二","decorType":"mountain"},{"id":"way-1003838136","lat":25.0868084,"lon":121.8671869,"name":"燦光寮古道","decorType":"bridge"},{"id":"way-1003838138","lat":25.085237,"lon":121.8653064,"name":"燦光寮古道","decorType":"bridge"},{"id":"way-1003838140","lat":25.0850099,"lon":121.8648496,"name":"燦光寮古道","decorType":"bridge"},{"id":"way-1039615779","lat":25.107748,"lon":121.8418081,"name":"未命名橋樑","decorType":"bridge"},{"id":"way-1039615781","lat":25.1082514,"lon":121.8419056,"name":"大竿林橋","decorType":"bridge"},{"id":"way-1058554001","lat":25.1221492,"lon":121.8666664,"name":"未命名水邊","decorType":"waterside"},{"id":"way-1058554002","lat":25.1219216,"lon":121.8666747,"name":"未命名水邊","decorType":"waterside"},{"id":"way-1058554004","lat":25.1209316,"lon":121.8667552,"name":"未命名橋樑","decorType":"bridge"},{"id":"way-1058554006","lat":25.1200428,"lon":121.8670024,"name":"未命名橋樑","decorType":"bridge"},{"id":"way-1058554008","lat":25.1190678,"lon":121.8675592,"name":"未命名橋樑","decorType":"bridge"},{"id":"way-1058554010","lat":25.1177905,"lon":121.8681076,"name":"未命名橋樑","decorType":"bridge"},{"id":"way-1058554012","lat":25.117564,"lon":121.86815,"name":"未命名橋樑","decorType":"bridge"},{"id":"way-1058554014","lat":25.1231812,"lon":121.8707375,"name":"樂利橋","decorType":"bridge"},{"id":"way-1058554017","lat":25.1235664,"lon":121.8690107,"name":"未命名山丘","decorType":"mountain"},{"id":"way-1058554018","lat":25.1243908,"lon":121.8699316,"name":"未命名山丘","decorType":"mountain"},{"id":"way-1076866786","lat":25.1060012,"lon":121.8424538,"name":"未命名水邊","decorType":"waterside"},{"id":"way-1076866789","lat":25.1074596,"lon":121.8415743,"name":"未命名水邊","decorType":"waterside"},{"id":"way-1076874203","lat":25.1117293,"lon":121.8381783,"name":"未命名水邊","decorType":"waterside"},{"id":"way-1084603818","lat":25.1047636,"lon":121.8593429,"name":"未命名水邊","decorType":"waterside"},{"id":"way-1085949800","lat":25.1099212,"lon":121.8586408,"name":"洗衣亭","decorType":"laundry"},{"id":"way-1085949806","lat":25.1114847,"lon":121.8576005,"name":"瓜山橋","decorType":"bridge"},{"id":"way-1086559397","lat":25.1114884,"lon":121.8443142,"name":"九份星塵餐廳","decorType":"restaurant"},{"id":"way-1090167951","lat":25.1041248,"lon":121.8657065,"name":"未命名水邊","decorType":"waterside"},{"id":"way-1093278241","lat":25.1055517,"lon":121.8623854,"name":"未命名水邊","decorType":"waterside"},{"id":"way-1126140057","lat":25.1249874,"lon":121.8377985,"name":"未命名水邊","decorType":"waterside"},{"id":"way-1149342890","lat":25.07884,"lon":121.892095,"name":"未命名水邊","decorType":"waterside"},{"id":"way-1154051112","lat":25.081835,"lon":121.9140896,"name":"和美二號橋","decorType":"bridge"},{"id":"way-1156314642","lat":25.1114099,"lon":121.8698306,"name":"未命名水邊","decorType":"waterside"},{"id":"way-1176835235","lat":25.1055532,"lon":121.8609691,"name":"廢棄蓄水池","decorType":"waterside"},{"id":"way-1181241258","lat":25.1152092,"lon":121.9138969,"name":"龍洞地質公園","decorType":"park"},{"id":"way-1181241261","lat":25.1156202,"lon":121.9141225,"name":"未命名橋樑","decorType":"bridge"},{"id":"way-1184114698","lat":25.0825689,"lon":121.9111654,"name":"未命名橋樑","decorType":"bridge"},{"id":"way-1185498665","lat":25.1088599,"lon":121.857828,"name":"共學館","decorType":"art_gallery"},{"id":"way-1197110059","lat":25.1266816,"lon":121.919314,"name":"鼻頭角稜谷步道","decorType":"bridge"},{"id":"way-1197186063","lat":25.1196451,"lon":121.8619232,"name":"未命名橋樑","decorType":"bridge"},{"id":"way-1197186068","lat":25.1152414,"lon":121.864855,"name":"未命名水邊","decorType":"waterside"},{"id":"way-1197186069","lat":25.1171137,"lon":121.8644316,"name":"未命名水邊","decorType":"waterside"},{"id":"way-1206545156","lat":25.1121788,"lon":121.8537281,"name":"未命名橋樑","decorType":"bridge"},{"id":"way-1227275763","lat":25.1075825,"lon":121.8418523,"name":"未命名橋樑","decorType":"bridge"},{"id":"way-1227324092","lat":25.1084059,"lon":121.8427683,"name":"未命名森林","decorType":"forest"},{"id":"way-1227324093","lat":25.1080348,"lon":121.8418819,"name":"未命名森林","decorType":"forest"},{"id":"way-1227324094","lat":25.1082297,"lon":121.8384593,"name":"未命名森林","decorType":"forest"},{"id":"way-1227324095","lat":25.1047967,"lon":121.845521,"name":"未命名森林","decorType":"forest"},{"id":"way-1227324096","lat":25.1045909,"lon":121.8456235,"name":"未命名森林","decorType":"forest"},{"id":"way-1227324097","lat":25.1043163,"lon":121.8458119,"name":"未命名森林","decorType":"forest"},{"id":"way-1227324098","lat":25.10626,"lon":121.8504488,"name":"未命名森林","decorType":"forest"},{"id":"way-1227324099","lat":25.1062005,"lon":121.8484627,"name":"未命名森林","decorType":"forest"},{"id":"way-1227324100","lat":25.105185,"lon":121.8491731,"name":"未命名森林","decorType":"forest"},{"id":"way-1227324101","lat":25.1074926,"lon":121.8517692,"name":"未命名森林","decorType":"forest"},{"id":"way-1227324102","lat":25.1078108,"lon":121.8507091,"name":"未命名森林","decorType":"forest"},{"id":"way-1229640043","lat":25.0884282,"lon":121.8556122,"name":"未命名水邊","decorType":"waterside"},{"id":"way-1230264132","lat":25.0884554,"lon":121.9121923,"name":"和美一號橋","decorType":"bridge"},{"id":"way-1230787651","lat":25.120771,"lon":121.8877928,"name":"水南橋","decorType":"bridge"},{"id":"way-1231058490","lat":25.1105701,"lon":121.8406468,"name":"未命名水邊","decorType":"waterside"},{"id":"way-1231060863","lat":25.1264461,"lon":121.8397691,"name":"未命名水邊","decorType":"waterside"},{"id":"way-1237415967","lat":25.0971571,"lon":121.854836,"name":"未命名水邊","decorType":"waterside"},{"id":"way-1274039884","lat":25.1062125,"lon":121.8595344,"name":"未命名橋樑","decorType":"bridge"},{"id":"way-1341355340","lat":25.1204367,"lon":121.8881108,"name":"南雅南新宮","decorType":"shrine"},{"id":"way-1347070788","lat":25.1065783,"lon":121.8533101,"name":"未命名森林","decorType":"forest"},{"id":"way-1347070789","lat":25.1071622,"lon":121.8527549,"name":"未命名森林","decorType":"forest"},{"id":"way-1351817352","lat":25.1119721,"lon":121.8482436,"name":"未命名橋樑","decorType":"bridge"},{"id":"way-1380272547","lat":25.1130975,"lon":121.8548483,"name":"石在幸福水岸石頭公園","decorType":"park"},{"id":"way-1380272552","lat":25.1127664,"lon":121.8527543,"name":"未命名橋樑","decorType":"bridge"},{"id":"way-1380667724","lat":25.1225698,"lon":121.8636812,"name":"安和橋","decorType":"bridge"},{"id":"way-1380667725","lat":25.1222552,"lon":121.864187,"name":"未命名橋樑","decorType":"bridge"},{"id":"way-1413463748","lat":25.1227353,"lon":121.8607419,"name":"台電金水基地","decorType":"art_gallery"},{"id":"way-1433692043","lat":25.1022977,"lon":121.8519582,"name":"未命名水邊","decorType":"waterside"},{"id":"way-1433692044","lat":25.1026421,"lon":121.8524321,"name":"未命名水邊","decorType":"waterside"},{"id":"way-1433692045","lat":25.1066955,"lon":121.8547003,"name":"未命名水邊","decorType":"waterside"},{"id":"way-1433692046","lat":25.1063671,"lon":121.8545544,"name":"未命名水邊","decorType":"waterside"},{"id":"way-1433692048","lat":25.1066055,"lon":121.8553996,"name":"金瓜石橋","decorType":"bridge"},{"id":"way-1433692049","lat":25.1039172,"lon":121.8549533,"name":"九份溪","decorType":"waterside"},{"id":"way-1433692050","lat":25.1086739,"lon":121.8543863,"name":"九份溪","decorType":"waterside"},{"id":"way-1433692051","lat":25.1078602,"lon":121.8546564,"name":"九份溪","decorType":"waterside"},{"id":"way-1433692052","lat":25.1070559,"lon":121.8548469,"name":"九份溪","decorType":"waterside"},{"id":"way-1433692053","lat":25.0992896,"lon":121.8545752,"name":"九份溪","decorType":"waterside"},{"id":"way-1433692054","lat":25.1007811,"lon":121.8546797,"name":"九份溪","decorType":"waterside"},{"id":"way-1434447546","lat":25.105962,"lon":121.8904054,"name":"石梯坑溪","decorType":"waterside"},{"id":"way-1434447547","lat":25.1079449,"lon":121.8913406,"name":"石梯坑溪","decorType":"waterside"},{"id":"way-1434447548","lat":25.119236,"lon":121.8927499,"name":"石梯坑溪","decorType":"waterside"},{"id":"way-1434447549","lat":25.1183194,"lon":121.8927902,"name":"石梯坑溪","decorType":"waterside"},{"id":"way-1434447550","lat":25.1173614,"lon":121.8929484,"name":"石梯坑溪","decorType":"waterside"},{"id":"way-1434447551","lat":25.1163735,"lon":121.8931893,"name":"石梯坑溪","decorType":"waterside"},{"id":"way-1434447552","lat":25.1158614,"lon":121.8932526,"name":"石梯坑溪","decorType":"waterside"},{"id":"way-1434447553","lat":25.1153787,"lon":121.893344,"name":"石梯坑溪","decorType":"waterside"},{"id":"way-1434447554","lat":25.1168,"lon":121.8861714,"name":"未命名水邊","decorType":"waterside"},{"id":"way-1434447555","lat":25.1179379,"lon":121.8860403,"name":"未命名水邊","decorType":"waterside"},{"id":"way-1434447556","lat":25.1180783,"lon":121.8860124,"name":"未命名水邊","decorType":"waterside"},{"id":"way-1434447557","lat":25.1182156,"lon":121.886014,"name":"未命名水邊","decorType":"waterside"},{"id":"way-1434447558","lat":25.118782,"lon":121.886664,"name":"未命名水邊","decorType":"waterside"},{"id":"way-1434447559","lat":25.1193502,"lon":121.8871083,"name":"未命名水邊","decorType":"waterside"},{"id":"way-1434447560","lat":25.1211969,"lon":121.8881035,"name":"未命名水邊","decorType":"waterside"},{"id":"way-1434447561","lat":25.1206533,"lon":121.887763,"name":"未命名水邊","decorType":"waterside"},{"id":"way-1434447562","lat":25.1207819,"lon":121.887794,"name":"未命名水邊","decorType":"waterside"},{"id":"way-1434447563","lat":25.1209096,"lon":121.8877863,"name":"未命名水邊","decorType":"waterside"},{"id":"way-1434447564","lat":25.1171925,"lon":121.8727437,"name":"未命名水邊","decorType":"waterside"},{"id":"way-1434447565","lat":25.1180235,"lon":121.8730011,"name":"未命名水邊","decorType":"waterside"},{"id":"way-1434447566","lat":25.1181976,"lon":121.8729977,"name":"未命名水邊","decorType":"waterside"},{"id":"way-1434447567","lat":25.1183434,"lon":121.8729944,"name":"未命名水邊","decorType":"waterside"},{"id":"way-1434447568","lat":25.1196809,"lon":121.8732255,"name":"未命名水邊","decorType":"waterside"},{"id":"way-1434447569","lat":25.1210046,"lon":121.8731403,"name":"未命名水邊","decorType":"waterside"},{"id":"way-1434447570","lat":25.1216734,"lon":121.8734568,"name":"未命名水邊","decorType":"waterside"},{"id":"way-1434447571","lat":25.1222981,"lon":121.8740097,"name":"未命名水邊","decorType":"waterside"},{"id":"way-1434447572","lat":25.1232919,"lon":121.8760614,"name":"未命名水邊","decorType":"waterside"},{"id":"way-1434447573","lat":25.1231505,"lon":121.8756407,"name":"未命名水邊","decorType":"waterside"},{"id":"way-1434447574","lat":25.1231673,"lon":121.8757732,"name":"未命名水邊","decorType":"waterside"},{"id":"way-1434447575","lat":25.123157,"lon":121.8756922,"name":"未命名水邊","decorType":"waterside"},{"id":"way-1434789998","lat":25.0903409,"lon":121.8701371,"name":"牡丹溪","decorType":"waterside"},{"id":"way-1434789999","lat":25.0873669,"lon":121.8685376,"name":"牡丹溪","decorType":"waterside"},{"id":"way-1434790000","lat":25.0811048,"lon":121.8571076,"name":"牡丹溪","decorType":"waterside"},{"id":"way-1434790001","lat":25.0812758,"lon":121.8587936,"name":"牡丹溪","decorType":"waterside"},{"id":"way-1434790002","lat":25.0812964,"lon":121.855441,"name":"未命名水邊","decorType":"waterside"},{"id":"way-1434790003","lat":25.0813836,"lon":121.8554139,"name":"未命名水邊","decorType":"waterside"},{"id":"way-1434790004","lat":25.0782757,"lon":121.8524376,"name":"未命名水邊","decorType":"waterside"},{"id":"way-1434790005","lat":25.0792389,"lon":121.8520019,"name":"未命名水邊","decorType":"waterside"},{"id":"way-1434790008","lat":25.0915447,"lon":121.8615768,"name":"未命名水邊","decorType":"waterside"},{"id":"way-1434790009","lat":25.0910351,"lon":121.8618369,"name":"未命名水邊","decorType":"waterside"},{"id":"way-1434790010","lat":25.0908708,"lon":121.8618558,"name":"未命名水邊","decorType":"waterside"},{"id":"way-1434790011","lat":25.0909457,"lon":121.8618678,"name":"未命名水邊","decorType":"waterside"},{"id":"way-1434790028","lat":25.0885387,"lon":121.8704804,"name":"未命名水邊","decorType":"waterside"},{"id":"way-1434790029","lat":25.0883598,"lon":121.8704844,"name":"未命名水邊","decorType":"waterside"},{"id":"way-1434790030","lat":25.0885577,"lon":121.8711415,"name":"未命名水邊","decorType":"waterside"},{"id":"way-1434790031","lat":25.0884142,"lon":121.8709625,"name":"未命名水邊","decorType":"waterside"},{"id":"way-1434790032","lat":25.0864056,"lon":121.8720212,"name":"未命名水邊","decorType":"waterside"},{"id":"way-1434790033","lat":25.0865911,"lon":121.8715926,"name":"未命名水邊","decorType":"waterside"},{"id":"way-1441501303","lat":25.0827028,"lon":121.8625458,"name":"未命名水邊","decorType":"waterside"},{"id":"way-1441501304","lat":25.0831137,"lon":121.8622502,"name":"未命名水邊","decorType":"waterside"},{"id":"way-1441501305","lat":25.0822756,"lon":121.8629093,"name":"未命名水邊","decorType":"waterside"},{"id":"way-1441501306","lat":25.0823138,"lon":121.8628597,"name":"未命名水邊","decorType":"waterside"},{"id":"way-1442076352","lat":25.0906447,"lon":121.8424204,"name":"未命名水邊","decorType":"waterside"},{"id":"way-1442076353","lat":25.0903997,"lon":121.8427544,"name":"未命名水邊","decorType":"waterside"},{"id":"way-1442076354","lat":25.0900965,"lon":121.8430923,"name":"未命名水邊","decorType":"waterside"},{"id":"way-1442076355","lat":25.0897944,"lon":121.8434146,"name":"未命名水邊","decorType":"waterside"},{"id":"way-1442076380","lat":25.1281291,"lon":121.838757,"name":"未命名水邊","decorType":"waterside"},{"id":"way-1442076381","lat":25.1275931,"lon":121.838924,"name":"未命名水邊","decorType":"waterside"},{"id":"way-1442076386","lat":25.1141308,"lon":121.8382429,"name":"未命名水邊","decorType":"waterside"},{"id":"way-1442076387","lat":25.1135881,"lon":121.838347,"name":"未命名水邊","decorType":"waterside"},{"id":"way-1442076388","lat":25.1108736,"lon":121.8383529,"name":"未命名水邊","decorType":"waterside"},{"id":"way-1442076389","lat":25.1110041,"lon":121.8382467,"name":"未命名水邊","decorType":"waterside"},{"id":"way-1442076390","lat":25.1111008,"lon":121.8381681,"name":"未命名水邊","decorType":"waterside"},{"id":"way-1442076391","lat":25.1110522,"lon":121.8382075,"name":"未命名水邊","decorType":"waterside"},{"id":"way-1442076392","lat":25.1129232,"lon":121.8384087,"name":"未命名水邊","decorType":"waterside"},{"id":"way-1442076393","lat":25.112345,"lon":121.8384201,"name":"未命名水邊","decorType":"waterside"},{"id":"way-1442076394","lat":25.1135035,"lon":121.838356,"name":"未命名水邊","decorType":"waterside"},{"id":"way-1442076395","lat":25.1141134,"lon":121.838718,"name":"未命名水邊","decorType":"waterside"},{"id":"way-1442076396","lat":25.1135648,"lon":121.8393279,"name":"未命名水邊","decorType":"waterside"},{"id":"way-1442076399","lat":25.1106447,"lon":121.8385065,"name":"未命名水邊","decorType":"waterside"},{"id":"way-1442076400","lat":25.1107405,"lon":121.838451,"name":"未命名水邊","decorType":"waterside"},{"id":"way-1442076401","lat":25.1073953,"lon":121.841937,"name":"未命名水邊","decorType":"waterside"},{"id":"way-1442076402","lat":25.1071373,"lon":121.8421029,"name":"未命名水邊","decorType":"waterside"},{"id":"way-1442076403","lat":25.1069755,"lon":121.8421474,"name":"未命名水邊","decorType":"waterside"},{"id":"way-1442076404","lat":25.1067981,"lon":121.8421839,"name":"未命名水邊","decorType":"waterside"},{"id":"way-1442076451","lat":25.0998541,"lon":121.8409882,"name":"小粗坑","decorType":"waterside"},{"id":"way-1442076452","lat":25.0996359,"lon":121.8405015,"name":"小粗坑","decorType":"waterside"},{"id":"way-1442076459","lat":25.109951,"lon":121.8525432,"name":"未命名水邊","decorType":"waterside"},{"id":"way-1442076460","lat":25.109863,"lon":121.8521217,"name":"未命名水邊","decorType":"waterside"},{"id":"way-1442076461","lat":25.1052775,"lon":121.8513045,"name":"未命名水邊","decorType":"waterside"},{"id":"way-1442076462","lat":25.1067254,"lon":121.8518509,"name":"未命名水邊","decorType":"waterside"},{"id":"way-1442076463","lat":25.1095002,"lon":121.8529026,"name":"未命名水邊","decorType":"waterside"},{"id":"way-1442076464","lat":25.1086258,"lon":121.8525028,"name":"未命名水邊","decorType":"waterside"},{"id":"way-1442265162","lat":25.1189092,"lon":121.8618467,"name":"未命名水邊","decorType":"waterside"},{"id":"way-1442265163","lat":25.1188926,"lon":121.8619591,"name":"未命名水邊","decorType":"waterside"},{"id":"way-1442265164","lat":25.1184195,"lon":121.8613853,"name":"未命名水邊","decorType":"waterside"},{"id":"way-1442265165","lat":25.1176806,"lon":121.8614434,"name":"未命名水邊","decorType":"waterside"},{"id":"way-1442265166","lat":25.1177785,"lon":121.8614065,"name":"未命名水邊","decorType":"waterside"},{"id":"way-1442265167","lat":25.1178602,"lon":121.8613825,"name":"未命名水邊","decorType":"waterside"},{"id":"way-1442265168","lat":25.1179553,"lon":121.8613599,"name":"未命名水邊","decorType":"waterside"},{"id":"way-1442265169","lat":25.1181916,"lon":121.8614092,"name":"未命名水邊","decorType":"waterside"},{"id":"way-1442265170","lat":25.1180657,"lon":121.8613576,"name":"未命名水邊","decorType":"waterside"},{"id":"way-1442265171","lat":25.1182838,"lon":121.8614335,"name":"未命名水邊","decorType":"waterside"},{"id":"way-1442265172","lat":25.1146481,"lon":121.8519171,"name":"未命名水邊","decorType":"waterside"},{"id":"way-1442265173","lat":25.114787,"lon":121.8522614,"name":"未命名水邊","decorType":"waterside"},{"id":"way-1442265174","lat":25.1131135,"lon":121.8506378,"name":"未命名水邊","decorType":"waterside"},{"id":"way-1442265175","lat":25.1129046,"lon":121.8508699,"name":"未命名水邊","decorType":"waterside"},{"id":"way-1442265176","lat":25.1128154,"lon":121.8509691,"name":"未命名水邊","decorType":"waterside"},{"id":"way-1442265177","lat":25.1128499,"lon":121.8509307,"name":"未命名水邊","decorType":"waterside"},{"id":"way-1442265178","lat":25.1127335,"lon":121.8516872,"name":"未命名水邊","decorType":"waterside"},{"id":"way-1442265179","lat":25.1126575,"lon":121.8524393,"name":"未命名水邊","decorType":"waterside"},{"id":"way-1442265180","lat":25.1149316,"lon":121.852953,"name":"未命名水邊","decorType":"waterside"},{"id":"way-1442265181","lat":25.11506,"lon":121.8536428,"name":"未命名水邊","decorType":"waterside"},{"id":"way-1443630962","lat":25.0841748,"lon":121.8929073,"name":"南勢坑溪","decorType":"waterside"},{"id":"way-1443630963","lat":25.0841489,"lon":121.8970623,"name":"南勢坑溪","decorType":"waterside"},{"id":"way-1443630964","lat":25.0842264,"lon":121.897384,"name":"南勢坑溪","decorType":"waterside"},{"id":"way-1443630965","lat":25.0842181,"lon":121.8976988,"name":"南勢坑溪","decorType":"waterside"},{"id":"way-1443630966","lat":25.0839826,"lon":121.8981412,"name":"南勢坑溪","decorType":"waterside"},{"id":"way-1443630967","lat":25.0838451,"lon":121.8986066,"name":"南勢坑溪","decorType":"waterside"},{"id":"way-1443630968","lat":25.0838735,"lon":121.8987618,"name":"南勢坑溪","decorType":"waterside"},{"id":"way-1443630969","lat":25.0838758,"lon":121.8986968,"name":"南勢坑溪","decorType":"waterside"},{"id":"way-1443630970","lat":25.0837051,"lon":121.8993019,"name":"南勢坑溪","decorType":"waterside"},{"id":"way-1443630971","lat":25.0835831,"lon":121.8998393,"name":"南勢坑溪","decorType":"waterside"},{"id":"way-1443630972","lat":25.0836646,"lon":121.9000428,"name":"南勢坑溪","decorType":"waterside"},{"id":"way-1443630973","lat":25.0837452,"lon":121.9002443,"name":"南勢坑溪","decorType":"waterside"},{"id":"way-1443630974","lat":25.0839658,"lon":121.9017,"name":"南勢坑溪","decorType":"waterside"},{"id":"way-1443630975","lat":25.0841908,"lon":121.9031557,"name":"南勢坑溪","decorType":"waterside"},{"id":"way-1443630976","lat":25.0843277,"lon":121.9035767,"name":"南勢坑溪","decorType":"waterside"},{"id":"way-1443630977","lat":25.0843516,"lon":121.9040023,"name":"南勢坑溪","decorType":"waterside"},{"id":"way-1443630978","lat":25.0845169,"lon":121.9061324,"name":"南勢坑溪","decorType":"waterside"},{"id":"way-1443630979","lat":25.0842952,"lon":121.9082567,"name":"南勢坑溪","decorType":"waterside"},{"id":"way-1443630990","lat":25.0787694,"lon":121.8825805,"name":"文秀坑溪","decorType":"waterside"},{"id":"way-1443630991","lat":25.0783182,"lon":121.8826324,"name":"文秀坑溪","decorType":"waterside"},{"id":"way-1443631006","lat":25.110185,"lon":121.9179939,"name":"未命名水邊","decorType":"waterside"},{"id":"way-1443631007","lat":25.1103081,"lon":121.917926,"name":"未命名水邊","decorType":"waterside"},{"id":"way-1443631008","lat":25.1209961,"lon":121.91438,"name":"未命名水邊","decorType":"waterside"},{"id":"way-1443631009","lat":25.1215918,"lon":121.9146157,"name":"未命名水邊","decorType":"waterside"},{"id":"way-1443631010","lat":25.1219125,"lon":121.9152289,"name":"未命名水邊","decorType":"waterside"},{"id":"way-1443631011","lat":25.1222371,"lon":121.9158646,"name":"未命名水邊","decorType":"waterside"},{"id":"way-1443631012","lat":25.1213808,"lon":121.8792186,"name":"半屏溪","decorType":"waterside"},{"id":"way-1443631013","lat":25.1197957,"lon":121.8791896,"name":"半屏溪","decorType":"waterside"},{"id":"way-1443631014","lat":25.1197521,"lon":121.8769281,"name":"未命名水邊","decorType":"waterside"},{"id":"way-1443631015","lat":25.1194103,"lon":121.8766913,"name":"未命名水邊","decorType":"waterside"},{"id":"way-1443631016","lat":25.1192355,"lon":121.8766485,"name":"未命名水邊","decorType":"waterside"},{"id":"way-1443631017","lat":25.1190906,"lon":121.8766129,"name":"未命名水邊","decorType":"waterside"},{"id":"way-1443631018","lat":25.1218376,"lon":121.8666743,"name":"未命名水邊","decorType":"waterside"},{"id":"way-1443631019","lat":25.116478,"lon":121.8643367,"name":"未命名水邊","decorType":"waterside"},{"id":"way-1443631020","lat":25.1159038,"lon":121.8644425,"name":"未命名水邊","decorType":"waterside"},{"id":"way-1443631021","lat":25.1167254,"lon":121.8611173,"name":"未命名水邊","decorType":"waterside"},{"id":"way-1443631022","lat":25.1168458,"lon":121.8611652,"name":"未命名水邊","decorType":"waterside"},{"id":"way-1443631023","lat":25.1139632,"lon":121.8567733,"name":"內九份溪","decorType":"waterside"},{"id":"way-1443631024","lat":25.1131337,"lon":121.8574267,"name":"內九份溪","decorType":"waterside"},{"id":"way-1443631027","lat":25.113516,"lon":121.8550998,"name":"未命名水邊","decorType":"waterside"},{"id":"way-1443631028","lat":25.1132155,"lon":121.8552106,"name":"未命名水邊","decorType":"waterside"},{"id":"way-1443631029","lat":25.1128014,"lon":121.8553146,"name":"未命名水邊","decorType":"waterside"},{"id":"way-1443631030","lat":25.1123836,"lon":121.8553793,"name":"未命名水邊","decorType":"waterside"},{"id":"way-1443631031","lat":25.1109762,"lon":121.855991,"name":"未命名水邊","decorType":"waterside"},{"id":"way-1443631032","lat":25.1112469,"lon":121.8560568,"name":"未命名水邊","decorType":"waterside"},{"id":"way-1443786235","lat":25.110592,"lon":121.8647126,"name":"未命名水邊","decorType":"waterside"},{"id":"way-1443786236","lat":25.1112236,"lon":121.8645217,"name":"未命名水邊","decorType":"waterside"},{"id":"way-1443786237","lat":25.1087212,"lon":121.8524971,"name":"未命名水邊","decorType":"waterside"},{"id":"way-1443786238","lat":25.1088104,"lon":121.8524963,"name":"未命名水邊","decorType":"waterside"},{"id":"way-1443786239","lat":25.106039,"lon":121.860032,"name":"未命名水邊","decorType":"waterside"},{"id":"way-1443786240","lat":25.1060067,"lon":121.8599986,"name":"未命名水邊","decorType":"waterside"},{"id":"way-1443786241","lat":25.1058691,"lon":121.8604527,"name":"未命名水邊","decorType":"waterside"},{"id":"way-1443786242","lat":25.1058493,"lon":121.8605446,"name":"未命名水邊","decorType":"waterside"},{"id":"way-1443786243","lat":25.104189,"lon":121.8615785,"name":"未命名水邊","decorType":"waterside"},{"id":"way-1443786244","lat":25.1042304,"lon":121.8617412,"name":"未命名水邊","decorType":"waterside"},{"id":"way-1443786245","lat":25.1055621,"lon":121.8643148,"name":"未命名水邊","decorType":"waterside"},{"id":"way-1443786246","lat":25.1054321,"lon":121.8636111,"name":"未命名水邊","decorType":"waterside"},{"id":"way-1443786247","lat":25.1010206,"lon":121.8634743,"name":"未命名水邊","decorType":"waterside"},{"id":"way-1443786248","lat":25.1010558,"lon":121.8635271,"name":"未命名水邊","decorType":"waterside"},{"id":"way-1443786249","lat":25.0992344,"lon":121.8650756,"name":"內九份溪","decorType":"waterside"},{"id":"way-1443786250","lat":25.1002342,"lon":121.8639646,"name":"內九份溪","decorType":"waterside"},{"id":"way-1443786251","lat":25.1006593,"lon":121.8635962,"name":"未命名水邊","decorType":"waterside"},{"id":"way-1443786252","lat":25.1006595,"lon":121.8636667,"name":"未命名水邊","decorType":"waterside"},{"id":"way-1443786253","lat":25.1002114,"lon":121.8640262,"name":"內九份溪","decorType":"waterside"},{"id":"way-1443786254","lat":25.1001542,"lon":121.8640782,"name":"內九份溪","decorType":"waterside"},{"id":"way-1443786255","lat":25.0978325,"lon":121.8664676,"name":"內九份溪","decorType":"waterside"},{"id":"way-1443786256","lat":25.0983541,"lon":121.8660851,"name":"內九份溪","decorType":"waterside"},{"id":"way-1443786257","lat":25.0991,"lon":121.8650818,"name":"未命名水邊","decorType":"waterside"},{"id":"way-1443786258","lat":25.0991515,"lon":121.8652583,"name":"未命名水邊","decorType":"waterside"},{"id":"way-1443786259","lat":25.1080679,"lon":121.8689612,"name":"未命名水邊","decorType":"waterside"},{"id":"way-1443786260","lat":25.1078551,"lon":121.869022,"name":"未命名水邊","decorType":"waterside"},{"id":"way-1443786261","lat":25.107802,"lon":121.8690846,"name":"未命名水邊","decorType":"waterside"},{"id":"way-1443786262","lat":25.1077667,"lon":121.8691467,"name":"未命名水邊","decorType":"waterside"},{"id":"way-1443786263","lat":25.1077447,"lon":121.8691977,"name":"未命名水邊","decorType":"waterside"},{"id":"way-1443786264","lat":25.1077092,"lon":121.8692474,"name":"未命名水邊","decorType":"waterside"},{"id":"way-1443786265","lat":25.108465,"lon":121.8694668,"name":"未命名水邊","decorType":"waterside"},{"id":"way-1443786266","lat":25.1082739,"lon":121.8695914,"name":"未命名水邊","decorType":"waterside"},{"id":"way-1443786267","lat":25.1082746,"lon":121.8689574,"name":"茶壺溪","decorType":"waterside"},{"id":"way-1443786268","lat":25.1082548,"lon":121.8689197,"name":"茶壺溪","decorType":"waterside"},{"id":"way-1443786269","lat":25.1143164,"lon":121.8796753,"name":"未命名水邊","decorType":"waterside"},{"id":"way-1443786270","lat":25.1144546,"lon":121.8790633,"name":"未命名水邊","decorType":"waterside"},{"id":"way-1443786271","lat":25.1144108,"lon":121.8792175,"name":"未命名水邊","decorType":"waterside"},{"id":"way-1443786272","lat":25.1144277,"lon":121.879158,"name":"未命名水邊","decorType":"waterside"},{"id":"way-1443786273","lat":25.1141587,"lon":121.8806387,"name":"未命名水邊","decorType":"waterside"},{"id":"way-1443786274","lat":25.114234,"lon":121.8801198,"name":"未命名水邊","decorType":"waterside"},{"id":"way-1443786275","lat":25.1142271,"lon":121.8802615,"name":"未命名水邊","decorType":"waterside"},{"id":"way-1443786276","lat":25.1142191,"lon":121.8804253,"name":"未命名水邊","decorType":"waterside"},{"id":"way-1443786277","lat":25.114063,"lon":121.8808537,"name":"未命名水邊","decorType":"waterside"},{"id":"way-1443786278","lat":25.1140886,"lon":121.8808142,"name":"未命名水邊","decorType":"waterside"},{"id":"way-1443786279","lat":25.1174807,"lon":121.880381,"name":"半屏溪","decorType":"waterside"},{"id":"way-1443786280","lat":25.1139927,"lon":121.8808499,"name":"半屏溪","decorType":"waterside"},{"id":"way-1443786281","lat":25.114083,"lon":121.8809018,"name":"半屏溪","decorType":"waterside"},{"id":"way-1443786282","lat":25.1140453,"lon":121.8808728,"name":"半屏溪","decorType":"waterside"},{"id":"way-1443786283","lat":25.1141468,"lon":121.8811238,"name":"半屏溪","decorType":"waterside"},{"id":"way-1443786284","lat":25.1141824,"lon":121.8813598,"name":"半屏溪","decorType":"waterside"},{"id":"way-1443786285","lat":25.114187,"lon":121.8814841,"name":"半屏溪","decorType":"waterside"},{"id":"way-1443786286","lat":25.1141921,"lon":121.8816043,"name":"半屏溪","decorType":"waterside"},{"id":"way-1443786287","lat":25.1141832,"lon":121.8816733,"name":"未命名水邊","decorType":"waterside"},{"id":"way-1443786288","lat":25.1141445,"lon":121.8816362,"name":"未命名水邊","decorType":"waterside"},{"id":"way-1443786289","lat":25.1146893,"lon":121.8817676,"name":"半屏溪","decorType":"waterside"},{"id":"way-1443786290","lat":25.1151831,"lon":121.8815656,"name":"半屏溪","decorType":"waterside"},{"id":"way-1443786291","lat":25.1150273,"lon":121.8816259,"name":"半屏溪","decorType":"waterside"},{"id":"way-1443786292","lat":25.114887,"lon":121.881692,"name":"半屏溪","decorType":"waterside"},{"id":"way-1443786293","lat":25.114221,"lon":121.8816983,"name":"半屏溪","decorType":"waterside"},{"id":"way-1443786294","lat":25.1142689,"lon":121.8817821,"name":"半屏溪","decorType":"waterside"},{"id":"way-1443786295","lat":25.1138878,"lon":121.8808059,"name":"半屏溪","decorType":"waterside"},{"id":"way-1443786296","lat":25.1137977,"lon":121.8807682,"name":"半屏溪","decorType":"waterside"},{"id":"way-1443786297","lat":25.1143651,"lon":121.8818208,"name":"半屏溪","decorType":"waterside"},{"id":"way-1443786298","lat":25.114474,"lon":121.881834,"name":"半屏溪","decorType":"waterside"},{"id":"way-1443786299","lat":25.0995881,"lon":121.8715567,"name":"半屏溪","decorType":"waterside"},{"id":"way-1443786300","lat":25.1022506,"lon":121.8725994,"name":"半屏溪","decorType":"waterside"},{"id":"way-1443786330","lat":25.0795238,"lon":121.8822777,"name":"文秀坑溪","decorType":"waterside"},{"id":"way-1443786331","lat":25.0792201,"lon":121.8824246,"name":"文秀坑溪","decorType":"waterside"},{"id":"way-1443786336","lat":25.0896447,"lon":121.8834122,"name":"未命名水邊","decorType":"waterside"},{"id":"way-1443786337","lat":25.0899291,"lon":121.8836606,"name":"未命名水邊","decorType":"waterside"},{"id":"way-1443786348","lat":25.0922639,"lon":121.8866675,"name":"未命名水邊","decorType":"waterside"},{"id":"way-1443786349","lat":25.0924048,"lon":121.886437,"name":"未命名水邊","decorType":"waterside"},{"id":"way-1443786350","lat":25.0977776,"lon":121.8881435,"name":"未命名水邊","decorType":"waterside"},{"id":"way-1443786351","lat":25.0972509,"lon":121.8880167,"name":"未命名水邊","decorType":"waterside"},{"id":"way-1443786352","lat":25.0976387,"lon":121.8871817,"name":"未命名水邊","decorType":"waterside"},{"id":"way-1443786353","lat":25.0983283,"lon":121.8902817,"name":"未命名水邊","decorType":"waterside"},{"id":"way-1443786366","lat":25.1030512,"lon":121.8880334,"name":"石梯坑溪","decorType":"waterside"},{"id":"way-1443786367","lat":25.1039703,"lon":121.8894753,"name":"石梯坑溪","decorType":"waterside"},{"id":"way-1460473007","lat":25.1065566,"lon":121.9053665,"name":"和美池","decorType":"waterside"},{"id":"way-196684506","lat":25.0940393,"lon":121.8407687,"name":"大粗坑","decorType":"waterside"},{"id":"way-196842740","lat":25.1095047,"lon":121.8452393,"name":"老友號芋圓","decorType":"restaurant"},{"id":"way-197607039","lat":25.106326,"lon":121.8593438,"name":"黃金館","decorType":"art_gallery"},{"id":"way-197607372","lat":25.1101414,"lon":121.8597818,"name":"勸濟堂","decorType":"shrine"},{"id":"way-197608886","lat":25.1064351,"lon":121.8598023,"name":"勸濟橋","decorType":"bridge"},{"id":"way-198405109","lat":25.1079607,"lon":121.8581098,"name":"金水特展室","decorType":"art_gallery"},{"id":"way-198409807","lat":25.1191847,"lon":121.8451321,"name":"未命名森林","decorType":"forest"},{"id":"way-208476684","lat":25.1229307,"lon":121.8676641,"name":"水湳洞漁港","decorType":"waterside"},{"id":"way-208476685","lat":25.1226577,"lon":121.8683967,"name":"未命名水邊","decorType":"waterside"},{"id":"way-208893457","lat":25.1120395,"lon":121.9157459,"name":"龍洞漁港","decorType":"waterside"},{"id":"way-208893460","lat":25.1235626,"lon":121.9155575,"name":"鼻頭漁港","decorType":"waterside"},{"id":"way-208987652","lat":25.1080154,"lon":121.923695,"name":"未命名山丘","decorType":"mountain"},{"id":"way-208987654","lat":25.1043189,"lon":121.9234776,"name":"龍洞一支(危險水域)","decorType":"mountain"},{"id":"way-208987657","lat":25.1123046,"lon":121.923401,"name":"未命名山丘","decorType":"mountain"},{"id":"way-209180681","lat":25.0796582,"lon":121.9156294,"name":"和美漁港","decorType":"waterside"},{"id":"way-209180682","lat":25.0973284,"lon":121.9181176,"name":"龍洞南口遊艇港","decorType":"waterside"},{"id":"way-209180683","lat":25.098452,"lon":121.917915,"name":"未命名海邊","decorType":"beach"},{"id":"way-209185610","lat":25.1157241,"lon":121.8584606,"name":"九份溪","decorType":"waterside"},{"id":"way-217447173","lat":25.1097567,"lon":121.8442122,"name":"天方夜譚","decorType":"hotel"},{"id":"way-217447181","lat":25.1105781,"lon":121.8458453,"name":"霞海城隍 昭靈廟","decorType":"shrine"},{"id":"way-217447188","lat":25.1112542,"lon":121.8387099,"name":"金山寺","decorType":"shrine"},{"id":"way-217447192","lat":25.1097871,"lon":121.8445678,"name":"九份景棧","decorType":"hotel"},{"id":"way-230921002","lat":25.1223264,"lon":121.8636427,"name":"未命名橋樑","decorType":"bridge"},{"id":"way-232001664","lat":25.1077191,"lon":121.8584834,"name":"太子賓館","decorType":"hotel"},{"id":"way-255644192","lat":25.1138971,"lon":121.8552442,"name":"石山橋","decorType":"bridge"},{"id":"way-258429947","lat":25.0909354,"lon":121.8423997,"name":"未命名橋樑","decorType":"bridge"},{"id":"way-258429960","lat":25.0963109,"lon":121.846745,"name":"大德宮","decorType":"shrine"},{"id":"way-258429961","lat":25.0975016,"lon":121.8477344,"name":"大粗坑古道","decorType":"bridge"},{"id":"way-259521692","lat":25.1224253,"lon":121.9160998,"name":"鼻頭路","decorType":"bridge"},{"id":"way-261855541","lat":25.1241087,"lon":121.9130607,"name":"海園活海鮮餐廳","decorType":"restaurant"},{"id":"way-261856816","lat":25.124077,"lon":121.9133312,"name":"未命名神社","decorType":"shrine"},{"id":"way-269882452","lat":25.122306,"lon":121.8793201,"name":"瑞能橋","decorType":"bridge"},{"id":"way-269882455","lat":25.1066686,"lon":121.8604447,"name":"內九份溪","decorType":"waterside"},{"id":"way-269882457","lat":25.1031118,"lon":121.8780196,"name":"未命名水邊","decorType":"waterside"},{"id":"way-269882460","lat":25.1080199,"lon":121.8766795,"name":"半屏溪","decorType":"waterside"},{"id":"way-269882464","lat":25.1209035,"lon":121.8731183,"name":"黃金池","decorType":"waterside"},{"id":"way-269905937","lat":25.1174053,"lon":121.8930907,"name":"未命名橋樑","decorType":"bridge"},{"id":"way-269905989","lat":25.1116533,"lon":121.8923952,"name":"石梯坑溪","decorType":"waterside"},{"id":"way-269905992","lat":25.1072744,"lon":121.8679755,"name":"未命名水邊","decorType":"waterside"},{"id":"way-269905995","lat":25.1193775,"lon":121.8926133,"name":"仁愛橋","decorType":"bridge"},{"id":"way-270769512","lat":25.1076224,"lon":121.8582052,"name":"金采廣場","decorType":"art_gallery"},{"id":"way-270769611","lat":25.1082206,"lon":121.8569749,"name":"四連棟","decorType":"art_gallery"},{"id":"way-271451013","lat":25.1220305,"lon":121.8880537,"name":"南雅漁港","decorType":"waterside"},{"id":"way-271979276","lat":25.1071358,"lon":121.8422391,"name":"五番坑公園","decorType":"park"},{"id":"way-271979320","lat":25.1111144,"lon":121.8444804,"name":"九份明聖宮","decorType":"shrine"},{"id":"way-271979324","lat":25.1073689,"lon":121.8468489,"name":"福山宮(廟中廟)","decorType":"shrine"},{"id":"way-271979325","lat":25.1078804,"lon":121.8442569,"name":"聖明宮","decorType":"shrine"},{"id":"way-271979329","lat":25.116127,"lon":121.8415918,"name":"青雲殿","decorType":"shrine"},{"id":"way-271979330","lat":25.1083982,"lon":121.8401832,"name":"頌德公園","decorType":"park"},{"id":"way-272005172","lat":25.1060142,"lon":121.8536926,"name":"保民堂","decorType":"shrine"},{"id":"way-272005232","lat":25.1078991,"lon":121.8467168,"name":"開成殿 天公廟","decorType":"shrine"},{"id":"way-272732655","lat":25.1085179,"lon":121.8432488,"name":"昇平戲院","decorType":"movie_theater"},{"id":"way-273402342","lat":25.1089435,"lon":121.8601584,"name":"金瓜石101民宿","decorType":"hotel"},{"id":"way-280197057","lat":25.1140677,"lon":121.8544834,"name":"緩慢-金瓜石民宿","decorType":"hotel"},{"id":"way-283726584","lat":25.1148573,"lon":121.853854,"name":"雲山水民宿","decorType":"hotel"},{"id":"way-284252066","lat":25.1147219,"lon":121.8557198,"name":"石山橋","decorType":"bridge"},{"id":"way-284262877","lat":25.10813,"lon":121.8578218,"name":"瑞芳金瓜石郵局","decorType":"post_office"},{"id":"way-284262878","lat":25.1084095,"lon":121.8590176,"name":"祈堂橋","decorType":"bridge"},{"id":"way-284348516","lat":25.1079536,"lon":121.8578725,"name":"金水茶坊","decorType":"cafe"},{"id":"way-284349157","lat":25.104957,"lon":121.8586524,"name":"金瓜石神社","decorType":"shrine"},{"id":"way-284349459","lat":25.106626,"lon":121.8590451,"name":"本山五坑","decorType":"art_gallery"},{"id":"way-284349619","lat":25.1082396,"lon":121.857555,"name":"煉金樓","decorType":"art_gallery"},{"id":"way-284349631","lat":25.1080339,"lon":121.8573159,"name":"金屬工藝館","decorType":"art_gallery"},{"id":"way-284441487","lat":25.1128185,"lon":121.8564013,"name":"金福宮","decorType":"shrine"},{"id":"way-284446589","lat":25.1218503,"lon":121.8616893,"name":"山城食堂","decorType":"restaurant"},{"id":"way-284556833","lat":25.1107143,"lon":121.8583352,"name":"國際終戰和平公園","decorType":"park"},{"id":"way-285645985","lat":25.1178248,"lon":121.8597051,"name":"長仁橋","decorType":"bridge"},{"id":"way-285871256","lat":25.1051328,"lon":121.9211927,"name":"西靈巖","decorType":"shrine"},{"id":"way-291767275","lat":25.1106059,"lon":121.9159581,"name":"龍安宮","decorType":"shrine"},{"id":"way-292835201","lat":25.0820018,"lon":121.9119616,"name":"國聖橋","decorType":"bridge"},{"id":"way-292839334","lat":25.0827558,"lon":121.9126159,"name":"保安廟","decorType":"shrine"},{"id":"way-294778067","lat":25.1067126,"lon":121.8586491,"name":"本山五坑出口","decorType":"art_gallery"},{"id":"way-295176190","lat":25.107259,"lon":121.8580946,"name":"黃金博物館","decorType":"art_gallery"},{"id":"way-295376003","lat":25.1196872,"lon":121.8619157,"name":"茹川橋","decorType":"bridge"},{"id":"way-295376004","lat":25.1211578,"lon":121.8625722,"name":"濓洞橋","decorType":"bridge"},{"id":"way-295376007","lat":25.1222618,"lon":121.8636085,"name":"未命名橋樑","decorType":"bridge"},{"id":"way-295608652","lat":25.1086823,"lon":121.8578131,"name":"金礦28號餐廳","decorType":"restaurant"},{"id":"way-295608653","lat":25.1086063,"lon":121.8578476,"name":"金礦山莊","decorType":"hotel"},{"id":"way-295944787","lat":25.1121722,"lon":121.8537319,"name":"外九份三層橋","decorType":"bridge"},{"id":"way-302780700","lat":25.1122401,"lon":121.8392912,"name":"未命名森林","decorType":"forest"},{"id":"way-309682655","lat":25.1064095,"lon":121.8658772,"name":"未命名山丘","decorType":"mountain"},{"id":"way-329817786","lat":25.1075365,"lon":121.8427464,"name":"九份愛的物語景觀Cafe & 民宿","decorType":"hotel"},{"id":"way-334684869","lat":25.0859686,"lon":121.8387607,"name":"未命名森林","decorType":"forest"},{"id":"way-334684881","lat":25.1093703,"lon":121.8386345,"name":"未命名森林","decorType":"forest"},{"id":"way-369610972","lat":25.0841862,"lon":121.8636748,"name":"牡丹溪","decorType":"waterside"},{"id":"way-421917797","lat":25.1253892,"lon":121.9155954,"name":"鼻頭角海濱公園 大廟埕","decorType":"park"},{"id":"way-421917798","lat":25.1253482,"lon":121.9158534,"name":"未命名神社","decorType":"shrine"},{"id":"way-426269444","lat":25.10978,"lon":121.907469,"name":"未命名水邊","decorType":"waterside"},{"id":"way-426269445","lat":25.1199915,"lon":121.8874899,"name":"未命名水邊","decorType":"waterside"},{"id":"way-426269446","lat":25.117458,"lon":121.8851289,"name":"未命名水邊","decorType":"waterside"},{"id":"way-426269447","lat":25.1226887,"lon":121.8748183,"name":"未命名水邊","decorType":"waterside"},{"id":"way-426269452","lat":25.1194246,"lon":121.8736163,"name":"未命名水邊","decorType":"waterside"},{"id":"way-426269453","lat":25.1057816,"lon":121.8685691,"name":"未命名水邊","decorType":"waterside"},{"id":"way-426269454","lat":25.1078778,"lon":121.8702584,"name":"未命名水邊","decorType":"waterside"},{"id":"way-426269455","lat":25.1091576,"lon":121.8690874,"name":"未命名水邊","decorType":"waterside"},{"id":"way-426269456","lat":25.1056694,"lon":121.8689825,"name":"未命名水邊","decorType":"waterside"},{"id":"way-430459924","lat":25.119293,"lon":121.8674903,"name":"未命名水邊","decorType":"waterside"},{"id":"way-430459925","lat":25.1140673,"lon":121.8621791,"name":"未命名水邊","decorType":"waterside"},{"id":"way-430459931","lat":25.1126033,"lon":121.853191,"name":"未命名水邊","decorType":"waterside"},{"id":"way-433374079","lat":25.1212061,"lon":121.9172027,"name":"未命名橋樑","decorType":"bridge"},{"id":"way-442178995","lat":25.0937824,"lon":121.8559718,"name":"貂山古道","decorType":"bridge"},{"id":"way-442389082","lat":25.0784065,"lon":121.8537442,"name":"三貂親水公園","decorType":"park"},{"id":"way-489196370","lat":25.122468,"lon":121.9161404,"name":"未命名橋樑","decorType":"bridge"},{"id":"way-489196371","lat":25.1224081,"lon":121.9162696,"name":"未命名橋樑","decorType":"bridge"},{"id":"way-489221317","lat":25.1246745,"lon":121.9163046,"name":"新興宮","decorType":"shrine"},{"id":"way-489232793","lat":25.1269127,"lon":121.9189546,"name":"未命名山丘","decorType":"mountain"},{"id":"way-489232795","lat":25.1272071,"lon":121.9202457,"name":"未命名山丘","decorType":"mountain"},{"id":"way-489232796","lat":25.1277703,"lon":121.9218944,"name":"未命名山丘","decorType":"mountain"},{"id":"way-489232797","lat":25.1287706,"lon":121.9231633,"name":"未命名山丘","decorType":"mountain"},{"id":"way-489232798","lat":25.1270117,"lon":121.9220756,"name":"未命名山丘","decorType":"mountain"},{"id":"way-489232799","lat":25.1246643,"lon":121.9220869,"name":"未命名山丘","decorType":"mountain"},{"id":"way-489232800","lat":25.1260433,"lon":121.9228207,"name":"未命名山丘","decorType":"mountain"},{"id":"way-489232801","lat":25.1270721,"lon":121.9212959,"name":"未命名山丘","decorType":"mountain"},{"id":"way-489232802","lat":25.1254016,"lon":121.9158566,"name":"未命名山丘","decorType":"mountain"},{"id":"way-489252480","lat":25.1275288,"lon":121.9230414,"name":"未命名山丘","decorType":"mountain"},{"id":"way-489252497","lat":25.1271414,"lon":121.9185277,"name":"未命名山丘","decorType":"mountain"},{"id":"way-489262120","lat":25.1269669,"lon":121.9207083,"name":"未命名山丘","decorType":"mountain"},{"id":"way-489262126","lat":25.1276046,"lon":121.9200676,"name":"未命名山丘","decorType":"mountain"},{"id":"way-489262128","lat":25.1272809,"lon":121.9187608,"name":"未命名山丘","decorType":"mountain"},{"id":"way-489262132","lat":25.1262985,"lon":121.9167153,"name":"未命名山丘","decorType":"mountain"},{"id":"way-489262135","lat":25.1276005,"lon":121.9233784,"name":"未命名山丘","decorType":"mountain"},{"id":"way-489991401","lat":25.12682,"lon":121.9142068,"name":"未命名山丘","decorType":"mountain"},{"id":"way-489991402","lat":25.1271458,"lon":121.915003,"name":"未命名山丘","decorType":"mountain"},{"id":"way-489991403","lat":25.1273832,"lon":121.9156463,"name":"未命名山丘","decorType":"mountain"},{"id":"way-489991404","lat":25.1276426,"lon":121.9159996,"name":"未命名山丘","decorType":"mountain"},{"id":"way-489991405","lat":25.1279124,"lon":121.9165109,"name":"未命名山丘","decorType":"mountain"},{"id":"way-491301424","lat":25.1182676,"lon":121.919356,"name":"未命名山丘","decorType":"mountain"},{"id":"way-491301427","lat":25.1185979,"lon":121.9195464,"name":"未命名山丘","decorType":"mountain"},{"id":"way-528377379","lat":25.090063,"lon":121.9105687,"name":"北勢坑一號橋","decorType":"bridge"},{"id":"way-528377381","lat":25.091353,"lon":121.9086837,"name":"北勢坑二號橋","decorType":"bridge"},{"id":"way-528377384","lat":25.0974322,"lon":121.8933944,"name":"北勢坑街","decorType":"bridge"},{"id":"way-528377389","lat":25.0963647,"lon":121.893827,"name":"南極玉明殿","decorType":"shrine"},{"id":"way-529708728","lat":25.1069749,"lon":121.923674,"name":"龍洞三支(危險水域)","decorType":"mountain"},{"id":"way-529708729","lat":25.1049571,"lon":121.9233219,"name":"龍洞二支(危險水域)","decorType":"mountain"},{"id":"way-537615535","lat":25.1089909,"lon":121.8573333,"name":"金漫會館","decorType":"hotel"},{"id":"way-543805758","lat":25.1215318,"lon":121.9196456,"name":"未命名公園","decorType":"park"},{"id":"way-543805761","lat":25.1265002,"lon":121.9214149,"name":"聽濤營區咖啡店","decorType":"restaurant"},{"id":"way-546033513","lat":25.1193258,"lon":121.8991184,"name":"信義橋","decorType":"bridge"},{"id":"way-575608016","lat":25.0830494,"lon":121.8497516,"name":"未命名水邊","decorType":"waterside"},{"id":"way-576547443","lat":25.1272033,"lon":121.8437172,"name":"員山子分洪隧道出口","decorType":"waterside"},{"id":"way-619144031","lat":25.1125772,"lon":121.8727326,"name":"未命名水邊","decorType":"waterside"},{"id":"way-619144032","lat":25.10675,"lon":121.8497672,"name":"未命名水邊","decorType":"waterside"},{"id":"way-619144033","lat":25.1077005,"lon":121.8521892,"name":"未命名水邊","decorType":"waterside"},{"id":"way-619144034","lat":25.1044855,"lon":121.8535203,"name":"未命名水邊","decorType":"waterside"},{"id":"way-619144035","lat":25.1118217,"lon":121.8557181,"name":"未命名水邊","decorType":"waterside"},{"id":"way-619144036","lat":25.0993554,"lon":121.8620025,"name":"未命名水邊","decorType":"waterside"},{"id":"way-619144037","lat":25.100542,"lon":121.861698,"name":"未命名水邊","decorType":"waterside"},{"id":"way-619144038","lat":25.0987505,"lon":121.8637064,"name":"未命名水邊","decorType":"waterside"},{"id":"way-619144039","lat":25.0995807,"lon":121.8636748,"name":"未命名水邊","decorType":"waterside"},{"id":"way-619144040","lat":25.0986021,"lon":121.8653499,"name":"未命名水邊","decorType":"waterside"},{"id":"way-619144041","lat":25.099286,"lon":121.8654735,"name":"未命名水邊","decorType":"waterside"},{"id":"way-619144042","lat":25.1005996,"lon":121.8642957,"name":"未命名水邊","decorType":"waterside"},{"id":"way-619144043","lat":25.1013217,"lon":121.8642066,"name":"未命名水邊","decorType":"waterside"},{"id":"way-619144044","lat":25.1017398,"lon":121.8624112,"name":"未命名水邊","decorType":"waterside"},{"id":"way-619144045","lat":25.1028231,"lon":121.8616801,"name":"未命名水邊","decorType":"waterside"},{"id":"way-619144046","lat":25.1057836,"lon":121.8611934,"name":"未命名水邊","decorType":"waterside"},{"id":"way-619144047","lat":25.1041008,"lon":121.8635861,"name":"未命名水邊","decorType":"waterside"},{"id":"way-619144048","lat":25.1067489,"lon":121.8688642,"name":"未命名水邊","decorType":"waterside"},{"id":"way-619144049","lat":25.1126505,"lon":121.8693973,"name":"未命名水邊","decorType":"waterside"},{"id":"way-619144050","lat":25.1156376,"lon":121.8701056,"name":"未命名水邊","decorType":"waterside"},{"id":"way-619144051","lat":25.114664,"lon":121.8647946,"name":"未命名水邊","decorType":"waterside"},{"id":"way-619144052","lat":25.1121377,"lon":121.8635939,"name":"未命名水邊","decorType":"waterside"},{"id":"way-619144056","lat":25.0830701,"lon":121.911579,"name":"南勢坑溪","decorType":"waterside"},{"id":"way-619144057","lat":25.0963918,"lon":121.8876196,"name":"未命名水邊","decorType":"waterside"},{"id":"way-619144058","lat":25.0973824,"lon":121.8936237,"name":"未命名水邊","decorType":"waterside"},{"id":"way-619144059","lat":25.0931583,"lon":121.8903188,"name":"未命名水邊","decorType":"waterside"},{"id":"way-619144060","lat":25.0923969,"lon":121.9054826,"name":"梗枋北溪","decorType":"waterside"},{"id":"way-619144061","lat":25.1143484,"lon":121.8750754,"name":"未命名水邊","decorType":"waterside"},{"id":"way-619144062","lat":25.1135486,"lon":121.8776802,"name":"未命名水邊","decorType":"waterside"},{"id":"way-619144063","lat":25.1137279,"lon":121.8817529,"name":"未命名水邊","decorType":"waterside"},{"id":"way-619144064","lat":25.1086473,"lon":121.8789781,"name":"未命名水邊","decorType":"waterside"},{"id":"way-619144065","lat":25.1022378,"lon":121.8798807,"name":"未命名水邊","decorType":"waterside"},{"id":"way-619144066","lat":25.1037231,"lon":121.8751458,"name":"未命名水邊","decorType":"waterside"},{"id":"way-619144067","lat":25.1026804,"lon":121.8741854,"name":"未命名水邊","decorType":"waterside"},{"id":"way-619144068","lat":25.1020096,"lon":121.8728478,"name":"未命名水邊","decorType":"waterside"},{"id":"way-619144069","lat":25.0987458,"lon":121.872065,"name":"未命名水邊","decorType":"waterside"},{"id":"way-619144070","lat":25.0967092,"lon":121.8711683,"name":"未命名水邊","decorType":"waterside"},{"id":"way-619144071","lat":25.0962602,"lon":121.8702998,"name":"未命名水邊","decorType":"waterside"},{"id":"way-619144072","lat":25.0953882,"lon":121.8707184,"name":"未命名水邊","decorType":"waterside"},{"id":"way-619144073","lat":25.0960412,"lon":121.8707746,"name":"未命名水邊","decorType":"waterside"},{"id":"way-619144075","lat":25.1180504,"lon":121.8631989,"name":"未命名水邊","decorType":"waterside"},{"id":"way-619144077","lat":25.1149972,"lon":121.8544702,"name":"未命名水邊","decorType":"waterside"},{"id":"way-619144079","lat":25.117106,"lon":121.8613943,"name":"未命名水邊","decorType":"waterside"},{"id":"way-619368804","lat":25.1191484,"lon":121.8624423,"name":"未命名水邊","decorType":"waterside"},{"id":"way-619370270","lat":25.1171879,"lon":121.8615954,"name":"未命名水邊","decorType":"waterside"},{"id":"way-619370271","lat":25.1172361,"lon":121.8613231,"name":"未命名水邊","decorType":"waterside"},{"id":"way-633894159","lat":25.1096967,"lon":121.9164114,"name":"未命名水邊","decorType":"waterside"},{"id":"way-633894160","lat":25.1105418,"lon":121.9179089,"name":"未命名水邊","decorType":"waterside"},{"id":"way-633894161","lat":25.1074648,"lon":121.9136312,"name":"未命名水邊","decorType":"waterside"},{"id":"way-633894162","lat":25.0926695,"lon":121.8856799,"name":"未命名水邊","decorType":"waterside"},{"id":"way-633894166","lat":25.0789433,"lon":121.8916876,"name":"未命名水邊","decorType":"waterside"},{"id":"way-633894168","lat":25.0785123,"lon":121.8910867,"name":"未命名水邊","decorType":"waterside"},{"id":"way-686428073","lat":25.1098385,"lon":121.858756,"name":"未命名橋樑","decorType":"bridge"},{"id":"way-686429894","lat":25.1093982,"lon":121.8587714,"name":"未命名橋樑","decorType":"bridge"},{"id":"way-688137637","lat":25.100269,"lon":121.83906,"name":"未命名神社","decorType":"shrine"},{"id":"way-688137639","lat":25.1016891,"lon":121.8396548,"name":"山神廟","decorType":"shrine"},{"id":"way-688137640","lat":25.0971576,"lon":121.8379533,"name":"土地公","decorType":"shrine"},{"id":"way-688137642","lat":25.097737,"lon":121.8382937,"name":"小粗坑古道","decorType":"bridge"},{"id":"way-688262109","lat":25.1078541,"lon":121.8497608,"name":"金石橋","decorType":"bridge"},{"id":"way-688262118","lat":25.1091432,"lon":121.8506126,"name":"未命名橋樑","decorType":"bridge"},{"id":"way-689449941","lat":25.0850559,"lon":121.8696537,"name":"未命名水邊","decorType":"waterside"},{"id":"way-689449942","lat":25.0860731,"lon":121.8697011,"name":"未命名水邊","decorType":"waterside"},{"id":"way-689665663","lat":25.1201069,"lon":121.8877834,"name":"未命名橋樑","decorType":"bridge"},{"id":"way-689795460","lat":25.1183435,"lon":121.8701286,"name":"茶壺溪","decorType":"waterside"},{"id":"way-690233178","lat":25.0979374,"lon":121.8543849,"name":"百二崁步道","decorType":"bridge"},{"id":"way-690492184","lat":25.0896149,"lon":121.8442888,"name":"未命名水邊","decorType":"waterside"},{"id":"way-690492185","lat":25.0890923,"lon":121.8407509,"name":"未命名水邊","decorType":"waterside"},{"id":"way-690823144","lat":25.0893456,"lon":121.8480708,"name":"不厭亭","decorType":"park"},{"id":"way-690823145","lat":25.1023702,"lon":121.8536909,"name":"未命名公園","decorType":"park"},{"id":"way-690874610","lat":25.097258,"lon":121.8547751,"name":"百二崁步道","decorType":"bridge"},{"id":"way-690874613","lat":25.0958823,"lon":121.8551605,"name":"金山土地公坪","decorType":"park"},{"id":"way-690874619","lat":25.0889365,"lon":121.857205,"name":"未命名公園","decorType":"park"},{"id":"way-690900347","lat":25.120382,"lon":121.8693144,"name":"濂新橋","decorType":"bridge"},{"id":"way-690900349","lat":25.1172689,"lon":121.8663748,"name":"未命名水邊","decorType":"waterside"},{"id":"way-690903872","lat":25.101293,"lon":121.8496935,"name":"樹梅坪景觀平台","decorType":"park"},{"id":"way-690903873","lat":25.0952147,"lon":121.8514506,"name":"鷹山岩山神廟","decorType":"shrine"},{"id":"way-691971871","lat":25.110653,"lon":121.8598778,"name":"未命名公園","decorType":"park"},{"id":"way-691971873","lat":25.1120007,"lon":121.860089,"name":"未命名公園","decorType":"park"},{"id":"way-691981461","lat":25.11424,"lon":121.8624145,"name":"未命名橋樑","decorType":"bridge"},{"id":"way-692151688","lat":25.1089208,"lon":121.8553285,"name":"基督教堂","decorType":"shrine"},{"id":"way-692391166","lat":25.12387,"lon":121.8593977,"name":"未命名公園","decorType":"park"},{"id":"way-692391167","lat":25.1231764,"lon":121.8614566,"name":"未命名公園","decorType":"park"},{"id":"way-692391169","lat":25.1212065,"lon":121.8618454,"name":"未命名公園","decorType":"park"},{"id":"way-692391177","lat":25.119996,"lon":121.866395,"name":"長仁公園","decorType":"park"},{"id":"way-702035104","lat":25.0791918,"lon":121.8705982,"name":"未命名水邊","decorType":"waterside"},{"id":"way-706719496","lat":25.0827579,"lon":121.8656603,"name":"未命名水邊","decorType":"waterside"},{"id":"way-706947318","lat":25.0872515,"lon":121.8651222,"name":"燦光寮步道","decorType":"bridge"},{"id":"way-706947322","lat":25.0865673,"lon":121.8653443,"name":"未命名水邊","decorType":"waterside"},{"id":"way-713363376","lat":25.0870327,"lon":121.8727277,"name":"未命名水邊","decorType":"waterside"},{"id":"way-713363381","lat":25.0875316,"lon":121.8705825,"name":"未命名水邊","decorType":"waterside"},{"id":"way-713363382","lat":25.0881375,"lon":121.8704326,"name":"未命名水邊","decorType":"waterside"},{"id":"way-716711059","lat":25.10579,"lon":121.8599759,"name":"未命名水邊","decorType":"waterside"},{"id":"way-716711260","lat":25.1063253,"lon":121.8599158,"name":"未命名水邊","decorType":"waterside"},{"id":"way-727252431","lat":25.0839971,"lon":121.8624383,"name":"未命名水邊","decorType":"waterside"},{"id":"way-727252432","lat":25.085111,"lon":121.8643791,"name":"未命名水邊","decorType":"waterside"},{"id":"way-727252435","lat":25.0865696,"lon":121.8669371,"name":"未命名水邊","decorType":"waterside"},{"id":"way-738260335","lat":25.1103812,"lon":121.8420861,"name":"九份第一站背包客青旅民宿","decorType":"hotel"},{"id":"way-738260336","lat":25.1108188,"lon":121.8421738,"name":"九份第一站背包客青旅車棚","decorType":"hotel"},{"id":"way-762069568","lat":25.1090709,"lon":121.8692699,"name":"茶壺溪","decorType":"waterside"},{"id":"way-784649082","lat":25.1072791,"lon":121.8699478,"name":"未命名水邊","decorType":"waterside"},{"id":"way-788427642","lat":25.1198095,"lon":121.8782173,"name":"未命名水邊","decorType":"waterside"},{"id":"way-851066515","lat":25.118284,"lon":121.898869,"name":"未命名水邊","decorType":"waterside"},{"id":"way-851066516","lat":25.1234046,"lon":121.9156668,"name":"未命名水邊","decorType":"waterside"},{"id":"way-864042439","lat":25.0878276,"lon":121.8624959,"name":"未命名水邊","decorType":"waterside"},{"id":"way-892515720","lat":25.1074871,"lon":121.8688022,"name":"未命名山丘","decorType":"mountain"},{"id":"way-911279735","lat":25.1038294,"lon":121.8591271,"name":"本山礦坑步道","decorType":"bridge"},{"id":"way-911279757","lat":25.101776,"lon":121.8586765,"name":"台電本山地質公園","decorType":"park"},{"id":"way-911279758","lat":25.1062465,"lon":121.8594939,"name":"未命名橋樑","decorType":"bridge"},{"id":"way-911279759","lat":25.1062154,"lon":121.859494,"name":"未命名橋樑","decorType":"bridge"},{"id":"way-911279784","lat":25.1082187,"lon":121.8572066,"name":"未命名橋樑","decorType":"bridge"},{"id":"way-912420962","lat":25.1043189,"lon":121.9228995,"name":"龍洞一支(危險水域)","decorType":"mountain"},{"id":"way-912420963","lat":25.1055411,"lon":121.9230563,"name":"龍洞二支(危險水域)","decorType":"mountain"},{"id":"way-912420964","lat":25.1055359,"lon":121.9227565,"name":"龍洞二支(危險水域)","decorType":"mountain"},{"id":"way-913810029","lat":25.0976522,"lon":121.8541617,"name":"未命名水邊","decorType":"waterside"},{"id":"way-966146326","lat":25.1114287,"lon":121.9176396,"name":"未命名公園","decorType":"park"},{"id":"way-966146327","lat":25.1067802,"lon":121.9147672,"name":"未命名水邊","decorType":"waterside"},{"id":"way-969125882","lat":25.1179417,"lon":121.88605,"name":"未命名橋樑","decorType":"bridge"},{"id":"way-973252385","lat":25.1088845,"lon":121.9159594,"name":"龍洞三號橋","decorType":"bridge"},{"id":"way-973252387","lat":25.1117179,"lon":121.9178312,"name":"龍洞街","decorType":"bridge"},{"id":"way-973252389","lat":25.1155991,"lon":121.9137414,"name":"龍洞一號橋","decorType":"bridge"},{"id":"way-973252966","lat":25.1095455,"lon":121.922249,"name":"未命名山丘","decorType":"mountain"}]}