{"bbox":{"south":22.19375,"north":22.415625,"west":120.91875,"east":121.05},"pois":[{"id":"way-146741905","lat":22.4152243,"lon":120.9255212,"name":"南迴線","decorType":"bridge"},{"id":"way-146741965","lat":22.4030627,"lon":120.9216948,"name":"南迴公路舊線","decorType":"bridge"},{"id":"way-146741987","lat":22.4104947,"lon":120.9249528,"name":"南迴公路","decorType":"bridge"},{"id":"way-146742034","lat":22.4146078,"lon":120.9263601,"name":"南迴公路舊線","decorType":"bridge"},{"id":"way-339541988","lat":22.4140957,"lon":120.9264008,"name":"加津林橋","decorType":"bridge"},{"id":"way-339541990","lat":22.3954504,"lon":120.9191366,"name":"新大鳥橋","decorType":"bridge"},{"id":"way-724350918","lat":22.3996736,"lon":120.921169,"name":"加津林二號橋","decorType":"bridge"},{"id":"way-724350919","lat":22.4030496,"lon":120.9218022,"name":"加津林一號橋","decorType":"bridge"},{"id":"way-724350924","lat":22.4076809,"lon":120.9239374,"name":"新加津林橋","decorType":"bridge"},{"id":"way-871799567","lat":22.3954186,"lon":120.919209,"name":"新大鳥橋","decorType":"bridge"},{"id":"way-871799570","lat":22.3996549,"lon":120.9212506,"name":"加津林二號橋","decorType":"bridge"},{"id":"way-871799572","lat":22.403015,"lon":120.9218776,"name":"加津林一號橋","decorType":"bridge"},{"id":"way-871799575","lat":22.4104534,"lon":120.9250376,"name":"南迴公路","decorType":"bridge"},{"id":"way-871799577","lat":22.4142655,"lon":120.9265243,"name":"加津林橋","decorType":"bridge"},{"id":"way-888659547","lat":22.4031699,"lon":120.9188146,"name":"未命名水邊","decorType":"waterside"},{"id":"way-888659548","lat":22.3994463,"lon":120.9200666,"name":"未命名水邊","decorType":"waterside"}]}