{"bbox":{"south":22.19375,"north":22.415625,"west":120.2625,"east":120.39375},"pois":[{"id":"node-10777465929","lat":22.3417704,"lon":120.3643613,"name":"未命名咖啡廳","decorType":"cafe"},{"id":"node-10777496102","lat":22.35161,"lon":120.3816398,"name":"Hi Dessert","decorType":"restaurant"},{"id":"node-10777506229","lat":22.3515818,"lon":120.3815715,"name":"A&Z Amazing Kitchen","decorType":"restaurant"},{"id":"node-10777512732","lat":22.3524469,"lon":120.3821649,"name":"Ole Ola","decorType":"clothing"},{"id":"node-10777516552","lat":22.3528596,"lon":120.3821772,"name":"未命名服飾店","decorType":"clothing"},{"id":"node-10777516609","lat":22.3386725,"lon":120.3700577,"name":"厚呷早餐店","decorType":"restaurant"},{"id":"node-10777518724","lat":22.3393157,"lon":120.3701592,"name":"未命名服飾店","decorType":"clothing"},{"id":"node-10779316337","lat":22.3409961,"lon":120.3714004,"name":"Good Thai","decorType":"restaurant"},{"id":"node-10779352724","lat":22.3527411,"lon":120.3821848,"name":"美式漢堡","decorType":"burger"},{"id":"node-10779353320","lat":22.3531816,"lon":120.3821672,"name":"蜜仔琉部","decorType":"restaurant"},{"id":"node-11007953705","lat":22.3452661,"lon":120.3748249,"name":"黑背包民宿","decorType":"hotel"},{"id":"node-11027996420","lat":22.3273739,"lon":120.3651386,"name":"和德堂","decorType":"shrine"},{"id":"node-11222887499","lat":22.3433281,"lon":120.3726481,"name":"頂上福山","decorType":"mountain"},{"id":"node-11278570431","lat":22.3400208,"lon":120.3672026,"name":"Unknown Café","decorType":"cafe"},{"id":"node-11278751372","lat":22.3389817,"lon":120.3624411,"name":"Wild Boar","decorType":"restaurant"},{"id":"node-12189801838","lat":22.3292359,"lon":120.3552053,"name":"海角8號","decorType":"restaurant"},{"id":"node-12194506214","lat":22.3508549,"lon":120.3845296,"name":"寶哥手作麻花捲","decorType":"sweetshop"},{"id":"node-12198922345","lat":22.3506099,"lon":120.384861,"name":"旺來在地食堂","decorType":"restaurant"},{"id":"node-12598143149","lat":22.3476243,"lon":120.3782376,"name":"Guazi Fried Food","decorType":"burger"},{"id":"node-13251246902","lat":22.338512,"lon":120.37002,"name":"好窄食堂","decorType":"restaurant"},{"id":"node-2331350050","lat":22.3389596,"lon":120.3769829,"name":"南山延王母宮金督府","decorType":"shrine"},{"id":"node-2361916578","lat":22.3276348,"lon":120.3633046,"name":"尖山腳五王宮","decorType":"shrine"},{"id":"node-2406541583","lat":22.3525068,"lon":120.3844813,"name":"白沙尾渡船碼頭","decorType":"station"},{"id":"node-2406619349","lat":22.3423829,"lon":120.3685954,"name":"五連宮","decorType":"shrine"},{"id":"node-2406646227","lat":22.3226793,"lon":120.3583881,"name":"福安宮","decorType":"shrine"},{"id":"node-2406646384","lat":22.3382662,"lon":120.3709722,"name":"南天宮","decorType":"shrine"},{"id":"node-2406736044","lat":22.3549333,"lon":120.3809432,"name":"靈山寺","decorType":"shrine"},{"id":"node-2406736191","lat":22.349765,"lon":120.3686605,"name":"藍色海灣","decorType":"restaurant"},{"id":"node-2406736192","lat":22.3522753,"lon":120.3788824,"name":"椰林渡假村","decorType":"hotel"},{"id":"node-2406748530","lat":22.33452,"lon":120.3744629,"name":"大福渡船碼頭遊客中心","decorType":"station"},{"id":"node-2406907443","lat":22.3531879,"lon":120.3818738,"name":"7-Eleven","decorType":"convenience"},{"id":"node-2406907720","lat":22.3432418,"lon":120.3709357,"name":"未命名神社","decorType":"shrine"},{"id":"node-2406907770","lat":22.3462672,"lon":120.366319,"name":"未命名神社","decorType":"shrine"},{"id":"node-2406907803","lat":22.3512058,"lon":120.3683203,"name":"未命名餐廳","decorType":"restaurant"},{"id":"node-2482642899","lat":22.3324271,"lon":120.3684421,"name":"大寮山","decorType":"mountain"},{"id":"node-3938771517","lat":22.3507197,"lon":120.3845606,"name":"晴石嶼","decorType":"cafe"},{"id":"node-3938799088","lat":22.3508458,"lon":120.3847254,"name":"真饌海鮮樓","decorType":"restaurant"},{"id":"node-4170687890","lat":22.3535369,"lon":120.3811787,"name":"灰窯人文咖啡","decorType":"cafe"},{"id":"node-4182412682","lat":22.3412451,"lon":120.378899,"name":"琉球嶼山","decorType":"mountain"},{"id":"node-4358415491","lat":22.3405001,"lon":120.37001,"name":"中華電信小琉球中興會館","decorType":"hotel"},{"id":"node-4362218091","lat":22.3442884,"lon":120.3676936,"name":"社區麵店","decorType":"restaurant"},{"id":"node-4362231890","lat":22.3353602,"lon":120.3714571,"name":"洪媽媽早餐店","decorType":"restaurant"},{"id":"node-4362231891","lat":22.3354727,"lon":120.3720795,"name":"大福羊肉店","decorType":"restaurant"},{"id":"node-4362231989","lat":22.3520797,"lon":120.384014,"name":"小蝌蚪","decorType":"restaurant"},{"id":"node-4362231990","lat":22.3447005,"lon":120.3678067,"name":"鳳美麵店","decorType":"restaurant"},{"id":"node-4362232089","lat":22.3417578,"lon":120.3689027,"name":"相思麵","decorType":"restaurant"},{"id":"node-4362232289","lat":22.3464602,"lon":120.3712243,"name":"婆婆媽媽私房菜","decorType":"restaurant"},{"id":"node-4362299289","lat":22.352361,"lon":120.3809702,"name":"阿對麵店","decorType":"restaurant"},{"id":"node-4362726792","lat":22.3496794,"lon":120.3834092,"name":"大眾小吃","decorType":"restaurant"},{"id":"node-4362727891","lat":22.3387888,"lon":120.3699421,"name":"7-Eleven","decorType":"convenience"},{"id":"node-4364163291","lat":22.3488241,"lon":120.3877518,"name":"王老師手工麻花卷","decorType":"sweetshop"},{"id":"node-5283600323","lat":22.3507218,"lon":120.3804173,"name":"粥太太養生蔬食","decorType":"restaurant"},{"id":"node-5287536376","lat":22.353681,"lon":120.3810927,"name":"未命名郵局","decorType":"post_office"},{"id":"node-5287612834","lat":22.3531543,"lon":120.3819382,"name":"小琉球咖啡","decorType":"cafe"},{"id":"node-5287677636","lat":22.3531835,"lon":120.3731978,"name":"望海亭","decorType":"bus_stop"},{"id":"node-5287679111","lat":22.3445547,"lon":120.362731,"name":"生態廊道","decorType":"bus_stop"},{"id":"node-5590480948","lat":22.3310107,"lon":120.3628608,"name":"小琉球 教官の818密室 民宿","decorType":"hotel"},{"id":"node-5801220316","lat":22.348311,"lon":120.377868,"name":"未命名郵局","decorType":"post_office"},{"id":"node-5801220402","lat":22.352334,"lon":120.38211,"name":"未命名郵局","decorType":"post_office"},{"id":"node-5801220405","lat":22.348437,"lon":120.378632,"name":"未命名郵局","decorType":"post_office"},{"id":"node-5801220762","lat":22.340321,"lon":120.370694,"name":"未命名郵局","decorType":"post_office"},{"id":"node-6261815959","lat":22.3502164,"lon":120.379677,"name":"佛心素食","decorType":"restaurant"},{"id":"node-6261845503","lat":22.3477373,"lon":120.3883407,"name":"龍蝦洞海景民宿","decorType":"hotel"},{"id":"node-6315733074","lat":22.3530236,"lon":120.3818876,"name":"介玉嬤早餐","decorType":"restaurant"},{"id":"node-6315733075","lat":22.3519859,"lon":120.3841709,"name":"賢濱民宿","decorType":"hotel"},{"id":"node-6315733077","lat":22.3529606,"lon":120.3810684,"name":"蔡老師民宿","decorType":"hotel"},{"id":"node-6315733078","lat":22.3525713,"lon":120.3822564,"name":"小籠包","decorType":"restaurant"},{"id":"node-6315733080","lat":22.3525292,"lon":120.382027,"name":"蘇宅","decorType":"hotel"},{"id":"node-6315733082","lat":22.352802,"lon":120.3743991,"name":"八村度假村","decorType":"hotel"},{"id":"node-6316326058","lat":22.3527665,"lon":120.3742484,"name":"南洋渡假海景莊園","decorType":"hotel"},{"id":"node-6316408761","lat":22.3526531,"lon":120.3739455,"name":"地中海渡假旅店","decorType":"hotel"},{"id":"node-6317277382","lat":22.3526398,"lon":120.3809998,"name":"夏味鮮","decorType":"restaurant"},{"id":"node-6317277383","lat":22.3530404,"lon":120.3808278,"name":"吉樂多民宿","decorType":"hotel"},{"id":"node-6317277384","lat":22.3531772,"lon":120.3813321,"name":"琉夏萊","decorType":"hotel"},{"id":"node-6317277985","lat":22.3510422,"lon":120.3774842,"name":"阿念達浪漫會館","decorType":"hotel"},{"id":"node-6317277988","lat":22.350739,"lon":120.3800103,"name":"全家便利商店","decorType":"convenience"},{"id":"node-6317277989","lat":22.3525036,"lon":120.3808975,"name":"萊家莉民宿","decorType":"hotel"},{"id":"node-6317277990","lat":22.3529411,"lon":120.3808684,"name":"藍沙民宿","decorType":"hotel"},{"id":"node-6317277991","lat":22.3541562,"lon":120.3815529,"name":"琉球鄉樂齡學習中心","decorType":"art_gallery"},{"id":"node-6317277992","lat":22.3515802,"lon":120.3779925,"name":"自然也","decorType":"hotel"},{"id":"node-6317277993","lat":22.3510321,"lon":120.3799273,"name":"通發美食餐廳","decorType":"restaurant"},{"id":"node-6317277996","lat":22.3516798,"lon":120.3751286,"name":"花鹿旅店","decorType":"hotel"},{"id":"node-6317277997","lat":22.352502,"lon":120.3808464,"name":"琉心花園民宿","decorType":"hotel"},{"id":"node-6317277998","lat":22.3520386,"lon":120.3802747,"name":"茶的魔手","decorType":"cafe"},{"id":"node-6317277999","lat":22.3534613,"lon":120.380775,"name":"牽手旅店","decorType":"hotel"},{"id":"node-6317278000","lat":22.3509777,"lon":120.3801117,"name":"亮晶晶民宿","decorType":"hotel"},{"id":"node-6317278002","lat":22.3502819,"lon":120.3799181,"name":"鮮茶道","decorType":"cafe"},{"id":"node-6317278003","lat":22.3515178,"lon":120.3751666,"name":"五點燒烤","decorType":"restaurant"},{"id":"node-6317278004","lat":22.3517388,"lon":120.3801296,"name":"老北方牛肉麵","decorType":"restaurant"},{"id":"node-6317291344","lat":22.3518752,"lon":120.3737513,"name":"輪廓","decorType":"hotel"},{"id":"node-6317291345","lat":22.3512638,"lon":120.3743016,"name":"朵小路民宿","decorType":"hotel"},{"id":"node-6317897503","lat":22.3228431,"lon":120.3616724,"name":"觀音石","decorType":"bus_stop"},{"id":"node-6317897506","lat":22.3423401,"lon":120.3642135,"name":"杉板灣","decorType":"hotel"},{"id":"node-6317897507","lat":22.3527734,"lon":120.3801794,"name":"辰光民宿","decorType":"hotel"},{"id":"node-6318548372","lat":22.3420913,"lon":120.3639055,"name":"金獅子","decorType":"restaurant"},{"id":"node-6318548373","lat":22.3505943,"lon":120.3797431,"name":"琉球鄉農會超市","decorType":"supermarket"},{"id":"node-6318548374","lat":22.3505767,"lon":120.3797807,"name":"好客多生鮮超市","decorType":"supermarket"},{"id":"node-6319911986","lat":22.3506767,"lon":120.3741772,"name":"黃隆宮","decorType":"shrine"},{"id":"node-6319911987","lat":22.33298,"lon":120.3643085,"name":"天仙宮","decorType":"shrine"},{"id":"node-6319911988","lat":22.3388789,"lon":120.3699836,"name":"白燈樓宿旅","decorType":"hotel"},{"id":"node-6319911989","lat":22.3444488,"lon":120.3678427,"name":"海明珠民宿","decorType":"hotel"},{"id":"node-6319911991","lat":22.3466726,"lon":120.3763979,"name":"國王旅店","decorType":"hotel"},{"id":"node-6319911992","lat":22.3340326,"lon":120.3656399,"name":"南海雅築","decorType":"hotel"},{"id":"node-6319911993","lat":22.3432649,"lon":120.3669536,"name":"上杉看海旅店","decorType":"hotel"},{"id":"node-6319911995","lat":22.3340225,"lon":120.3654974,"name":"姚池宮","decorType":"shrine"},{"id":"node-6319911997","lat":22.338271,"lon":120.3657004,"name":"南海之醉","decorType":"hotel"},{"id":"node-6319911998","lat":22.3467113,"lon":120.3701751,"name":"拉美民宿","decorType":"hotel"},{"id":"node-6319912001","lat":22.3339168,"lon":120.3658737,"name":"南風民宿網","decorType":"hotel"},{"id":"node-6319912002","lat":22.3440458,"lon":120.3670701,"name":"小火雞旅店","decorType":"hotel"},{"id":"node-6319912003","lat":22.3490336,"lon":120.3716652,"name":"彼空映旅宿","decorType":"hotel"},{"id":"node-6319912004","lat":22.3458781,"lon":120.3753322,"name":"航海家民宿","decorType":"hotel"},{"id":"node-6319912006","lat":22.3374128,"lon":120.3672423,"name":"清海民宿","decorType":"hotel"},{"id":"node-6319912007","lat":22.3401396,"lon":120.3698127,"name":"琉球教會","decorType":"shrine"},{"id":"node-6319912008","lat":22.3476663,"lon":120.3706982,"name":"彩茶花園民宿","decorType":"hotel"},{"id":"node-6320091954","lat":22.3486769,"lon":120.378941,"name":"達欣餐廳","decorType":"restaurant"},{"id":"node-6320091956","lat":22.3487152,"lon":120.3787495,"name":"7-Eleven","decorType":"convenience"},{"id":"node-6320091957","lat":22.3390923,"lon":120.3702677,"name":"龍鑽烘炸手工麻花捲","decorType":"sweetshop"},{"id":"node-6320091958","lat":22.3526737,"lon":120.3826263,"name":"回琉麵館","decorType":"restaurant"},{"id":"node-6320310368","lat":22.349435,"lon":120.3793114,"name":"美美藥局","decorType":"pharmacy"},{"id":"node-6734690341","lat":22.3496392,"lon":120.3679195,"name":"全德國小","decorType":"bus_stop"},{"id":"node-6734690342","lat":22.3518272,"lon":120.3705762,"name":"沙瑪基","decorType":"bus_stop"},{"id":"node-6734690343","lat":22.3544914,"lon":120.3754324,"name":"美人洞","decorType":"bus_stop"},{"id":"node-6734690344","lat":22.3540846,"lon":120.3810154,"name":"花瓶岩 (遊客中心)","decorType":"bus_stop"},{"id":"node-6734690345","lat":22.3511872,"lon":120.3850856,"name":"觀光碼頭","decorType":"bus_stop"},{"id":"node-6821273694","lat":22.3527548,"lon":120.3830306,"name":"水晶渡假民宿","decorType":"hotel"},{"id":"node-6821273696","lat":22.3526585,"lon":120.3831785,"name":"海豚灣民宿","decorType":"hotel"},{"id":"node-6821273697","lat":22.3526312,"lon":120.3832321,"name":"白龍宮旅館","decorType":"hotel"},{"id":"node-6821286243","lat":22.3533685,"lon":120.3824227,"name":"琉球好民宿","decorType":"hotel"},{"id":"node-6822194205","lat":22.3357948,"lon":120.3617075,"name":"蛤板灣","decorType":"bus_stop"},{"id":"node-6822194206","lat":22.3386206,"lon":120.3624652,"name":"山豬溝","decorType":"bus_stop"},{"id":"node-6822194207","lat":22.3407406,"lon":120.3639954,"name":"杉福漁港","decorType":"bus_stop"},{"id":"node-6822220899","lat":22.3454455,"lon":120.3872636,"name":"龍蝦洞","decorType":"bus_stop"},{"id":"node-6822220900","lat":22.3347385,"lon":120.3742458,"name":"大福漁港","decorType":"bus_stop"},{"id":"node-6822220901","lat":22.3401166,"lon":120.3818656,"name":"旭日亭","decorType":"bus_stop"},{"id":"node-6822220902","lat":22.3318972,"lon":120.3713201,"name":"大福亭","decorType":"bus_stop"},{"id":"node-6822220903","lat":22.3260039,"lon":120.3658926,"name":"厚石砲臺","decorType":"bus_stop"},{"id":"node-6822220904","lat":22.3252937,"lon":120.353803,"name":"未命名公車站","decorType":"bus_stop"},{"id":"node-6822220905","lat":22.3251672,"lon":120.3534597,"name":"落日亭","decorType":"bus_stop"},{"id":"node-6822220906","lat":22.3303813,"lon":120.3559086,"name":"烏鬼洞","decorType":"bus_stop"},{"id":"node-6822220907","lat":22.3318488,"lon":120.3588563,"name":"長春亭 (番子厝)","decorType":"bus_stop"},{"id":"node-6824090558","lat":22.3534294,"lon":120.3812396,"name":"百海餐廳","decorType":"restaurant"},{"id":"node-6908750683","lat":22.3445711,"lon":120.3763351,"name":"三仙宮","decorType":"shrine"},{"id":"node-6908801863","lat":22.3449386,"lon":120.3761554,"name":"筑安心","decorType":"restaurant"},{"id":"node-6910843573","lat":22.3445077,"lon":120.3874272,"name":"1302 海景渡假民宿","decorType":"hotel"},{"id":"node-6965954985","lat":22.341922,"lon":120.3845498,"name":"Deepsoul","decorType":"hotel"},{"id":"node-7013405185","lat":22.3513162,"lon":120.3808448,"name":"三姐早餐店","decorType":"burger"},{"id":"node-7262704177","lat":22.3514622,"lon":120.3847631,"name":"城隍廟","decorType":"shrine"},{"id":"node-7617087885","lat":22.3441036,"lon":120.3753574,"name":"Coffee'n Fin","decorType":"cafe"},{"id":"node-7619624885","lat":22.3502506,"lon":120.3843612,"name":"西曬咖啡","decorType":"cafe"},{"id":"node-7619625885","lat":22.3502717,"lon":120.3828293,"name":"慢板咖啡","decorType":"cafe"},{"id":"node-7619867985","lat":22.3289434,"lon":120.3594834,"name":"小麻雀的家","decorType":"hotel"},{"id":"node-7631342986","lat":22.3347227,"lon":120.3664108,"name":"小島停琉","decorType":"library"},{"id":"node-7654550085","lat":22.3351043,"lon":120.3715534,"name":"小小島","decorType":"cafe"},{"id":"node-7660420386","lat":22.3499851,"lon":120.3865336,"name":"春子麵食館","decorType":"restaurant"},{"id":"node-7660431485","lat":22.3505419,"lon":120.3810591,"name":"26 Brunch","decorType":"restaurant"},{"id":"node-7673150285","lat":22.3469239,"lon":120.3716195,"name":"夜酌小站","decorType":"restaurant"},{"id":"node-7896198486","lat":22.3492451,"lon":120.3792327,"name":"小島燒","decorType":"restaurant"},{"id":"node-7896209485","lat":22.348918,"lon":120.3854493,"name":"肆不惑","decorType":"restaurant"},{"id":"node-7899135685","lat":22.3529276,"lon":120.3820916,"name":"大豐米食","decorType":"restaurant"},{"id":"node-8843521933","lat":22.3501533,"lon":120.3830615,"name":"大海的天空","decorType":"hotel"},{"id":"node-957800683","lat":22.3481881,"lon":120.3782307,"name":"琉球鄉圖書館","decorType":"library"},{"id":"way-1071238907","lat":22.3249007,"lon":120.3595179,"name":"未命名橋樑","decorType":"bridge"},{"id":"way-1155049494","lat":22.3472768,"lon":120.386032,"name":"琉球共融公園","decorType":"park"},{"id":"way-1187625595","lat":22.3370784,"lon":120.3700174,"name":"琉球聖后宮","decorType":"shrine"},{"id":"way-1187625610","lat":22.3376015,"lon":120.3701952,"name":"未命名水邊","decorType":"waterside"},{"id":"way-1187633350","lat":22.3273858,"lon":120.3651419,"name":"未命名神社","decorType":"shrine"},{"id":"way-1187639592","lat":22.3437754,"lon":120.3627967,"name":"玉敇天海宮 (施工中)","decorType":"shrine"},{"id":"way-1187646072","lat":22.3440901,"lon":120.3627551,"name":"福禄寿囍鯛焼き専門店 - 小琉球店","decorType":"restaurant"},{"id":"way-1187717446","lat":22.3429192,"lon":120.3625082,"name":"未命名海邊","decorType":"beach"},{"id":"way-1187717447","lat":22.3421578,"lon":120.3627115,"name":"未命名海邊","decorType":"beach"},{"id":"way-1211216869","lat":22.3506076,"lon":120.3849526,"name":"緣‧素食鹹酥雞","decorType":"restaurant"},{"id":"way-1211216874","lat":22.3504278,"lon":120.379636,"name":"佛心素食","decorType":"restaurant"},{"id":"way-1211216875","lat":22.3506976,"lon":120.3804398,"name":"粥太太養生蔬食","decorType":"restaurant"},{"id":"way-1211295538","lat":22.3425835,"lon":120.36336,"name":"未命名海邊","decorType":"beach"},{"id":"way-1211295539","lat":22.3426486,"lon":120.3635758,"name":"Sea Daze","decorType":"restaurant"},{"id":"way-1211295558","lat":22.3505873,"lon":120.3660837,"name":"未命名海邊","decorType":"beach"},{"id":"way-1211295560","lat":22.3489806,"lon":120.3646328,"name":"未命名海邊","decorType":"beach"},{"id":"way-1223190718","lat":22.3295735,"lon":120.3558231,"name":"悠活小島民宿","decorType":"hotel"},{"id":"way-1223190719","lat":22.3311468,"lon":120.3559795,"name":"小琉球太子宮","decorType":"shrine"},{"id":"way-1223210960","lat":22.3229075,"lon":120.3608347,"name":"慈善宮","decorType":"shrine"},{"id":"way-1268710177","lat":22.3318461,"lon":120.3572293,"name":"琉行之道","decorType":"bridge"},{"id":"way-1268710182","lat":22.3322294,"lon":120.3579704,"name":"琉行之道","decorType":"bridge"},{"id":"way-1268710188","lat":22.3334073,"lon":120.3594808,"name":"琉行之道","decorType":"bridge"},{"id":"way-1268710192","lat":22.333999,"lon":120.3602209,"name":"南興宮","decorType":"shrine"},{"id":"way-1268710199","lat":22.3295754,"lon":120.354539,"name":"海仙壇","decorType":"shrine"},{"id":"way-1268712092","lat":22.3445446,"lon":120.3763673,"name":"三仙宮","decorType":"shrine"},{"id":"way-1273536801","lat":22.3424554,"lon":120.3658609,"name":"未命名水邊","decorType":"waterside"},{"id":"way-1273536802","lat":22.3484745,"lon":120.3822634,"name":"未命名水邊","decorType":"waterside"},{"id":"way-1273536803","lat":22.348911,"lon":120.3826659,"name":"未命名水邊","decorType":"waterside"},{"id":"way-1299511328","lat":22.3434715,"lon":120.3868634,"name":"未命名橋樑","decorType":"bridge"},{"id":"way-1299511329","lat":22.3436487,"lon":120.3867178,"name":"未命名水邊","decorType":"waterside"},{"id":"way-1299511340","lat":22.3256991,"lon":120.3660558,"name":"未命名海邊","decorType":"beach"},{"id":"way-1299511343","lat":22.3241815,"lon":120.3589378,"name":"未命名水邊","decorType":"waterside"},{"id":"way-224315185","lat":22.3429722,"lon":120.3808292,"name":"未命名森林","decorType":"forest"},{"id":"way-227521640","lat":22.3282573,"lon":120.3657292,"name":"未命名森林","decorType":"forest"},{"id":"way-232300669","lat":22.3508104,"lon":120.3860609,"name":"未命名森林","decorType":"forest"},{"id":"way-293707988","lat":22.3512519,"lon":120.3808145,"name":"琉球郵局","decorType":"post_office"},{"id":"way-372689679","lat":22.334352,"lon":120.3599224,"name":"蛤板灣 (威尼斯沙灘)","decorType":"beach"},{"id":"way-372689680","lat":22.3499409,"lon":120.3876302,"name":"中澳沙灘","decorType":"beach"},{"id":"way-524812412","lat":22.3468645,"lon":120.3768872,"name":"三隆宮","decorType":"shrine"},{"id":"way-630709652","lat":22.3309424,"lon":120.3708754,"name":"大福亭天然泳池","decorType":"waterside"},{"id":"way-674642341","lat":22.3408299,"lon":120.363739,"name":"上杉福安宮","decorType":"shrine"},{"id":"way-674642342","lat":22.3410856,"lon":120.3637557,"name":"上杉萬年宮","decorType":"shrine"},{"id":"way-674674597","lat":22.3426829,"lon":120.3642818,"name":"南國海岸","decorType":"hotel"},{"id":"way-674681583","lat":22.3506557,"lon":120.3741969,"name":"未命名神社","decorType":"shrine"},{"id":"way-675802210","lat":22.3492223,"lon":120.3751052,"name":"未命名神社","decorType":"shrine"},{"id":"way-675806791","lat":22.33807,"lon":120.3698316,"name":"碧雲寺","decorType":"shrine"},{"id":"way-675806793","lat":22.338283,"lon":120.3709004,"name":"南天宮","decorType":"shrine"},{"id":"way-675806805","lat":22.3348,"lon":120.3707048,"name":"佛池寺","decorType":"shrine"},{"id":"way-675806808","lat":22.3345532,"lon":120.3738856,"name":"萬聖府","decorType":"shrine"},{"id":"way-675806809","lat":22.3349762,"lon":120.3740425,"name":"福安宮","decorType":"shrine"},{"id":"way-675806810","lat":22.3352342,"lon":120.3741184,"name":"水興宮","decorType":"shrine"},{"id":"way-679340605","lat":22.3462967,"lon":120.3663251,"name":"未命名神社","decorType":"shrine"},{"id":"way-679340618","lat":22.3460345,"lon":120.3704927,"name":"代清宮","decorType":"shrine"},{"id":"way-679340621","lat":22.3455571,"lon":120.3709874,"name":"未命名神社","decorType":"shrine"},{"id":"way-680988927","lat":22.3462611,"lon":120.3868626,"name":"池隆宮","decorType":"shrine"},{"id":"way-680988959","lat":22.3507485,"lon":120.3863469,"name":"未命名水邊","decorType":"waterside"},{"id":"way-680988999","lat":22.3475805,"lon":120.387849,"name":"未命名森林","decorType":"forest"},{"id":"way-683599379","lat":22.3465775,"lon":120.3888535,"name":"未命名海邊","decorType":"beach"},{"id":"way-683599383","lat":22.3479939,"lon":120.3884166,"name":"未命名森林","decorType":"forest"},{"id":"way-683599384","lat":22.3478098,"lon":120.3883283,"name":"未命名森林","decorType":"forest"},{"id":"way-683599385","lat":22.3486752,"lon":120.387725,"name":"未命名森林","decorType":"forest"},{"id":"way-683599386","lat":22.3484751,"lon":120.3871535,"name":"未命名森林","decorType":"forest"},{"id":"way-683599387","lat":22.3481273,"lon":120.3871972,"name":"未命名森林","decorType":"forest"},{"id":"way-683599388","lat":22.3477854,"lon":120.3867987,"name":"未命名森林","decorType":"forest"},{"id":"way-684298403","lat":22.3450847,"lon":120.3859358,"name":"未命名水邊","decorType":"waterside"},{"id":"way-684298415","lat":22.3451011,"lon":120.3870181,"name":"小琉球漁福麻花捲","decorType":"bakery"},{"id":"way-684298439","lat":22.3455386,"lon":120.3865607,"name":"未命名森林","decorType":"forest"},{"id":"way-684298440","lat":22.3468936,"lon":120.387132,"name":"未命名森林","decorType":"forest"},{"id":"way-684298441","lat":22.3455465,"lon":120.3876631,"name":"未命名森林","decorType":"forest"},{"id":"way-684298442","lat":22.3455192,"lon":120.3882679,"name":"未命名森林","decorType":"forest"},{"id":"way-684298443","lat":22.346865,"lon":120.3881713,"name":"未命名森林","decorType":"forest"},{"id":"way-684298444","lat":22.3466475,"lon":120.387763,"name":"未命名森林","decorType":"forest"},{"id":"way-684298445","lat":22.3459779,"lon":120.3875357,"name":"未命名森林","decorType":"forest"},{"id":"way-685714316","lat":22.3476596,"lon":120.3808595,"name":"未命名水邊","decorType":"waterside"},{"id":"way-685714323","lat":22.3497563,"lon":120.3828288,"name":"未命名神社","decorType":"shrine"},{"id":"way-685714334","lat":22.3486944,"lon":120.3845703,"name":"未命名森林","decorType":"forest"},{"id":"way-685724524","lat":22.3492893,"lon":120.3830944,"name":"未命名森林","decorType":"forest"},{"id":"way-685724555","lat":22.3499616,"lon":120.3842793,"name":"未命名森林","decorType":"forest"},{"id":"way-685724580","lat":22.349182,"lon":120.3857955,"name":"未命名森林","decorType":"forest"},{"id":"way-685724581","lat":22.3486518,"lon":120.3865987,"name":"未命名森林","decorType":"forest"},{"id":"way-685724582","lat":22.3489444,"lon":120.3867738,"name":"未命名森林","decorType":"forest"},{"id":"way-685724585","lat":22.3491218,"lon":120.3877877,"name":"未命名森林","decorType":"forest"},{"id":"way-685724587","lat":22.3504528,"lon":120.3877054,"name":"未命名森林","decorType":"forest"},{"id":"way-701953106","lat":22.3517611,"lon":120.3799858,"name":"柔依流居民宿","decorType":"hotel"},{"id":"way-701953135","lat":22.3546787,"lon":120.3813258,"name":"未命名森林","decorType":"forest"},{"id":"way-701953142","lat":22.3543405,"lon":120.3806341,"name":"未命名森林","decorType":"forest"},{"id":"way-727901161","lat":22.3508105,"lon":120.3854045,"name":"未命名森林","decorType":"forest"},{"id":"way-727901163","lat":22.3502619,"lon":120.3859114,"name":"未命名森林","decorType":"forest"},{"id":"way-727901180","lat":22.3514134,"lon":120.3847339,"name":"玉勅鳳邑琉球城隍廟","decorType":"shrine"},{"id":"way-727901183","lat":22.3524011,"lon":120.3830088,"name":"福泉宮","decorType":"shrine"},{"id":"way-727904408","lat":22.3531646,"lon":120.382323,"name":"水仙宮","decorType":"shrine"},{"id":"way-732708868","lat":22.3515152,"lon":120.3804535,"name":"阿雅娜","decorType":"hotel"}]}