{"bbox":{"south":22.415625,"north":22.6375,"west":121.44375,"east":121.57499999999999},"pois":[{"id":"way-1268935103","lat":22.6355469,"lon":121.4997654,"name":"å ¡ç¤æ½Ÿæ¹–","decorType":"waterside","decorName":"æ°´é‚Š","decorIcon":"ğŸŒŠ"},{"id":"way-1268935104","lat":22.6348379,"lon":121.4995445,"name":"å ¡ç¤æ½Ÿæ¹–","decorType":"waterside","decorName":"æ°´é‚Š","decorIcon":"ğŸŒŠ"},{"id":"way-416842208","lat":22.6354247,"lon":121.498952,"name":"æœªå‘½åæµ·é‚Š","decorType":"beach","decorName":"æµ·é‚Š","decorIcon":"ğŸ–ï¸"},{"id":"way-430619092","lat":22.6351147,"lon":121.5036441,"name":"æ²™ç˜","decorType":"beach","decorName":"æµ·é‚Š","decorIcon":"ğŸ–ï¸"},{"id":"way-430668200","lat":22.6370523,"lon":121.5036635,"name":"æ»¯æ´ªæ± ","decorType":"waterside","decorName":"æ°´é‚Š","decorIcon":"ğŸŒŠ"},{"id":"way-618464724","lat":22.6368546,"lon":121.4997231,"name":"æœªå‘½åæ£®æ—","decorType":"forest","decorName":"æ£®æ—","decorIcon":"ğŸŒ²"},{"id":"way-782688794","lat":22.6362999,"lon":121.4983185,"name":"ç´«åªæ­¥é“","decorType":"bridge","decorName":"æ©‹æ¨‘","decorIcon":"ğŸŒ‰"},{"id":"way-782688797","lat":22.6357372,"lon":121.4990855,"name":"æœªå‘½åæ°´é‚Š","decorType":"waterside","decorName":"æ°´é‚Š","decorIcon":"ğŸŒŠ"},{"id":"way-948616063","lat":22.6359081,"lon":121.5054547,"name":"æœªå‘½åå…¬åœ’","decorType":"park","decorName":"å…¬åœ’","decorIcon":"ğŸ€"}]}