{"bbox":{"south":22.415625,"north":22.6375,"west":121.44375,"east":121.57499999999999},"pois":[{"id":"way-1268935103","lat":22.6355469,"lon":121.4997654,"name":"堡礁潟湖","decorType":"waterside"},{"id":"way-1268935104","lat":22.6348379,"lon":121.4995445,"name":"堡礁潟湖","decorType":"waterside"},{"id":"way-416842208","lat":22.6354247,"lon":121.498952,"name":"未命名海邊","decorType":"beach"},{"id":"way-430619092","lat":22.6351147,"lon":121.5036441,"name":"沙灘","decorType":"beach"},{"id":"way-430668200","lat":22.6370523,"lon":121.5036635,"name":"滯洪池","decorType":"waterside"},{"id":"way-618464724","lat":22.6368546,"lon":121.4997231,"name":"未命名森林","decorType":"forest"},{"id":"way-782688794","lat":22.6362999,"lon":121.4983185,"name":"紫坪步道","decorType":"bridge"},{"id":"way-782688797","lat":22.6357372,"lon":121.4990855,"name":"未命名水邊","decorType":"waterside"},{"id":"way-948616063","lat":22.6359081,"lon":121.5054547,"name":"未命名公園","decorType":"park"}]}