{"bbox":{"south":22.859375,"north":23.08125,"west":120.13125,"east":120.2625},"pois":[{"id":"node-10003414204","lat":22.9657441,"lon":120.1900848,"name":"蝦皮店到店","decorType":"convenience"},{"id":"node-10017867042","lat":23.01478,"lon":120.2301299,"name":"蝦皮店到店","decorType":"convenience"},{"id":"node-10017867043","lat":22.9830745,"lon":120.2375707,"name":"蝦皮店到店","decorType":"convenience"},{"id":"node-10018274830","lat":22.8807589,"lon":120.2483581,"name":"書香園","decorType":"restaurant"},{"id":"node-10033127984","lat":22.9916491,"lon":120.1691798,"name":"7-Eleven","decorType":"convenience"},{"id":"node-10033127989","lat":22.9872704,"lon":120.1666418,"name":"7-Eleven","decorType":"convenience"},{"id":"node-10033766153","lat":22.9920609,"lon":120.2038393,"name":"中西區圖書館","decorType":"library"},{"id":"node-10036234912","lat":22.9886908,"lon":120.1919689,"name":"蝦皮店到店","decorType":"convenience"},{"id":"node-10036234913","lat":22.9903672,"lon":120.1663351,"name":"蝦皮店到店","decorType":"convenience"},{"id":"node-10036234914","lat":22.9773687,"lon":120.1978123,"name":"蝦皮店到店","decorType":"convenience"},{"id":"node-10053402413","lat":23.0279829,"lon":120.2115865,"name":"蝦皮店到店","decorType":"convenience"},{"id":"node-10062718893","lat":22.9927129,"lon":120.2025606,"name":"浪浪別哭","decorType":"cafe"},{"id":"node-10062718895","lat":22.9929228,"lon":120.2030946,"name":"金禾Kim Ho","decorType":"restaurant"},{"id":"node-10072701168","lat":23.0668856,"lon":120.1971107,"name":"美廉社","decorType":"supermarket"},{"id":"node-10072701169","lat":22.9773773,"lon":120.2347237,"name":"蝦皮店到店","decorType":"convenience"},{"id":"node-10072701170","lat":22.9689062,"lon":120.2344935,"name":"蝦皮店到店","decorType":"convenience"},{"id":"node-10076740011","lat":22.9849276,"lon":120.2382367,"name":"常春藤麵包","decorType":"bakery"},{"id":"node-10076740012","lat":22.9884758,"lon":120.2346433,"name":"福來鱔魚","decorType":"restaurant"},{"id":"node-10076740015","lat":22.9886677,"lon":120.2359332,"name":"茶的魔手","decorType":"cafe"},{"id":"node-10087156135","lat":22.9784377,"lon":120.2267476,"name":"50嵐","decorType":"cafe"},{"id":"node-10092252247","lat":23.0396328,"lon":120.187997,"name":"蝦皮店到店","decorType":"convenience"},{"id":"node-10094932046","lat":22.9471566,"lon":120.2583104,"name":"全家便利商店","decorType":"convenience"},{"id":"node-10094971907","lat":23.0464489,"lon":120.187691,"name":"7-Eleven","decorType":"convenience"},{"id":"node-10094971908","lat":23.0463922,"lon":120.1882333,"name":"88清粥小菜","decorType":"restaurant"},{"id":"node-10094971910","lat":23.046653,"lon":120.1869146,"name":"八方雲集","decorType":"burger"},{"id":"node-10094971914","lat":23.0466161,"lon":120.185981,"name":"菲虹有機咖啡","decorType":"cafe"},{"id":"node-10116210754","lat":22.9911621,"lon":120.198193,"name":"蝦皮店到店","decorType":"convenience"},{"id":"node-10151899696","lat":23.0223411,"lon":120.1892231,"name":"美廉社","decorType":"supermarket"},{"id":"node-10153988568","lat":23.0092033,"lon":120.2202772,"name":"7-Eleven","decorType":"convenience"},{"id":"node-10172798553","lat":22.9905866,"lon":120.2017547,"name":"The Pool","decorType":"restaurant"},{"id":"node-10183153377","lat":22.9209438,"lon":120.2247023,"name":"蝦皮店到店","decorType":"convenience"},{"id":"node-10183153378","lat":23.0141195,"lon":120.1939145,"name":"蝦皮店到店","decorType":"convenience"},{"id":"node-10183153379","lat":23.0245192,"lon":120.2613956,"name":"蝦皮店到店","decorType":"convenience"},{"id":"node-10183153380","lat":22.9930508,"lon":120.1794066,"name":"蝦皮店到店","decorType":"convenience"},{"id":"node-10183153381","lat":23.0698554,"lon":120.2229394,"name":"美廉社","decorType":"supermarket"},{"id":"node-10183370556","lat":22.978055,"lon":120.2130665,"name":"美廉社","decorType":"supermarket"},{"id":"node-10185409953","lat":23.022082,"lon":120.2310572,"name":"大橋國中","decorType":"bus_stop"},{"id":"node-10185409954","lat":23.0220484,"lon":120.2309405,"name":"大橋國中","decorType":"bus_stop"},{"id":"node-10185409957","lat":23.0250383,"lon":120.2383947,"name":"臺南市立圖書館","decorType":"bus_stop"},{"id":"node-10185409958","lat":23.0248451,"lon":120.2380997,"name":"臺南市立圖書館","decorType":"bus_stop"},{"id":"node-10185409959","lat":23.014371,"lon":120.1818676,"name":"海南里活動中心","decorType":"bus_stop"},{"id":"node-10185409960","lat":23.0143191,"lon":120.1817218,"name":"海南里活動中心","decorType":"bus_stop"},{"id":"node-10188332065","lat":22.9931024,"lon":120.230572,"name":"凱旋路","decorType":"bus_stop"},{"id":"node-10188332066","lat":22.993013,"lon":120.2302914,"name":"凱旋路","decorType":"bus_stop"},{"id":"node-10188332067","lat":22.9964917,"lon":120.2397094,"name":"高雄榮總臺南分院(裕永路)","decorType":"bus_stop"},{"id":"node-10188332068","lat":22.9970024,"lon":120.2400066,"name":"高雄榮總臺南分院(裕永路)","decorType":"bus_stop"},{"id":"node-10188332069","lat":22.9927904,"lon":120.2373426,"name":"平實公園停車場","decorType":"bus_stop"},{"id":"node-10188332070","lat":22.9926059,"lon":120.2368107,"name":"平實公園停車場","decorType":"bus_stop"},{"id":"node-10188332071","lat":23.0028385,"lon":120.223455,"name":"東豐長榮路口","decorType":"bus_stop"},{"id":"node-10188332072","lat":23.0024768,"lon":120.2228632,"name":"東豐長榮路口","decorType":"bus_stop"},{"id":"node-10212827151","lat":22.9868281,"lon":120.2021154,"name":"曉咖啡 Akatsuki Coffee","decorType":"cafe"},{"id":"node-10221556842","lat":22.9902259,"lon":120.2464664,"name":"振宇五金","decorType":"hardware"},{"id":"node-10221556877","lat":23.0078281,"lon":120.2254448,"name":"全家便利商店","decorType":"convenience"},{"id":"node-10222779317","lat":22.9894221,"lon":120.1953315,"name":"路易莎咖啡","decorType":"cafe"},{"id":"node-10230982717","lat":22.9849839,"lon":120.2161486,"name":"7-Eleven","decorType":"convenience"},{"id":"node-10233311719","lat":22.987847,"lon":120.2145268,"name":"海堂家食堂","decorType":"restaurant"},{"id":"node-10237490455","lat":22.9413323,"lon":120.2175368,"name":"機場路495巷","decorType":"bus_stop"},{"id":"node-10237490456","lat":22.9414175,"lon":120.2177052,"name":"機場路495巷","decorType":"bus_stop"},{"id":"node-10238099011","lat":23.0131941,"lon":120.222752,"name":"美廉社","decorType":"supermarket"},{"id":"node-10238099012","lat":23.0122678,"lon":120.223075,"name":"7-Eleven","decorType":"convenience"},{"id":"node-10239843401","lat":23.0161014,"lon":120.2256049,"name":"全家便利商店","decorType":"convenience"},{"id":"node-10239843406","lat":23.0155984,"lon":120.2260706,"name":"7-Eleven","decorType":"convenience"},{"id":"node-10240084030","lat":22.9745487,"lon":120.2172739,"name":"7-Eleven","decorType":"convenience"},{"id":"node-10240167947","lat":23.0233286,"lon":120.2343528,"name":"萊爾富","decorType":"convenience"},{"id":"node-10240167948","lat":23.0212825,"lon":120.2368426,"name":"萊爾富","decorType":"convenience"},{"id":"node-10240167949","lat":23.020952,"lon":120.2369822,"name":"7-Eleven","decorType":"convenience"},{"id":"node-10240167952","lat":23.019096,"lon":120.2335785,"name":"全家便利商店","decorType":"convenience"},{"id":"node-10240167953","lat":23.0197321,"lon":120.2346157,"name":"7-Eleven","decorType":"convenience"},{"id":"node-10243647653","lat":23.0042738,"lon":120.2371852,"name":"全家便利商店","decorType":"convenience"},{"id":"node-10249140568","lat":23.0391042,"lon":120.1927729,"name":"未命名公園","decorType":"park"},{"id":"node-10250414286","lat":23.0001299,"lon":120.1537468,"name":"養蚵之家","decorType":"restaurant"},{"id":"node-10259033209","lat":22.9980192,"lon":120.2116701,"name":"未命名咖啡廳","decorType":"cafe"},{"id":"node-10265538409","lat":22.9929691,"lon":120.2093694,"name":"未命名自主洗衣店&乾洗店","decorType":"laundry"},{"id":"node-10266913714","lat":23.020121,"lon":120.244387,"name":"寶雅","decorType":"pharmacy"},{"id":"node-10266913715","lat":23.0201624,"lon":120.2445922,"name":"家樂福超市","decorType":"supermarket"},{"id":"node-10267019209","lat":23.018143,"lon":120.2401645,"name":"7-Eleven","decorType":"convenience"},{"id":"node-10269671444","lat":23.0169038,"lon":120.2436474,"name":"穆納茶飲","decorType":"cafe"},{"id":"node-10269673630","lat":23.0185084,"lon":120.2438807,"name":"Create Hair 創作","decorType":"hair_salon"},{"id":"node-10269673632","lat":23.0184849,"lon":120.2437641,"name":"亞可漢堡","decorType":"restaurant"},{"id":"node-10269680235","lat":23.017574,"lon":120.243587,"name":"林家土魠魚羹","decorType":"restaurant"},{"id":"node-10269680236","lat":23.0180961,"lon":120.2437104,"name":"茶的魔手","decorType":"cafe"},{"id":"node-10269680237","lat":23.0181307,"lon":120.2437158,"name":"閣再來包子饅頭","decorType":"restaurant"},{"id":"node-10269693514","lat":23.0200291,"lon":120.2441168,"name":"小東門咖哩","decorType":"restaurant"},{"id":"node-10270469584","lat":23.0164952,"lon":120.2438982,"name":"清心福全","decorType":"cafe"},{"id":"node-10270469586","lat":23.0167772,"lon":120.2437198,"name":"晉大藥局","decorType":"pharmacy"},{"id":"node-10298524043","lat":23.0055083,"lon":120.1934794,"name":"蝦皮店到店","decorType":"convenience"},{"id":"node-10554134973","lat":23.025462,"lon":120.2565778,"name":"永康市場油蔥肉燥粿","decorType":"supermarket"},{"id":"node-10558893478","lat":23.0000688,"lon":120.220001,"name":"未命名神社","decorType":"shrine"},{"id":"node-10576928275","lat":22.9961646,"lon":120.1982388,"name":"小島飲刨","decorType":"restaurant"},{"id":"node-10597719185","lat":22.9885852,"lon":120.1880709,"name":"起家雞","decorType":"restaurant"},{"id":"node-10597722301","lat":22.9949458,"lon":120.2040844,"name":"未命名神社","decorType":"shrine"},{"id":"node-10597732912","lat":22.9792614,"lon":120.2197635,"name":"喜安娜麵店","decorType":"restaurant"},{"id":"node-10607456117","lat":22.8795237,"lon":120.248002,"name":"7-Eleven","decorType":"convenience"},{"id":"node-10607456118","lat":22.8727549,"lon":120.2331412,"name":"未命名麵包店","decorType":"bakery"},{"id":"node-10613279284","lat":23.0157275,"lon":120.2568531,"name":"蝦皮店到店","decorType":"convenience"},{"id":"node-10636822612","lat":22.9378146,"lon":120.2304067,"name":"捷絲旅","decorType":"hotel"},{"id":"node-10677335686","lat":22.9086784,"lon":120.2131202,"name":"蝦皮店到店","decorType":"convenience"},{"id":"node-10708689164","lat":22.8858564,"lon":120.2453783,"name":"湖內分局","decorType":"bus_stop"},{"id":"node-10708689165","lat":22.8857092,"lon":120.245066,"name":"湖內分局","decorType":"bus_stop"},{"id":"node-10724776334","lat":22.9848826,"lon":120.1964573,"name":"晒晒子咖啡","decorType":"cafe"},{"id":"node-10724776335","lat":22.9901258,"lon":120.1984356,"name":"烘大師鮮焙咖啡店","decorType":"cafe"},{"id":"node-10724776336","lat":22.9944396,"lon":120.2000623,"name":"蜷尾家パン","decorType":"bakery"},{"id":"node-10724776337","lat":23.0082013,"lon":120.2252279,"name":"貓毛珈琲","decorType":"cafe"},{"id":"node-10741882506","lat":22.9826772,"lon":120.1975711,"name":"日十早午餐","decorType":"restaurant"},{"id":"node-10741882507","lat":22.9819109,"lon":120.1977467,"name":"加閤家西式早午餐","decorType":"restaurant"},{"id":"node-10741885906","lat":22.9826194,"lon":120.1973773,"name":"阿鳳排骨飯","decorType":"restaurant"},{"id":"node-10741887205","lat":22.9827274,"lon":120.200021,"name":"6618早餐店","decorType":"restaurant"},{"id":"node-10741887305","lat":22.9832319,"lon":120.1976932,"name":"青鳥屋便當","decorType":"restaurant"},{"id":"node-10756741314","lat":23.0432007,"lon":120.2478185,"name":"永康轉運站 8月台","decorType":"bus_stop"},{"id":"node-10756741315","lat":23.0429173,"lon":120.2479889,"name":"永康轉運站 3月台","decorType":"bus_stop"},{"id":"node-10756741316","lat":23.0431492,"lon":120.2479788,"name":"永康轉運站 1月台","decorType":"bus_stop"},{"id":"node-10758838465","lat":23.043024,"lon":120.2479847,"name":"永康轉運站 2月台","decorType":"bus_stop"},{"id":"node-10758886079","lat":23.0442328,"lon":120.2432505,"name":"桂田酒店 (高鐵快捷)","decorType":"bus_stop"},{"id":"node-10794190480","lat":23.0389891,"lon":120.2025759,"name":"嘉義火雞肉飯","decorType":"restaurant"},{"id":"node-10798306454","lat":22.9672718,"lon":120.1889984,"name":"阿榮伯蔥仔餅","decorType":"burger"},{"id":"node-10810708390","lat":23.0150362,"lon":120.2448168,"name":"全家便利商店","decorType":"convenience"},{"id":"node-10810709780","lat":23.0137623,"lon":120.2459937,"name":"康是美","decorType":"pharmacy"},{"id":"node-10810709781","lat":23.0140327,"lon":120.2460024,"name":"85度C","decorType":"cafe"},{"id":"node-10810816985","lat":23.0123959,"lon":120.2464919,"name":"A-bao","decorType":"restaurant"},{"id":"node-10810843193","lat":23.009716,"lon":120.246516,"name":"小樽樂活烘培","decorType":"bakery"},{"id":"node-10810843194","lat":23.0095247,"lon":120.2462572,"name":"米里","decorType":"cafe"},{"id":"node-10810843195","lat":23.0099925,"lon":120.2463383,"name":"菩提藥局","decorType":"pharmacy"},{"id":"node-10810843196","lat":23.0100654,"lon":120.2463417,"name":"台灣鮮魚湯","decorType":"restaurant"},{"id":"node-10810843197","lat":23.0098024,"lon":120.2463316,"name":"三津羊肉","decorType":"restaurant"},{"id":"node-10810843198","lat":23.0097203,"lon":120.2463028,"name":"斯朵利專業髮型","decorType":"hair_salon"},{"id":"node-10810843199","lat":23.0101672,"lon":120.2463041,"name":"新技髮型","decorType":"hair_salon"},{"id":"node-10810843200","lat":23.0099339,"lon":120.2463363,"name":"茶湯會","decorType":"cafe"},{"id":"node-10810843201","lat":23.0103912,"lon":120.2463591,"name":"屈臣氏","decorType":"pharmacy"},{"id":"node-10810843202","lat":23.0103937,"lon":120.2465375,"name":"拉亞漢堡","decorType":"burger"},{"id":"node-10810843203","lat":23.0101987,"lon":120.2462974,"name":"特力屋","decorType":"hardware"},{"id":"node-10811005090","lat":22.9987726,"lon":120.2501343,"name":"曼都髮型","decorType":"hair_salon"},{"id":"node-10811774126","lat":22.9988553,"lon":120.2611019,"name":"7-Eleven","decorType":"convenience"},{"id":"node-10811774127","lat":22.9983677,"lon":120.2511817,"name":"拿坡里披薩","decorType":"restaurant"},{"id":"node-10811774128","lat":22.9983775,"lon":120.2514097,"name":"杏一","decorType":"pharmacy"},{"id":"node-10811774129","lat":22.9983825,"lon":120.251285,"name":"星巴克","decorType":"cafe"},{"id":"node-10811774130","lat":22.9989306,"lon":120.2516162,"name":"異人館","decorType":"cafe"},{"id":"node-10814696801","lat":23.0069518,"lon":120.2620746,"name":"王家牛肉湯","decorType":"restaurant"},{"id":"node-10819142526","lat":22.9929892,"lon":120.2072326,"name":"清淨背包客棧-民權新館","decorType":"hotel"},{"id":"node-10823567738","lat":22.9958853,"lon":120.2179939,"name":"馬可先生健康烘焙勝利店","decorType":"bakery"},{"id":"node-10823567774","lat":22.9953223,"lon":120.2179095,"name":"億品鍋 成大勝利店","decorType":"restaurant"},{"id":"node-10823567775","lat":22.9953012,"lon":120.2179299,"name":"大苑子","decorType":"cafe"},{"id":"node-10823567786","lat":22.9952231,"lon":120.2179674,"name":"Minna's 茗人溏輕飲食","decorType":"cafe"},{"id":"node-10823569218","lat":22.9943215,"lon":120.2178977,"name":"量度 Hair","decorType":"hair_salon"},{"id":"node-10823569229","lat":22.9945848,"lon":120.217934,"name":"Subway","decorType":"burger"},{"id":"node-10823569242","lat":22.9947299,"lon":120.2179468,"name":"麥味登","decorType":"restaurant"},{"id":"node-10823569247","lat":22.9948064,"lon":120.2179581,"name":"Subway","decorType":"burger"},{"id":"node-10828993059","lat":22.939343,"lon":120.1953611,"name":"六百番海鮮市場 砂鍋鹽焗鴨","decorType":"restaurant"},{"id":"node-10841912113","lat":23.0111726,"lon":120.2319926,"name":"漢堡王","decorType":"burger"},{"id":"node-10841912114","lat":22.9907623,"lon":120.2328663,"name":"漢堡王","decorType":"burger"},{"id":"node-10841912115","lat":23.0245447,"lon":120.191743,"name":"漢堡王","decorType":"burger"},{"id":"node-10841912116","lat":22.9978893,"lon":120.2090628,"name":"漢堡王","decorType":"burger"},{"id":"node-10841912117","lat":22.9840646,"lon":120.1977619,"name":"漢堡王","decorType":"burger"},{"id":"node-10841912118","lat":22.9787555,"lon":120.2224812,"name":"漢堡王","decorType":"burger"},{"id":"node-10855919245","lat":23.0228539,"lon":120.2170626,"name":"六甲頂站","decorType":"bus_stop"},{"id":"node-10855919246","lat":23.0019712,"lon":120.2087671,"name":"臺南轉運站 1月台","decorType":"bus_stop"},{"id":"node-10855919247","lat":23.0020249,"lon":120.2087963,"name":"臺南轉運站 2月台","decorType":"bus_stop"},{"id":"node-10855919248","lat":23.0020926,"lon":120.208831,"name":"臺南轉運站 3月台","decorType":"bus_stop"},{"id":"node-10855919249","lat":23.0021489,"lon":120.2088602,"name":"臺南轉運站 4月台","decorType":"bus_stop"},{"id":"node-10855919250","lat":23.0021987,"lon":120.208881,"name":"臺南轉運站 5月台","decorType":"bus_stop"},{"id":"node-10855919251","lat":23.0022575,"lon":120.2089088,"name":"臺南轉運站 6月台","decorType":"bus_stop"},{"id":"node-10855919252","lat":23.0023112,"lon":120.2089337,"name":"臺南轉運站 7月台","decorType":"bus_stop"},{"id":"node-10855919253","lat":23.0023636,"lon":120.2089615,"name":"臺南轉運站 8月台","decorType":"bus_stop"},{"id":"node-10855919254","lat":23.0024147,"lon":120.2089879,"name":"臺南轉運站 9月台","decorType":"bus_stop"},{"id":"node-10855919255","lat":23.0024709,"lon":120.2090184,"name":"臺南轉運站 10月台","decorType":"bus_stop"},{"id":"node-10855919256","lat":23.0025182,"lon":120.209049,"name":"臺南轉運站 11月台","decorType":"bus_stop"},{"id":"node-10855919257","lat":23.0025629,"lon":120.209074,"name":"臺南轉運站 12月台","decorType":"bus_stop"},{"id":"node-10855919258","lat":23.0026089,"lon":120.2090976,"name":"臺南轉運站 13月台","decorType":"bus_stop"},{"id":"node-10859735522","lat":22.998228,"lon":120.1762431,"name":"蝦皮店到店","decorType":"convenience"},{"id":"node-10880481311","lat":22.9674239,"lon":120.1883023,"name":"眼鏡仔鱔魚意麵","decorType":"restaurant"},{"id":"node-10885900519","lat":23.011267,"lon":120.2369226,"name":"全家便利商店","decorType":"convenience"},{"id":"node-10885900520","lat":23.0126042,"lon":120.2368275,"name":"7-Eleven","decorType":"convenience"},{"id":"node-10885900523","lat":23.0140224,"lon":120.2363347,"name":"7-Eleven","decorType":"convenience"},{"id":"node-10888858264","lat":23.0109787,"lon":120.2466263,"name":"全家便利商店","decorType":"convenience"},{"id":"node-10896042805","lat":23.005501,"lon":120.259488,"name":"傳承烘焙坊","decorType":"bakery"},{"id":"node-10901175093","lat":22.9840157,"lon":120.1974457,"name":"珍好味西門店","decorType":"restaurant"},{"id":"node-10901187913","lat":23.0158204,"lon":120.2005842,"name":"路易莎","decorType":"cafe"},{"id":"node-10901209291","lat":22.9941836,"lon":120.1790197,"name":"里歐","decorType":"restaurant"},{"id":"node-10901213853","lat":23.0010735,"lon":120.1886207,"name":"未命名神社","decorType":"shrine"},{"id":"node-10901224946","lat":22.9851859,"lon":120.2254174,"name":"麥味登","decorType":"restaurant"},{"id":"node-10901230518","lat":23.022093,"lon":120.235972,"name":"麥味登","decorType":"restaurant"},{"id":"node-10901240929","lat":22.9849785,"lon":120.2354769,"name":"早安美芝城","decorType":"burger"},{"id":"node-10901240930","lat":22.9850848,"lon":120.2348599,"name":"富林漢堡","decorType":"restaurant"},{"id":"node-10901244638","lat":22.92555,"lon":120.1830703,"name":"耶穌愛你教堂","decorType":"shrine"},{"id":"node-10901246560","lat":22.9258917,"lon":120.182242,"name":"美味坊","decorType":"restaurant"},{"id":"node-10901251934","lat":22.994009,"lon":120.178999,"name":"7-Eleven","decorType":"convenience"},{"id":"node-10915922877","lat":23.0019876,"lon":120.2090593,"name":"7-Eleven","decorType":"convenience"},{"id":"node-10916999107","lat":22.9705903,"lon":120.2305995,"name":"安哥台菜料理","decorType":"restaurant"},{"id":"node-10921011924","lat":22.993223,"lon":120.1794206,"name":"晨間廚房","decorType":"restaurant"},{"id":"node-10921020405","lat":22.9983106,"lon":120.1899254,"name":"弘爺漢堡","decorType":"burger"},{"id":"node-10921029533","lat":23.0052545,"lon":120.1802309,"name":"7-Eleven","decorType":"convenience"},{"id":"node-10921031742","lat":22.9732986,"lon":120.2265256,"name":"珊","decorType":"restaurant"},{"id":"node-10921035279","lat":22.9839406,"lon":120.1974506,"name":"AG貴族美髮學院","decorType":"hair_salon"},{"id":"node-10921036334","lat":22.9850609,"lon":120.2258414,"name":"尋早早餐","decorType":"restaurant"},{"id":"node-10921044942","lat":22.9850065,"lon":120.2258896,"name":"早安美芝城","decorType":"burger"},{"id":"node-10921054098","lat":22.9849524,"lon":120.224745,"name":"家歡早午餐","decorType":"restaurant"},{"id":"node-10921054160","lat":22.99366,"lon":120.2129673,"name":"哈","decorType":"cafe"},{"id":"node-10921059327","lat":23.0632008,"lon":120.2484143,"name":"嗨","decorType":"park"},{"id":"node-10921063065","lat":22.9850764,"lon":120.2259765,"name":"弘爺漢堡","decorType":"burger"},{"id":"node-10931530193","lat":23.0050848,"lon":120.236228,"name":"巧福早餐","decorType":"restaurant"},{"id":"node-10933503947","lat":23.0044032,"lon":120.2362753,"name":"美而美早餐","decorType":"restaurant"},{"id":"node-10933568065","lat":23.0043923,"lon":120.2382232,"name":"早安山丘","decorType":"restaurant"},{"id":"node-10939004681","lat":23.0159339,"lon":120.2558407,"name":"一","decorType":"park"},{"id":"node-10939019133","lat":22.9818577,"lon":120.2569604,"name":"星際美食廠","decorType":"restaurant"},{"id":"node-10939045368","lat":22.9869099,"lon":120.2589243,"name":"全旺古早味","decorType":"restaurant"},{"id":"node-10951624552","lat":23.0048183,"lon":120.2387917,"name":"弘爺漢堡","decorType":"burger"},{"id":"node-10951630531","lat":23.0086269,"lon":120.2331722,"name":"早安美芝城","decorType":"burger"},{"id":"node-10975810681","lat":23.0059823,"lon":120.191098,"name":"美廉社","decorType":"supermarket"},{"id":"node-11001217614","lat":22.9919672,"lon":120.2094599,"name":"麻古茶坊","decorType":"cafe"},{"id":"node-11001217625","lat":23.0227822,"lon":120.191084,"name":"泉威布丁豆花","decorType":"restaurant"},{"id":"node-11005508002","lat":23.0103354,"lon":120.2232681,"name":"未命名郵局","decorType":"post_office"},{"id":"node-11011459634","lat":22.9922908,"lon":120.1971526,"name":"50% Fifty Percent","decorType":"clothing"},{"id":"node-11011491448","lat":22.9683182,"lon":120.188585,"name":"和平咖 Peace coffee","decorType":"cafe"},{"id":"node-11011504004","lat":22.9682905,"lon":120.1885697,"name":"亞治麵店","decorType":"restaurant"},{"id":"node-11011531524","lat":22.9914774,"lon":120.2092546,"name":"沙鷗書屋","decorType":"library"},{"id":"node-11015280682","lat":22.9343724,"lon":120.185567,"name":"寂寞先生","decorType":"cafe"},{"id":"node-11050973710","lat":22.9903095,"lon":120.1974023,"name":"大眾酒場","decorType":"restaurant"},{"id":"node-11068345390","lat":22.983094,"lon":120.1558759,"name":"虱目魚主題館","decorType":"art_gallery"},{"id":"node-11070959548","lat":23.042586,"lon":120.1871793,"name":"OK超商","decorType":"convenience"},{"id":"node-11070959549","lat":22.9683395,"lon":120.2255202,"name":"OK超商","decorType":"convenience"},{"id":"node-11070959550","lat":22.9590322,"lon":120.2237566,"name":"OK超商","decorType":"convenience"},{"id":"node-11070959553","lat":23.0353489,"lon":120.2386069,"name":"OK超商","decorType":"convenience"},{"id":"node-11082229330","lat":23.0080333,"lon":120.2595995,"name":"蝦皮店到店","decorType":"convenience"},{"id":"node-11082326789","lat":23.0083753,"lon":120.231813,"name":"蝦皮店到店","decorType":"convenience"},{"id":"node-11082701283","lat":22.9177659,"lon":120.2207713,"name":"美廉社","decorType":"supermarket"},{"id":"node-11082973906","lat":23.021307,"lon":120.223281,"name":"蝦皮店到店","decorType":"convenience"},{"id":"node-11153503913","lat":22.9991829,"lon":120.1849935,"name":"西湖公園","decorType":"bus_stop"},{"id":"node-11153503914","lat":22.9990101,"lon":120.1850268,"name":"西湖公園","decorType":"bus_stop"},{"id":"node-11153503915","lat":22.9992462,"lon":120.1775379,"name":"平安里活動中心","decorType":"bus_stop"},{"id":"node-11153503916","lat":22.9991056,"lon":120.1770644,"name":"平安里活動中心","decorType":"bus_stop"},{"id":"node-11153503917","lat":23.0040763,"lon":120.1756404,"name":"西賢里","decorType":"bus_stop"},{"id":"node-11153503918","lat":23.003725,"lon":120.1755067,"name":"西賢里","decorType":"bus_stop"},{"id":"node-11153503919","lat":23.0050593,"lon":120.1785418,"name":"賢北國小","decorType":"bus_stop"},{"id":"node-11153503920","lat":23.0052764,"lon":120.1785428,"name":"賢北國小","decorType":"bus_stop"},{"id":"node-11153503921","lat":23.0052357,"lon":120.1829466,"name":"和緯路五段","decorType":"bus_stop"},{"id":"node-11153503922","lat":23.005666,"lon":120.1833947,"name":"和緯路五段","decorType":"bus_stop"},{"id":"node-11187634674","lat":23.0611007,"lon":120.2219564,"name":"未命名神社","decorType":"shrine"},{"id":"node-11207595567","lat":22.9591552,"lon":120.1752939,"name":"下鯤鯓","decorType":"bus_stop"},{"id":"node-11229015374","lat":22.9919727,"lon":120.1946656,"name":"The Retro Tai-Pan","decorType":"hotel"},{"id":"node-11257620615","lat":23.0119158,"lon":120.2114466,"name":"全聯福利中心","decorType":"supermarket"},{"id":"node-11257620616","lat":22.9816703,"lon":120.1947748,"name":"台安藥局","decorType":"pharmacy"},{"id":"node-11257620617","lat":22.9684375,"lon":120.1972405,"name":"關林堂","decorType":"shrine"},{"id":"node-11264400942","lat":23.0059604,"lon":120.2249394,"name":"7-Eleven","decorType":"convenience"},{"id":"node-11278698830","lat":22.989607,"lon":120.2048023,"name":"福欣素食坊","decorType":"restaurant"},{"id":"node-11278709372","lat":22.9839429,"lon":120.2094412,"name":"Fahua Temple","decorType":"shrine"},{"id":"node-11278724741","lat":22.9954516,"lon":120.1980281,"name":"Carpenter","decorType":"cafe"},{"id":"node-11278744894","lat":22.99884,"lon":120.1985952,"name":"村吉蔬素食養生創意料理","decorType":"restaurant"},{"id":"node-11278744895","lat":22.9949395,"lon":120.2036419,"name":"Coin","decorType":"cafe"},{"id":"node-11278746694","lat":22.9958142,"lon":120.1964786,"name":"My Coffee","decorType":"cafe"},{"id":"node-11278747071","lat":22.9916447,"lon":120.1898572,"name":"榖粒蔬食自然風味料理","decorType":"restaurant"},{"id":"node-11297651628","lat":22.9902278,"lon":120.2353963,"name":"台灣信義會恩道堂","decorType":"shrine"},{"id":"node-11301359174","lat":23.0013291,"lon":120.1602435,"name":"Anping Fort Shop","decorType":"burger"},{"id":"node-11301359178","lat":22.996505,"lon":120.2060803,"name":"未命名咖啡廳","decorType":"cafe"},{"id":"node-11301359179","lat":22.9939347,"lon":120.2005294,"name":"La Fille","decorType":"clothing"},{"id":"node-11301359182","lat":22.9948849,"lon":120.2089711,"name":"九條牛牛肉麵","decorType":"restaurant"},{"id":"node-11301359183","lat":22.9942032,"lon":120.2005067,"name":"Coffee Hollow","decorType":"cafe"},{"id":"node-11301359187","lat":22.9949055,"lon":120.2090016,"name":"鮮舒雞舒肥鹹水雞","decorType":"burger"},{"id":"node-11301359192","lat":22.9944973,"lon":120.2077884,"name":"龍角","decorType":"cafe"},{"id":"node-11301359200","lat":22.9964511,"lon":120.2032263,"name":"未命名漢堡店","decorType":"burger"},{"id":"node-11301359201","lat":22.9957675,"lon":120.2018025,"name":"黑工號嫩仙草","decorType":"restaurant"},{"id":"node-11301359202","lat":22.994485,"lon":120.2000354,"name":"镹","decorType":"cafe"},{"id":"node-11302829984","lat":22.9858745,"lon":120.166308,"name":"育平、府平路口","decorType":"bus_stop"},{"id":"node-11302829985","lat":22.9893702,"lon":120.1666488,"name":"郡平路","decorType":"bus_stop"},{"id":"node-11302829990","lat":22.9929996,"lon":120.1759523,"name":"怡平公園","decorType":"bus_stop"},{"id":"node-11302829991","lat":22.9929114,"lon":120.1760243,"name":"怡平公園","decorType":"bus_stop"},{"id":"node-11302829992","lat":22.9933893,"lon":120.1788781,"name":"怡平路口","decorType":"bus_stop"},{"id":"node-11302829993","lat":22.9963219,"lon":120.1792498,"name":"文平路","decorType":"bus_stop"},{"id":"node-11302829994","lat":22.9969668,"lon":120.1805937,"name":"慶平路","decorType":"bus_stop"},{"id":"node-11302829995","lat":22.9949891,"lon":120.1837478,"name":"建平十四街口","decorType":"bus_stop"},{"id":"node-11311071543","lat":22.9933368,"lon":120.2291702,"name":"小東門咖哩","decorType":"restaurant"},{"id":"node-11311081430","lat":22.9957543,"lon":120.2275707,"name":"全聯福利中心","decorType":"supermarket"},{"id":"node-11311290069","lat":22.9955661,"lon":120.2264867,"name":"薬膳麻油鶏","decorType":"restaurant"},{"id":"node-11311303462","lat":23.0088164,"lon":120.220504,"name":"一拉麵","decorType":"restaurant"},{"id":"node-11311311149","lat":22.9839187,"lon":120.197096,"name":"曲屋咖啡","decorType":"cafe"},{"id":"node-11311318000","lat":22.9767267,"lon":120.2016407,"name":"敝墟書店","decorType":"library"},{"id":"node-11333364372","lat":22.9750884,"lon":120.2143451,"name":"家根創意酒肴","decorType":"restaurant"},{"id":"node-11333364374","lat":22.9886409,"lon":120.1824753,"name":"家根創意酒肴","decorType":"restaurant"},{"id":"node-11341539777","lat":22.9920283,"lon":120.1948459,"name":"ABC Burger","decorType":"burger"},{"id":"node-11343288434","lat":23.032193,"lon":120.2045252,"name":"Louisa","decorType":"cafe"},{"id":"node-11347888316","lat":23.0469049,"lon":120.2273156,"name":"未命名公園","decorType":"park"},{"id":"node-11348060982","lat":22.9929209,"lon":120.2090868,"name":"未命名公園","decorType":"park"},{"id":"node-11350325384","lat":22.9943302,"lon":120.2098758,"name":"Django Coffee","decorType":"cafe"},{"id":"node-11351456336","lat":22.9938721,"lon":120.2061729,"name":"未命名餐廳","decorType":"restaurant"},{"id":"node-11351456345","lat":22.9934505,"lon":120.2088477,"name":"Amanda Home Stay","decorType":"hotel"},{"id":"node-11351456346","lat":22.9967486,"lon":120.1749131,"name":"Pe Pe Popcorn Chicken","decorType":"burger"},{"id":"node-11390944384","lat":22.9943069,"lon":120.211949,"name":"ASUS ROG 台南茂訊專賣店","decorType":"electronics"},{"id":"node-11391068049","lat":22.9738354,"lon":120.2240293,"name":"漫步維根 Vegan kitchen （即日起平日提供晚餐預訂餐盒）","decorType":"restaurant"},{"id":"node-11411042887","lat":23.0437851,"lon":120.1949468,"name":"波奇漢堡","decorType":"burger"},{"id":"node-11411441619","lat":23.0429887,"lon":120.1926983,"name":"日子食作烘焙","decorType":"bakery"},{"id":"node-11417020794","lat":23.0434628,"lon":120.1945981,"name":"茶的魔手","decorType":"cafe"},{"id":"node-11417041783","lat":23.0434043,"lon":120.1948627,"name":"麻古茶坊","decorType":"cafe"},{"id":"node-11417047724","lat":23.0433861,"lon":120.1948924,"name":"微平方","decorType":"cafe"},{"id":"node-11417053477","lat":23.0282868,"lon":120.2049944,"name":"拉亞漢堡","decorType":"burger"},{"id":"node-11424948702","lat":22.9943848,"lon":120.2076307,"name":"Dakou Taco 大口塔口墨西哥捲餅","decorType":"burger"},{"id":"node-11428862055","lat":22.993487,"lon":120.2280949,"name":"晨堡早餐","decorType":"restaurant"},{"id":"node-11438721369","lat":22.9951231,"lon":120.2029943,"name":"普羅民遮民宿","decorType":"hotel"},{"id":"node-11452013463","lat":23.008126,"lon":120.2254086,"name":"美廉社","decorType":"convenience"},{"id":"node-11452024737","lat":23.0075134,"lon":120.2256051,"name":"50嵐","decorType":"cafe"},{"id":"node-11472402264","lat":23.0174249,"lon":120.2086614,"name":"家樂福超市","decorType":"convenience"},{"id":"node-11482580275","lat":23.0069952,"lon":120.2258324,"name":"芹苴市小艷の店","decorType":"restaurant"},{"id":"node-11486405961","lat":22.9977419,"lon":120.2081368,"name":"小木屋鬆餅","decorType":"restaurant"},{"id":"node-11513712669","lat":23.0037976,"lon":120.1930023,"name":"Oinn Hotel & Hostel","decorType":"hotel"},{"id":"node-11521118642","lat":22.9960888,"lon":120.2050672,"name":"小得飲滿","decorType":"cafe"},{"id":"node-11521124687","lat":22.9955218,"lon":120.2058556,"name":"H&M","decorType":"clothing"},{"id":"node-11521826424","lat":22.9909095,"lon":120.1598159,"name":"安平雅樂軒酒店","decorType":"bus_stop"},{"id":"node-11521826425","lat":22.9902377,"lon":120.1600829,"name":"安平雅樂軒酒店","decorType":"bus_stop"},{"id":"node-11524007864","lat":23.0116075,"lon":120.226394,"name":"喜得炭火燒三明治","decorType":"burger"},{"id":"node-11524756589","lat":22.9966199,"lon":120.212301,"name":"爭鮮","decorType":"restaurant"},{"id":"node-11524917335","lat":23.0096196,"lon":120.2231327,"name":"慈恩藥師藥局","decorType":"pharmacy"},{"id":"node-11524934787","lat":23.010129,"lon":120.2220055,"name":"巷仔內肉圓","decorType":"restaurant"},{"id":"node-11527093242","lat":22.9982501,"lon":120.2070026,"name":"青綠園","decorType":"burger"},{"id":"node-11527201803","lat":23.004706,"lon":120.2106235,"name":"小東們咖哩","decorType":"restaurant"},{"id":"node-11527245789","lat":22.9825671,"lon":120.1998067,"name":"明仁鍋貼","decorType":"restaurant"},{"id":"node-11527261765","lat":22.9827022,"lon":120.1993631,"name":"全家便利商店","decorType":"convenience"},{"id":"node-11530463396","lat":22.9859367,"lon":120.2268338,"name":"屈臣氏","decorType":"pharmacy"},{"id":"node-11530474270","lat":22.9850308,"lon":120.2250095,"name":"唐家泡菜館","decorType":"restaurant"},{"id":"node-11532952958","lat":22.9918953,"lon":120.2185955,"name":"橋上看書","decorType":"restaurant"},{"id":"node-11539089519","lat":23.0069317,"lon":120.2240565,"name":"金三益健康茶飲","decorType":"restaurant"},{"id":"node-11549486780","lat":23.020351,"lon":120.232254,"name":"健康餐盒 台南東橋店","decorType":"restaurant"},{"id":"node-11556670624","lat":22.9533667,"lon":120.2364245,"name":"虎子山","decorType":"mountain"},{"id":"node-11558621278","lat":22.9614652,"lon":120.2303745,"name":"未命名公園","decorType":"park"},{"id":"node-11607146455","lat":22.9990099,"lon":120.1597958,"name":"湯匙山","decorType":"mountain"},{"id":"node-11612830243","lat":23.0064568,"lon":120.2181844,"name":"7-Eleven","decorType":"convenience"},{"id":"node-11625912156","lat":22.9324587,"lon":120.1889228,"name":"全聯福利中心","decorType":"supermarket"},{"id":"node-11625912157","lat":22.9326965,"lon":120.1889248,"name":"寶雅","decorType":"pharmacy"},{"id":"node-11629471229","lat":23.0088032,"lon":120.2225992,"name":"微平方","decorType":"cafe"},{"id":"node-11633615000","lat":23.0101559,"lon":120.2248578,"name":"水道湯","decorType":"restaurant"},{"id":"node-11633634760","lat":23.0104643,"lon":120.2252513,"name":"初食健康低卡餐盒","decorType":"burger"},{"id":"node-11633641290","lat":23.0103837,"lon":120.2251421,"name":"麻古茶坊","decorType":"cafe"},{"id":"node-11633994854","lat":23.0166912,"lon":120.2103203,"name":"家家虱目魚","decorType":"restaurant"},{"id":"node-11634010886","lat":23.0166124,"lon":120.2104273,"name":"鮮好茶","decorType":"cafe"},{"id":"node-11634016339","lat":23.0165836,"lon":120.210474,"name":"三媽臭臭鍋","decorType":"restaurant"},{"id":"node-11663311569","lat":22.9816706,"lon":120.2570531,"name":"全家便利商店","decorType":"convenience"},{"id":"node-11664472677","lat":22.9767164,"lon":120.2019499,"name":"老張串門餐茶館","decorType":"restaurant"},{"id":"node-11672355752","lat":23.0182237,"lon":120.2340249,"name":"兒三廣十公園","decorType":"bus_stop"},{"id":"node-11672355753","lat":23.018228,"lon":120.2341973,"name":"兒三廣十公園","decorType":"bus_stop"},{"id":"node-11672355754","lat":23.0219294,"lon":120.2356032,"name":"小橋公園、真愛社區","decorType":"bus_stop"},{"id":"node-11672355755","lat":23.0218148,"lon":120.2351325,"name":"小橋公園、真愛社區","decorType":"bus_stop"},{"id":"node-11703738977","lat":23.0074708,"lon":120.2256153,"name":"騰之雞排專門店 台南南園店","decorType":"burger"},{"id":"node-11703740487","lat":23.0075532,"lon":120.2257355,"name":"華成藥局","decorType":"pharmacy"},{"id":"node-11738139569","lat":23.0131835,"lon":120.2148029,"name":"赤木食堂","decorType":"restaurant"},{"id":"node-11744808815","lat":22.9943349,"lon":120.2050299,"name":"再發號百年肉粽","decorType":"restaurant"},{"id":"node-11755001266","lat":23.0100484,"lon":120.2247648,"name":"巴特里精緻烘焙","decorType":"bakery"},{"id":"node-11757387469","lat":22.9917028,"lon":120.2066578,"name":"小坂上輕旅","decorType":"hotel"},{"id":"node-11773318477","lat":22.9904671,"lon":120.1961249,"name":"阿文米粿","decorType":"restaurant"},{"id":"node-11773417669","lat":22.9978295,"lon":120.2006097,"name":"豐 大腸蚵仔麵線-赤崁店","decorType":"restaurant"},{"id":"node-11773425569","lat":22.9962567,"lon":120.2023473,"name":"Temple Side Hostel","decorType":"hotel"},{"id":"node-11775068706","lat":22.9808477,"lon":120.1938973,"name":"植形力商行","decorType":"supermarket"},{"id":"node-11778344713","lat":22.9802206,"lon":120.2235382,"name":"Bite 2 Eat","decorType":"restaurant"},{"id":"node-11778366953","lat":22.9807064,"lon":120.2233075,"name":"Uncle Chang Burger","decorType":"burger"},{"id":"node-11787375156","lat":22.98357,"lon":120.2264098,"name":"7-Eleven","decorType":"convenience"},{"id":"node-11787375167","lat":22.989138,"lon":120.2253448,"name":"7-Eleven","decorType":"convenience"},{"id":"node-11787469937","lat":22.985168,"lon":120.2452441,"name":"7-Eleven","decorType":"convenience"},{"id":"node-11787469938","lat":22.9868146,"lon":120.2335867,"name":"7-Eleven","decorType":"convenience"},{"id":"node-11787469939","lat":22.9750926,"lon":120.2227158,"name":"7-Eleven","decorType":"convenience"},{"id":"node-11811901081","lat":22.9931842,"lon":120.1973273,"name":"戎舘","decorType":"cosmetics"},{"id":"node-11811901082","lat":22.9881789,"lon":120.2092233,"name":"四四拍唱片行","decorType":"cafe"},{"id":"node-11820016683","lat":22.9989695,"lon":120.2152293,"name":"光二貓貓經常出沒點","decorType":"park"},{"id":"node-11824462480","lat":22.9953585,"lon":120.2177782,"name":"穆斯林的店","decorType":"restaurant"},{"id":"node-11828274263","lat":23.0712581,"lon":120.1589971,"name":"安南居易","decorType":"bus_stop"},{"id":"node-11828655107","lat":22.9590409,"lon":120.1748504,"name":"下鯤鯓","decorType":"bus_stop"},{"id":"node-11832557762","lat":23.0005355,"lon":120.2267976,"name":"洛基異國料理","decorType":"restaurant"},{"id":"node-11834431469","lat":22.9875461,"lon":120.1962633,"name":"八方雲集","decorType":"burger"},{"id":"node-11839929182","lat":23.001515,"lon":120.2074602,"name":"西羅殿牛肉湯","decorType":"restaurant"},{"id":"node-11840531420","lat":22.996527,"lon":120.2008321,"name":"小孩吃素","decorType":"restaurant"},{"id":"node-11841101192","lat":22.9979282,"lon":120.2054232,"name":"中成52號小炒燒烤","decorType":"restaurant"},{"id":"node-11854175690","lat":23.0108198,"lon":120.2205744,"name":"南安威順堂","decorType":"shrine"},{"id":"node-11873843281","lat":23.012082,"lon":120.2228681,"name":"North Garden","decorType":"restaurant"},{"id":"node-11874222733","lat":22.9925837,"lon":120.1962873,"name":"赤崁棺材板","decorType":"restaurant"},{"id":"node-11880931269","lat":22.9770793,"lon":120.1899152,"name":"李家牛肉麵","decorType":"restaurant"},{"id":"node-11896442897","lat":22.9969261,"lon":120.2141722,"name":"後火車站","decorType":"bus_stop"},{"id":"node-11897955363","lat":22.9922363,"lon":120.2026826,"name":"Bye Bye Blues","decorType":"sweetshop"},{"id":"node-11897959340","lat":22.9920798,"lon":120.2025302,"name":"Cheng10 Coffee","decorType":"cafe"},{"id":"node-11897991083","lat":22.9921849,"lon":120.2026735,"name":"墨藏軒","decorType":"restaurant"},{"id":"node-11900168863","lat":23.0092919,"lon":120.2329074,"name":"98 Tea Cafe","decorType":"cafe"},{"id":"node-11900184436","lat":23.0093294,"lon":120.2328884,"name":"gㄡgㄡ鍋燒意麵專賣店","decorType":"restaurant"},{"id":"node-11900241300","lat":23.0085636,"lon":120.2329342,"name":"全家便利商店","decorType":"convenience"},{"id":"node-11905896469","lat":23.0213634,"lon":120.221458,"name":"路易莎","decorType":"cafe"},{"id":"node-11911124802","lat":23.0067601,"lon":120.2059319,"name":"佛教正覺同修會","decorType":"shrine"},{"id":"node-11914787385","lat":23.0128806,"lon":120.2179876,"name":"未命名郵局","decorType":"post_office"},{"id":"node-11917368998","lat":22.9409577,"lon":120.2294591,"name":"阿彌陀亭","decorType":"shrine"},{"id":"node-11919113082","lat":22.9903894,"lon":120.1689203,"name":"一沐日","decorType":"cafe"},{"id":"node-11921265871","lat":22.9958635,"lon":120.2177244,"name":"小妞炒飯","decorType":"restaurant"},{"id":"node-11921417848","lat":23.0072153,"lon":120.2194766,"name":"同心包子","decorType":"bakery"},{"id":"node-11921419278","lat":22.9956887,"lon":120.2179958,"name":"決哥手烘","decorType":"cafe"},{"id":"node-11921437807","lat":22.9957,"lon":120.2180595,"name":"粉味車輪餅","decorType":"sweetshop"},{"id":"node-11921757096","lat":23.0107359,"lon":120.2202534,"name":"甘津奉茶 長榮店","decorType":"cafe"},{"id":"node-11921768569","lat":23.0105553,"lon":120.2202176,"name":"黃記古早肉包饅頭店（長榮店）","decorType":"bakery"},{"id":"node-11922025737","lat":22.9926803,"lon":120.2156653,"name":"Lico百元精緻剪髮","decorType":"hair_salon"},{"id":"node-11932414389","lat":22.9945934,"lon":120.2079247,"name":"小豪洲沙茶爐","decorType":"restaurant"},{"id":"node-11934055569","lat":22.9979971,"lon":120.2083036,"name":"禧榕軒大飯店","decorType":"hotel"},{"id":"node-11934605729","lat":23.008485,"lon":120.2208858,"name":"隨主飡 台南長榮店","decorType":"restaurant"},{"id":"node-11942209769","lat":23.0680818,"lon":120.1965226,"name":"全家便利商店","decorType":"convenience"},{"id":"node-11942241569","lat":23.067082,"lon":120.1998802,"name":"7-Eleven","decorType":"convenience"},{"id":"node-11952874349","lat":23.0649039,"lon":120.1715255,"name":"吃吃看外省麵","decorType":"restaurant"},{"id":"node-11955543502","lat":23.0096881,"lon":120.2157821,"name":"大道活力麵館","decorType":"restaurant"},{"id":"node-11955555545","lat":23.0107104,"lon":120.2164316,"name":"AC Salon","decorType":"cosmetics"},{"id":"node-11955558171","lat":23.0098143,"lon":120.2158205,"name":"茶の麽手","decorType":"cafe"},{"id":"node-11955562710","lat":23.0107952,"lon":120.2161972,"name":"宏青鹽水雞","decorType":"restaurant"},{"id":"node-11955571733","lat":23.0097263,"lon":120.2157867,"name":"小北門大腸麵線","decorType":"restaurant"},{"id":"node-11957651792","lat":23.0080869,"lon":120.22092,"name":"菁菁理髮","decorType":"hair_salon"},{"id":"node-11957654241","lat":23.009803,"lon":120.2203843,"name":"Pizza Damn","decorType":"restaurant"},{"id":"node-11957689134","lat":23.0084297,"lon":120.2208968,"name":"佳倍潔","decorType":"laundry"},{"id":"node-11963917936","lat":22.9955544,"lon":120.2170842,"name":"加依軒","decorType":"restaurant"},{"id":"node-11963981051","lat":22.995545,"lon":120.2171255,"name":"123 炒飯 炒麵 鍋燒 鐵板麵","decorType":"restaurant"},{"id":"node-11964027247","lat":22.9955173,"lon":120.2173161,"name":"成大肉圓","decorType":"restaurant"},{"id":"node-11975165786","lat":22.9949757,"lon":120.217955,"name":"老丘早餐","decorType":"restaurant"},{"id":"node-11975175128","lat":23.0041111,"lon":120.2250609,"name":"爆Q美式炸雞","decorType":"burger"},{"id":"node-11975196196","lat":22.9951396,"lon":120.2179665,"name":"五桐號","decorType":"cafe"},{"id":"node-11975202978","lat":22.9950214,"lon":120.2179945,"name":"胖虎地瓜球","decorType":"burger"},{"id":"node-11977465641","lat":23.0070458,"lon":120.2197832,"name":"茶的魔手","decorType":"cafe"},{"id":"node-11977470942","lat":23.0039197,"lon":120.2186956,"name":"娟姐牛肉湯","decorType":"restaurant"},{"id":"node-11978147152","lat":23.0098476,"lon":120.2158323,"name":"Yes Berry","decorType":"clothing"},{"id":"node-11978158917","lat":22.9915466,"lon":120.2126182,"name":"阿山 蝦仁肉圓 碗粿","decorType":"restaurant"},{"id":"node-11980075746","lat":23.0111048,"lon":120.2320697,"name":"杰港式燒臘便當","decorType":"restaurant"},{"id":"node-11982209999","lat":23.0115056,"lon":120.2064268,"name":"早安公雞農場晨食","decorType":"restaurant"},{"id":"node-11982210000","lat":23.0113764,"lon":120.2063895,"name":"早安有喜台南西門店","decorType":"restaurant"},{"id":"node-11985290892","lat":23.0068191,"lon":120.2193011,"name":"蝦皮店到店","decorType":"convenience"},{"id":"node-11986842516","lat":23.0031586,"lon":120.2223394,"name":"饗義廚房","decorType":"restaurant"},{"id":"node-11986887211","lat":23.0068382,"lon":120.2215368,"name":"宇慶咖啡","decorType":"cafe"},{"id":"node-11989186819","lat":23.0096572,"lon":120.2231412,"name":"港口土魠魚焿","decorType":"restaurant"},{"id":"node-11989186827","lat":23.0092848,"lon":120.2237104,"name":"未命名咖啡廳","decorType":"cafe"},{"id":"node-11989192526","lat":23.0095086,"lon":120.2231028,"name":"未命名餐廳","decorType":"restaurant"},{"id":"node-11989200616","lat":23.0096882,"lon":120.222256,"name":"忠安宮","decorType":"shrine"},{"id":"node-11989202107","lat":23.0097941,"lon":120.2231496,"name":"熊大炸雞","decorType":"burger"},{"id":"node-11989207923","lat":23.0109346,"lon":120.220192,"name":"玄宇數位通訊","decorType":"electronics"},{"id":"node-11989884765","lat":23.0083602,"lon":120.2217254,"name":"王大豆漿","decorType":"restaurant"},{"id":"node-11989920370","lat":23.0088901,"lon":120.2239799,"name":"十三小館","decorType":"restaurant"},{"id":"node-11989961247","lat":23.0087892,"lon":120.2238684,"name":"未命名美髮院","decorType":"hair_salon"},{"id":"node-11991897944","lat":22.9957953,"lon":120.2264866,"name":"未命名餐廳","decorType":"restaurant"},{"id":"node-11991899190","lat":22.9954104,"lon":120.2284909,"name":"京九食堂","decorType":"restaurant"},{"id":"node-11993189594","lat":23.0153265,"lon":120.2137757,"name":"二男家 家系拉麵","decorType":"restaurant"},{"id":"node-11993190823","lat":23.0154226,"lon":120.2138468,"name":"祐吉日式料理","decorType":"restaurant"},{"id":"node-11993199913","lat":23.0129115,"lon":120.2183396,"name":"功德林素食","decorType":"restaurant"},{"id":"node-11993215958","lat":23.0133085,"lon":120.2136616,"name":"未命名餐廳","decorType":"restaurant"},{"id":"node-11993225659","lat":23.0126687,"lon":120.2184006,"name":"麥香西點麵包","decorType":"bakery"},{"id":"node-11993242284","lat":23.0132418,"lon":120.2150933,"name":"未命名咖啡廳","decorType":"cafe"},{"id":"node-11993659983","lat":22.9868025,"lon":120.2226472,"name":"雨蔬時沙拉《波奇 poké》","decorType":"restaurant"},{"id":"node-11998811685","lat":23.0075618,"lon":120.2203414,"name":"賀呷肉燥飯虱目魚","decorType":"restaurant"},{"id":"node-11998823002","lat":22.9954455,"lon":120.2148836,"name":"吉魚燒","decorType":"restaurant"},{"id":"node-11998823462","lat":22.9953771,"lon":120.2147246,"name":"弘爺漢堡","decorType":"burger"},{"id":"node-11998857163","lat":22.9954157,"lon":120.214879,"name":"未命名自主洗衣店&乾洗店","decorType":"laundry"},{"id":"node-11998859575","lat":22.9968024,"lon":120.2338303,"name":"鮮茶道","decorType":"cafe"},{"id":"node-11998859576","lat":22.9961287,"lon":120.2159153,"name":"BG韓式炸雞","decorType":"burger"},{"id":"node-11998872254","lat":22.9952839,"lon":120.2147096,"name":"元味屋","decorType":"restaurant"},{"id":"node-12000167607","lat":23.0404407,"lon":120.2405733,"name":"未命名美髮院","decorType":"hair_salon"},{"id":"node-12000201341","lat":23.0403391,"lon":120.2405329,"name":"未命名餐廳","decorType":"restaurant"},{"id":"node-12000207624","lat":23.0412556,"lon":120.2402626,"name":"Subway","decorType":"burger"},{"id":"node-12000208029","lat":23.0404805,"lon":120.2403657,"name":"三分春色","decorType":"cafe"},{"id":"node-12000232869","lat":23.0404326,"lon":120.2403536,"name":"未命名餐廳","decorType":"restaurant"},{"id":"node-12000235069","lat":23.0406684,"lon":120.2405661,"name":"未命名麵包店","decorType":"bakery"},{"id":"node-12000496170","lat":22.9976243,"lon":120.2087312,"name":"杏一醫療用品","decorType":"pharmacy"},{"id":"node-12000596586","lat":22.9976056,"lon":120.2086681,"name":"義美食品","decorType":"convenience"},{"id":"node-12000596725","lat":22.9977248,"lon":120.2082002,"name":"未命名美髮院","decorType":"hair_salon"},{"id":"node-12000601190","lat":22.9975524,"lon":120.2090493,"name":"未命名餐廳","decorType":"restaurant"},{"id":"node-12001793113","lat":23.0096959,"lon":120.2202662,"name":"台南之恥","decorType":"sweetshop"},{"id":"node-12001793114","lat":23.0096151,"lon":120.2204295,"name":"翁家碗粿專賣店","decorType":"restaurant"},{"id":"node-12001793115","lat":23.00953,"lon":120.2204388,"name":"路咖啡","decorType":"cafe"},{"id":"node-12004825265","lat":23.0104765,"lon":120.2253074,"name":"東寧烤肉 開元店","decorType":"restaurant"},{"id":"node-12004925042","lat":23.0101998,"lon":120.2249632,"name":"未命名餐廳","decorType":"restaurant"},{"id":"node-12005032703","lat":23.0101855,"lon":120.2249394,"name":"未命名電器行","decorType":"electronics"},{"id":"node-12009350384","lat":22.9985232,"lon":120.2292899,"name":"未命名餐廳","decorType":"restaurant"},{"id":"node-12009351728","lat":22.9987154,"lon":120.2291581,"name":"未命名餐廳","decorType":"restaurant"},{"id":"node-12009377687","lat":22.9989275,"lon":120.2294842,"name":"東星藥局","decorType":"pharmacy"},{"id":"node-12016314239","lat":22.9944739,"lon":120.2267864,"name":"好春麵飲","decorType":"restaurant"},{"id":"node-12016319895","lat":22.9951143,"lon":120.2268733,"name":"捷米早安主廚","decorType":"restaurant"},{"id":"node-12016337083","lat":22.995159,"lon":120.2268784,"name":"菁食綻","decorType":"supermarket"},{"id":"node-12016383544","lat":22.9946291,"lon":120.2270267,"name":"未命名餐廳","decorType":"restaurant"},{"id":"node-12016387875","lat":22.9949148,"lon":120.2270837,"name":"未命名電器行","decorType":"electronics"},{"id":"node-12022587340","lat":23.009161,"lon":120.2229782,"name":"紅茶老爹 台南北區北園店","decorType":"cafe"},{"id":"node-12022607320","lat":23.0087528,"lon":120.2223851,"name":"未命名美髮院","decorType":"hair_salon"},{"id":"node-12022607321","lat":23.0087249,"lon":120.2223395,"name":"未命名美髮院","decorType":"hair_salon"},{"id":"node-12027305013","lat":22.9945525,"lon":120.2133493,"name":"未命名餐廳","decorType":"restaurant"},{"id":"node-12027318408","lat":23.0127196,"lon":120.2168058,"name":"悅家自助餐廳","decorType":"restaurant"},{"id":"node-12027489173","lat":22.9943393,"lon":120.2133072,"name":"77 Chicken","decorType":"burger"},{"id":"node-12027489475","lat":23.0245076,"lon":120.2236608,"name":"Flex Fantasy營業處","decorType":"supermarket"},{"id":"node-12027496425","lat":22.9947692,"lon":120.2089791,"name":"陸鼎記黑砂糖飲品","decorType":"cafe"},{"id":"node-12027521009","lat":23.0037675,"lon":120.2139246,"name":"未命名餐廳","decorType":"restaurant"},{"id":"node-12027525193","lat":23.0130304,"lon":120.2168918,"name":"包手","decorType":"restaurant"},{"id":"node-12028824376","lat":23.0142785,"lon":120.2353472,"name":"未命名美髮院","decorType":"hair_salon"},{"id":"node-12028826654","lat":23.0127467,"lon":120.228055,"name":"未命名餐廳","decorType":"restaurant"},{"id":"node-12028832634","lat":23.0139116,"lon":120.2351825,"name":"Horm Café & Tea","decorType":"cafe"},{"id":"node-12028866662","lat":23.0133061,"lon":120.2306456,"name":"未命名餐廳","decorType":"restaurant"},{"id":"node-12040012867","lat":23.0081081,"lon":120.2251038,"name":"未命名自主洗衣店&乾洗店","decorType":"laundry"},{"id":"node-12040016342","lat":23.0090287,"lon":120.2233828,"name":"小南便當","decorType":"restaurant"},{"id":"node-12040016657","lat":23.0089201,"lon":120.2239133,"name":"未命名餐廳","decorType":"restaurant"},{"id":"node-12040954842","lat":23.009909,"lon":120.2203726,"name":"理髮","decorType":"hair_salon"},{"id":"node-12040963518","lat":23.0093049,"lon":120.2201449,"name":"鍾記水餃之家","decorType":"restaurant"},{"id":"node-12040965512","lat":23.009556,"lon":120.2206958,"name":"金捧場 - 長榮店","decorType":"laundry"},{"id":"node-12040966047","lat":23.0082987,"lon":120.2205579,"name":"新一軍食堂","decorType":"restaurant"},{"id":"node-12040966255","lat":23.0085867,"lon":120.2208732,"name":"波波投幣式洗衣 長榮店","decorType":"laundry"},{"id":"node-12040973245","lat":23.0104382,"lon":120.220225,"name":"昂山蛋舖","decorType":"supermarket"},{"id":"node-12041387010","lat":23.0102514,"lon":120.2202876,"name":"雲端通信-長榮店","decorType":"electronics"},{"id":"node-12041388533","lat":23.0102132,"lon":120.2202943,"name":"彥彩理髮","decorType":"hair_salon"},{"id":"node-12041391671","lat":23.0088585,"lon":120.2205069,"name":"蝦霸","decorType":"restaurant"},{"id":"node-12041397786","lat":23.0091413,"lon":120.2208652,"name":"丼飯堂開元店","decorType":"restaurant"},{"id":"node-12042793102","lat":23.0048619,"lon":120.2105783,"name":"未命名漢堡店","decorType":"burger"},{"id":"node-12042834846","lat":23.012757,"lon":120.211434,"name":"未命名餐廳","decorType":"restaurant"},{"id":"node-12042891285","lat":23.0149964,"lon":120.2125025,"name":"未命名餐廳","decorType":"restaurant"},{"id":"node-12045123722","lat":23.0084005,"lon":120.2066959,"name":"未命名餐廳","decorType":"restaurant"},{"id":"node-12047098602","lat":22.9904772,"lon":120.2369006,"name":"未命名餐廳","decorType":"restaurant"},{"id":"node-12052371307","lat":23.0086566,"lon":120.2205147,"name":"泊飲茶館 長榮店","decorType":"cafe"},{"id":"node-12052371308","lat":23.0085746,"lon":120.2205266,"name":"餐盒子","decorType":"restaurant"},{"id":"node-12054429562","lat":23.0089327,"lon":120.2208323,"name":"未命名美髮院","decorType":"hair_salon"},{"id":"node-12054455980","lat":23.0087693,"lon":120.2208535,"name":"未命名美髮院","decorType":"hair_salon"},{"id":"node-12054471383","lat":23.0087358,"lon":120.2208575,"name":"White","decorType":"hair_salon"},{"id":"node-12055145854","lat":23.011204,"lon":120.2204299,"name":"好口福牛排","decorType":"restaurant"},{"id":"node-12055155516","lat":23.0113466,"lon":120.2201409,"name":"溫馨理髮","decorType":"hair_salon"},{"id":"node-12055178918","lat":23.0110622,"lon":120.2204426,"name":"傅家牛肉麵","decorType":"restaurant"},{"id":"node-12055300866","lat":23.0105682,"lon":120.2242231,"name":"未命名化妝品商店","decorType":"cosmetics"},{"id":"node-12055353691","lat":23.0104417,"lon":120.2244109,"name":"未命名自主洗衣店&乾洗店","decorType":"laundry"},{"id":"node-12055353728","lat":23.0106162,"lon":120.2233642,"name":"未命名餐廳","decorType":"restaurant"},{"id":"node-12060598087","lat":23.008642,"lon":120.221612,"name":"楊媽媽牛肉湯","decorType":"restaurant"},{"id":"node-12062206671","lat":23.0006722,"lon":120.2309779,"name":"日十。台南勝學店","decorType":"restaurant"},{"id":"node-12063606951","lat":22.999762,"lon":120.1617061,"name":"囝仔宮社妙壽宮","decorType":"shrine"},{"id":"node-12065561386","lat":23.0102655,"lon":120.1953632,"name":"未命名餐廳","decorType":"restaurant"},{"id":"node-12065631544","lat":23.0060783,"lon":120.183916,"name":"金大北百貨","decorType":"hardware"},{"id":"node-12065656723","lat":23.0106556,"lon":120.1972894,"name":"未命名服飾店","decorType":"clothing"},{"id":"node-12065665379","lat":23.0105937,"lon":120.1971101,"name":"未命名服飾店","decorType":"clothing"},{"id":"node-12065670339","lat":23.0114923,"lon":120.199507,"name":"未命名餐廳","decorType":"restaurant"},{"id":"node-12065694342","lat":22.9961126,"lon":120.1866967,"name":"未命名餐廳","decorType":"restaurant"},{"id":"node-12065736200","lat":23.040018,"lon":120.1913624,"name":"未命名五金行","decorType":"hardware"},{"id":"node-12065745315","lat":23.0386669,"lon":120.1882432,"name":"小虎烤鴨","decorType":"restaurant"},{"id":"node-12067429323","lat":23.0085295,"lon":120.2205401,"name":"健康藥局","decorType":"pharmacy"},{"id":"node-12067437488","lat":23.0081743,"lon":120.2205788,"name":"竹軒寿司","decorType":"restaurant"},{"id":"node-12067981760","lat":23.0068206,"lon":120.2192468,"name":"Gyrase","decorType":"hair_salon"},{"id":"node-12067989423","lat":23.006795,"lon":120.2191995,"name":"女人街","decorType":"clothing"},{"id":"node-12067991190","lat":23.0068415,"lon":120.2193705,"name":"修記餡餅粥地方","decorType":"restaurant"},{"id":"node-12076829317","lat":23.007246,"lon":120.2203599,"name":"未命名餐廳","decorType":"restaurant"},{"id":"node-12076837770","lat":23.0067844,"lon":120.2191607,"name":"彩衣時向洋行","decorType":"clothing"},{"id":"node-12077825258","lat":22.9899955,"lon":120.1990405,"name":"甜又鮮飲料","decorType":"cafe"},{"id":"node-12077933668","lat":22.9879618,"lon":120.1964422,"name":"餓了台式丼飯","decorType":"restaurant"},{"id":"node-12077942528","lat":22.9862173,"lon":120.2002423,"name":"David Yang Coffee","decorType":"cafe"},{"id":"node-12077949486","lat":22.9879507,"lon":120.1962325,"name":"未命名餐廳","decorType":"restaurant"},{"id":"node-12077949487","lat":22.9880179,"lon":120.1964321,"name":"未命名餐廳","decorType":"restaurant"},{"id":"node-12077995219","lat":22.9864455,"lon":120.20025,"name":"未命名餐廳","decorType":"restaurant"},{"id":"node-12078010918","lat":22.9898284,"lon":120.2002302,"name":"森空","decorType":"cafe"},{"id":"node-12079419505","lat":23.0066419,"lon":120.2256017,"name":"未命名咖啡廳","decorType":"cafe"},{"id":"node-12079424168","lat":23.0064646,"lon":120.2257937,"name":"未命名餐廳","decorType":"restaurant"},{"id":"node-12079465500","lat":23.0063139,"lon":120.2257553,"name":"未命名咖啡廳","decorType":"cafe"},{"id":"node-12079466856","lat":23.0065751,"lon":120.2257912,"name":"未命名餐廳","decorType":"restaurant"},{"id":"node-12079466876","lat":23.0066121,"lon":120.2257912,"name":"未命名餐廳","decorType":"restaurant"},{"id":"node-12079490270","lat":23.0065991,"lon":120.2255965,"name":"宜新洗衣店","decorType":"laundry"},{"id":"node-12079909726","lat":22.991955,"lon":120.2099196,"name":"大一經濟美食便當","decorType":"restaurant"},{"id":"node-12079928582","lat":22.991827,"lon":120.2106385,"name":"未命名服飾店","decorType":"clothing"},{"id":"node-12079928597","lat":22.991962,"lon":120.2098767,"name":"五桐號","decorType":"cafe"},{"id":"node-12079936070","lat":22.991848,"lon":120.2104567,"name":"未命名服飾店","decorType":"clothing"},{"id":"node-12079940437","lat":22.9918367,"lon":120.2105933,"name":"未命名服飾店","decorType":"clothing"},{"id":"node-12079942973","lat":22.9946172,"lon":120.2035592,"name":"龜記茗品","decorType":"cafe"},{"id":"node-12082227731","lat":22.995492,"lon":120.2060041,"name":"未命名漢堡店","decorType":"burger"},{"id":"node-12082230956","lat":23.0068055,"lon":120.214946,"name":"未命名電器行","decorType":"electronics"},{"id":"node-12082259072","lat":23.0003937,"lon":120.2107924,"name":"未命名咖啡廳","decorType":"cafe"},{"id":"node-12083009957","lat":23.010125,"lon":120.2248391,"name":"一家蛋糕","decorType":"sweetshop"},{"id":"node-12085077429","lat":23.011265,"lon":120.2201426,"name":"涂抹 Tumo Studio","decorType":"cosmetics"},{"id":"node-12086438056","lat":22.9989978,"lon":120.1951851,"name":"未命名漢堡店","decorType":"burger"},{"id":"node-12086977739","lat":22.9857532,"lon":120.2262465,"name":"未命名餐廳","decorType":"restaurant"},{"id":"node-12088251557","lat":22.9915499,"lon":120.2180433,"name":"威力","decorType":"burger"},{"id":"node-12088273322","lat":22.9916107,"lon":120.2181847,"name":"東馬海南雞飯","decorType":"restaurant"},{"id":"node-12088298035","lat":22.9915035,"lon":120.2182633,"name":"未命名服飾店","decorType":"clothing"},{"id":"node-12088896774","lat":22.9959865,"lon":120.2180393,"name":"Moni Hair Salon","decorType":"hair_salon"},{"id":"node-12091279188","lat":23.0067669,"lon":120.2182536,"name":"水煎包","decorType":"restaurant"},{"id":"node-12091707464","lat":22.9908466,"lon":120.2248366,"name":"未命名服飾店","decorType":"clothing"},{"id":"node-12091740697","lat":22.990832,"lon":120.2248698,"name":"未命名服飾店","decorType":"clothing"},{"id":"node-12091748947","lat":22.9876795,"lon":120.2314271,"name":"全聯福利中心","decorType":"supermarket"},{"id":"node-12091751705","lat":22.985701,"lon":120.2267915,"name":"安麗兒藥局 裕農店","decorType":"pharmacy"},{"id":"node-12091775018","lat":23.0090025,"lon":120.2228276,"name":"穆納","decorType":"cafe"},{"id":"node-12095144481","lat":22.9943753,"lon":120.2094001,"name":"Subway","decorType":"burger"},{"id":"node-12100751668","lat":23.0070839,"lon":120.2199904,"name":"尚品丰素食禾食","decorType":"restaurant"},{"id":"node-12102871166","lat":22.9979148,"lon":120.1943935,"name":"一品肉圓素圓芋丸","decorType":"restaurant"},{"id":"node-12103712821","lat":22.9959908,"lon":120.1993261,"name":"老古石碗粿","decorType":"restaurant"},{"id":"node-12103982376","lat":22.9901345,"lon":120.204845,"name":"阿信巧克力農場","decorType":"cafe"},{"id":"node-12105543658","lat":22.9937756,"lon":120.2215567,"name":"未命名餐廳","decorType":"restaurant"},{"id":"node-12105606613","lat":22.9933473,"lon":120.2267373,"name":"路易莎咖啡","decorType":"cafe"},{"id":"node-12105913992","lat":23.009545,"lon":120.2241232,"name":"未命名服飾店","decorType":"clothing"},{"id":"node-12105930108","lat":23.0092859,"lon":120.2230668,"name":"未命名餐廳","decorType":"restaurant"},{"id":"node-12105934609","lat":23.0103664,"lon":120.2191757,"name":"曼菁專業剪燙","decorType":"hair_salon"},{"id":"node-12107573510","lat":23.0085454,"lon":120.2220219,"name":"未命名藥局","decorType":"pharmacy"},{"id":"node-12108013023","lat":23.0041512,"lon":120.2224431,"name":"全家便利商店","decorType":"convenience"},{"id":"node-12108019655","lat":23.0035076,"lon":120.2250385,"name":"七慕亭","decorType":"restaurant"},{"id":"node-12108028247","lat":23.0043767,"lon":120.2227244,"name":"阿元麵店","decorType":"restaurant"},{"id":"node-12112295058","lat":23.0124439,"lon":120.2216976,"name":"未命名飯店","decorType":"hotel"},{"id":"node-12112310917","lat":23.0124668,"lon":120.2214336,"name":"未命名美髮院","decorType":"hair_salon"},{"id":"node-12112328631","lat":23.012448,"lon":120.2228388,"name":"QQ堡","decorType":"burger"},{"id":"node-12113970663","lat":23.0132332,"lon":120.2303824,"name":"未命名美髮院","decorType":"hair_salon"},{"id":"node-12114001225","lat":23.0167284,"lon":120.2270147,"name":"森日式和食","decorType":"restaurant"},{"id":"node-12117911081","lat":23.0145562,"lon":120.2067544,"name":"麻古茶坊","decorType":"cafe"},{"id":"node-12121443288","lat":23.0042952,"lon":120.2251028,"name":"福村","decorType":"restaurant"},{"id":"node-12121466553","lat":22.9849097,"lon":120.2449174,"name":"小夜食堂 - 裕平店","decorType":"restaurant"},{"id":"node-12121469348","lat":22.9848773,"lon":120.2452434,"name":"未命名咖啡廳","decorType":"cafe"},{"id":"node-12121485338","lat":23.009123,"lon":120.2209309,"name":"牛氓牛肉湯 開元店","decorType":"restaurant"},{"id":"node-12121492160","lat":22.9903795,"lon":120.2411962,"name":"未命名美髮院","decorType":"hair_salon"},{"id":"node-12121494263","lat":22.9868261,"lon":120.2419014,"name":"未命名餐廳","decorType":"restaurant"},{"id":"node-12121494265","lat":23.0083269,"lon":120.2216849,"name":"開元土豆豬腳","decorType":"restaurant"},{"id":"node-12121495926","lat":22.9851757,"lon":120.244932,"name":"鮮自然-裕信門市","decorType":"cafe"},{"id":"node-12121504800","lat":22.9887024,"lon":120.2416208,"name":"未命名美髮院","decorType":"hair_salon"},{"id":"node-12121505311","lat":22.9981965,"lon":120.2400731,"name":"未命名餐廳","decorType":"restaurant"},{"id":"node-12121505312","lat":22.998384,"lon":120.2400772,"name":"未命名麵包店","decorType":"bakery"},{"id":"node-12121506088","lat":22.9992235,"lon":120.2309768,"name":"未命名電器行","decorType":"electronics"},{"id":"node-12121506379","lat":22.9982373,"lon":120.2400705,"name":"未命名餐廳","decorType":"restaurant"},{"id":"node-12121507750","lat":23.0025501,"lon":120.226231,"name":"永林綜合料理","decorType":"restaurant"},{"id":"node-12121514601","lat":23.0017496,"lon":120.2278851,"name":"未命名圖書館／書店","decorType":"library"},{"id":"node-12127386977","lat":22.995905,"lon":120.2288071,"name":"禾品鐵板燒","decorType":"restaurant"},{"id":"node-12127410986","lat":22.9955339,"lon":120.2290256,"name":"黃先生麵鋪","decorType":"restaurant"},{"id":"node-12133457435","lat":22.9970122,"lon":120.2005067,"name":"添厚","decorType":"restaurant"},{"id":"node-12135677996","lat":23.0099864,"lon":120.2247152,"name":"未命名餐廳","decorType":"restaurant"},{"id":"node-12135727599","lat":23.0098444,"lon":120.2245416,"name":"不二通訊","decorType":"electronics"},{"id":"node-12135732286","lat":23.0097615,"lon":120.2244307,"name":"未命名藥局","decorType":"pharmacy"},{"id":"node-12152916058","lat":22.9987073,"lon":120.2395907,"name":"台南錫安堂","decorType":"shrine"},{"id":"node-12152945667","lat":22.9755813,"lon":120.2480399,"name":"7-Eleven","decorType":"convenience"},{"id":"node-12154612611","lat":22.9223853,"lon":120.1827192,"name":"未命名郵局","decorType":"post_office"},{"id":"node-12154612612","lat":22.9322067,"lon":120.1807064,"name":"未命名郵局","decorType":"post_office"},{"id":"node-12161348877","lat":23.0192955,"lon":120.2277616,"name":"一沐日","decorType":"cafe"},{"id":"node-12171882916","lat":23.037319,"lon":120.2373646,"name":"南應大油金-男士店","decorType":"hair_salon"},{"id":"node-12174920699","lat":23.0300588,"lon":120.2514924,"name":"柒．伴 SEVEN THIRSTY","decorType":"burger"},{"id":"node-12185822735","lat":22.9996345,"lon":120.1638277,"name":"安平109雞肉飯","decorType":"restaurant"},{"id":"node-12186369024","lat":23.0207296,"lon":120.2187805,"name":"南台育揚","decorType":"shrine"},{"id":"node-12198361101","lat":23.011325,"lon":120.1900737,"name":"嗨翻","decorType":"stadium"},{"id":"node-12198770268","lat":22.9837097,"lon":120.2319415,"name":"三皇三家","decorType":"restaurant"},{"id":"node-12198776190","lat":22.9841193,"lon":120.2322352,"name":"金茶伍","decorType":"restaurant"},{"id":"node-12198890456","lat":22.9952989,"lon":120.2328274,"name":"未命名餐廳","decorType":"restaurant"},{"id":"node-12198894314","lat":22.994762,"lon":120.2329604,"name":"7-Eleven","decorType":"convenience"},{"id":"node-12198917237","lat":22.9952716,"lon":120.2328247,"name":"未命名化妝品商店","decorType":"cosmetics"},{"id":"node-12198923817","lat":22.9951847,"lon":120.232974,"name":"Respera","decorType":"cosmetics"},{"id":"node-12203240328","lat":22.8737438,"lon":120.2368543,"name":"全家便利商店","decorType":"convenience"},{"id":"node-12203287451","lat":23.0016422,"lon":120.2286765,"name":"Cut it 剪吧","decorType":"hair_salon"},{"id":"node-12203297276","lat":23.001604,"lon":120.2288025,"name":"念念Table","decorType":"restaurant"},{"id":"node-12203505941","lat":23.00156,"lon":120.2290013,"name":"髮文西","decorType":"hair_salon"},{"id":"node-12207955499","lat":23.0148016,"lon":120.2133191,"name":"尚好桶子雞","decorType":"burger"},{"id":"node-12207963460","lat":23.0405519,"lon":120.190563,"name":"未命名餐廳","decorType":"restaurant"},{"id":"node-12207974582","lat":23.014608,"lon":120.2131558,"name":"大樹藥局","decorType":"pharmacy"},{"id":"node-12207974753","lat":23.0462769,"lon":120.1886792,"name":"中野","decorType":"clothing"},{"id":"node-12207979823","lat":23.0135251,"lon":120.2123643,"name":"好食在手炸蛋餅","decorType":"restaurant"},{"id":"node-12207984993","lat":23.0155962,"lon":120.2120138,"name":"未命名餐廳","decorType":"restaurant"},{"id":"node-12208465682","lat":23.0471223,"lon":120.1884597,"name":"麥當勞","decorType":"burger"},{"id":"node-12208468562","lat":23.0409015,"lon":120.1908598,"name":"未命名餐廳","decorType":"restaurant"},{"id":"node-12208488062","lat":23.0464982,"lon":120.1883237,"name":"未命名餐廳","decorType":"restaurant"},{"id":"node-12208759674","lat":22.9946907,"lon":120.1966247,"name":"未命名咖啡廳","decorType":"cafe"},{"id":"node-12208778935","lat":22.9943073,"lon":120.2096758,"name":"未命名美髮院","decorType":"hair_salon"},{"id":"node-12208787509","lat":22.9916382,"lon":120.1953821,"name":"未命名餐廳","decorType":"restaurant"},{"id":"node-12208804419","lat":22.9935436,"lon":120.2146881,"name":"未命名咖啡廳","decorType":"cafe"},{"id":"node-12208809404","lat":22.9935197,"lon":120.2145795,"name":"吾燕煮鍋燒","decorType":"restaurant"},{"id":"node-12210107802","lat":22.9824477,"lon":120.2079465,"name":"尋早早餐","decorType":"cafe"},{"id":"node-12217439421","lat":22.8721277,"lon":120.1942461,"name":"全聯福利中心","decorType":"supermarket"},{"id":"node-12217439430","lat":22.8955691,"lon":120.1843342,"name":"7-Eleven","decorType":"convenience"},{"id":"node-12217439431","lat":22.8968399,"lon":120.1848654,"name":"7-Eleven","decorType":"convenience"},{"id":"node-12217439432","lat":22.8972575,"lon":120.1847957,"name":"全聯福利中心","decorType":"supermarket"},{"id":"node-12220662373","lat":22.9085942,"lon":120.2119058,"name":"7-Eleven","decorType":"convenience"},{"id":"node-12220662380","lat":22.9064224,"lon":120.2146899,"name":"全家便利商店","decorType":"convenience"},{"id":"node-12223908402","lat":22.8958479,"lon":120.2237713,"name":"7-Eleven","decorType":"convenience"},{"id":"node-12228960773","lat":22.8880502,"lon":120.2428474,"name":"全家便利商店","decorType":"convenience"},{"id":"node-12265854489","lat":22.9995162,"lon":120.2283366,"name":"烏吉","decorType":"cafe"},{"id":"node-12266036800","lat":23.0074733,"lon":120.220755,"name":"東元家電","decorType":"electronics"},{"id":"node-12277902502","lat":23.0210711,"lon":120.2233209,"name":"嚕嚕咪美食","decorType":"restaurant"},{"id":"node-12281435901","lat":23.022418,"lon":120.2230164,"name":"食神","decorType":"restaurant"},{"id":"node-12284602333","lat":22.9914096,"lon":120.1996006,"name":"郭家粽","decorType":"restaurant"},{"id":"node-12299404653","lat":22.9961633,"lon":120.2180162,"name":"貝蒂果汁","decorType":"burger"},{"id":"node-12304260828","lat":22.9949969,"lon":120.2314864,"name":"未命名餐廳","decorType":"restaurant"},{"id":"node-12307306141","lat":23.0160089,"lon":120.2294102,"name":"一心園素食","decorType":"restaurant"},{"id":"node-12308801727","lat":22.9923708,"lon":120.2039521,"name":"未命名餐廳","decorType":"restaurant"},{"id":"node-12308801728","lat":22.9923884,"lon":120.2009868,"name":"The Yuan","decorType":"cafe"},{"id":"node-12308811783","lat":22.9919602,"lon":120.2006575,"name":"未命名餐廳","decorType":"restaurant"},{"id":"node-12308818653","lat":22.9912377,"lon":120.2003918,"name":"未命名咖啡廳","decorType":"cafe"},{"id":"node-12308838099","lat":22.9862498,"lon":120.2025896,"name":"Burger In","decorType":"burger"},{"id":"node-12308839102","lat":22.9921722,"lon":120.2007529,"name":"未命名餐廳","decorType":"restaurant"},{"id":"node-12308840216","lat":22.9983111,"lon":120.2070141,"name":"未命名服飾店","decorType":"clothing"},{"id":"node-12308843594","lat":22.9862581,"lon":120.2025356,"name":"未命名餐廳","decorType":"restaurant"},{"id":"node-12308852342","lat":22.9860287,"lon":120.202578,"name":"Ease Hair","decorType":"hair_salon"},{"id":"node-12308862183","lat":22.9874784,"lon":120.2045982,"name":"未命名漢堡店","decorType":"burger"},{"id":"node-12311811086","lat":22.9894631,"lon":120.1641172,"name":"7-Eleven","decorType":"convenience"},{"id":"node-12311811099","lat":22.9931064,"lon":120.1637579,"name":"全家便利商店","decorType":"convenience"},{"id":"node-12314071343","lat":22.9971945,"lon":120.201873,"name":"石精臼擔仔麵","decorType":"restaurant"},{"id":"node-12314108562","lat":22.9972183,"lon":120.2017961,"name":"十月甜","decorType":"sweetshop"},{"id":"node-12314111766","lat":22.9972059,"lon":120.2018341,"name":"紅茶幫","decorType":"cafe"},{"id":"node-12318186939","lat":23.0094197,"lon":120.2207108,"name":"伍姿剪髮","decorType":"hair_salon"},{"id":"node-12323665004","lat":22.9881406,"lon":120.1872271,"name":"Joyfull安平家樂福店","decorType":"restaurant"},{"id":"node-12329819329","lat":22.9869411,"lon":120.219083,"name":"未命名餐廳","decorType":"restaurant"},{"id":"node-12329895849","lat":22.9890971,"lon":120.2198596,"name":"未命名美髮院","decorType":"hair_salon"},{"id":"node-12329899128","lat":22.985728,"lon":120.2222662,"name":"未命名電器行","decorType":"electronics"},{"id":"node-12329906545","lat":22.9888221,"lon":120.2197573,"name":"未命名餐廳","decorType":"restaurant"},{"id":"node-12329937307","lat":22.9851819,"lon":120.2238722,"name":"未命名圖書館／書店","decorType":"library"},{"id":"node-12329942565","lat":22.9861125,"lon":120.2208634,"name":"KLG","decorType":"burger"},{"id":"node-12329943275","lat":22.9807497,"lon":120.2297134,"name":"未命名美髮院","decorType":"hair_salon"},{"id":"node-12329957961","lat":22.9893089,"lon":120.2199758,"name":"未命名餐廳","decorType":"restaurant"},{"id":"node-12343391890","lat":22.9797209,"lon":120.2177377,"name":"未命名餐廳","decorType":"restaurant"},{"id":"node-12343688389","lat":23.0178613,"lon":120.1933775,"name":"未命名飯店","decorType":"hotel"},{"id":"node-12343688390","lat":23.0246693,"lon":120.1916912,"name":"未命名服飾店","decorType":"clothing"},{"id":"node-12343693778","lat":23.0034402,"lon":120.1940969,"name":"未命名餐廳","decorType":"restaurant"},{"id":"node-12343708324","lat":23.0035567,"lon":120.1939965,"name":"未命名餐廳","decorType":"restaurant"},{"id":"node-12343720432","lat":23.0177591,"lon":120.1930655,"name":"未命名服飾店","decorType":"clothing"},{"id":"node-12343722025","lat":23.0178039,"lon":120.1933885,"name":"未命名餐廳","decorType":"restaurant"},{"id":"node-12357651267","lat":22.941484,"lon":120.1817105,"name":"明興、萬皇路口","decorType":"bus_stop"},{"id":"node-12357651268","lat":22.9413798,"lon":120.1818447,"name":"明興、萬皇路口","decorType":"bus_stop"},{"id":"node-12357651269","lat":22.9260526,"lon":120.1888922,"name":"同興","decorType":"bus_stop"},{"id":"node-12357651270","lat":22.9257287,"lon":120.1900923,"name":"同興","decorType":"bus_stop"},{"id":"node-12363457467","lat":22.9958079,"lon":120.2059699,"name":"富士達人拉麵","decorType":"restaurant"},{"id":"node-12363582082","lat":22.9943487,"lon":120.2049951,"name":"遠大服飾","decorType":"clothing"},{"id":"node-12363602253","lat":22.994364,"lon":120.2049562,"name":"未命名美髮院","decorType":"hair_salon"},{"id":"node-12384377269","lat":22.9950887,"lon":120.2106393,"name":"未命名餐廳","decorType":"restaurant"},{"id":"node-12384408363","lat":22.9964266,"lon":120.2112845,"name":"未命名服飾店","decorType":"clothing"},{"id":"node-12385645148","lat":23.0101537,"lon":120.2243754,"name":"健康餐盒","decorType":"restaurant"},{"id":"node-12385647138","lat":23.0100988,"lon":120.2248123,"name":"萬紅刀切麵","decorType":"restaurant"},{"id":"node-12385968601","lat":22.9976575,"lon":120.206516,"name":"克勞斯咖啡店（台南店）","decorType":"cafe"},{"id":"node-12387444401","lat":23.0101237,"lon":120.2375262,"name":"村有熊","decorType":"cafe"},{"id":"node-12389440076","lat":22.9953022,"lon":120.2065742,"name":"甲田咖哩","decorType":"restaurant"},{"id":"node-12389458849","lat":22.995331,"lon":120.2065083,"name":"全方位創意包膜 台南包膜 - 民族店","decorType":"electronics"},{"id":"node-12389465560","lat":22.9929708,"lon":120.2106021,"name":"未命名服飾店","decorType":"clothing"},{"id":"node-12389468940","lat":22.9935207,"lon":120.2106536,"name":"未命名服飾店","decorType":"clothing"},{"id":"node-12389474934","lat":22.9930401,"lon":120.2106181,"name":"未命名服飾店","decorType":"clothing"},{"id":"node-12389474935","lat":22.9925837,"lon":120.2105418,"name":"未命名咖啡廳","decorType":"cafe"},{"id":"node-12389475379","lat":22.9943388,"lon":120.2099925,"name":"Adidas Originals","decorType":"clothing"},{"id":"node-12389475523","lat":22.9937377,"lon":120.2107056,"name":"未命名服飾店","decorType":"clothing"},{"id":"node-12389480631","lat":22.9926231,"lon":120.2105559,"name":"未命名服飾店","decorType":"clothing"},{"id":"node-12389481244","lat":22.993846,"lon":120.2107253,"name":"未命名服飾店","decorType":"clothing"},{"id":"node-12389483771","lat":22.9939573,"lon":120.2107241,"name":"未命名服飾店","decorType":"clothing"},{"id":"node-12389486530","lat":22.993798,"lon":120.2102519,"name":"未命名美髮院","decorType":"hair_salon"},{"id":"node-12389490654","lat":22.992656,"lon":120.210563,"name":"未命名服飾店","decorType":"clothing"},{"id":"node-12389493308","lat":22.9926391,"lon":120.210726,"name":"未命名餐廳","decorType":"restaurant"},{"id":"node-12389494008","lat":22.9928159,"lon":120.2105807,"name":"未命名服飾店","decorType":"clothing"},{"id":"node-12409121379","lat":22.9955643,"lon":120.2160219,"name":"享受牛肉館","decorType":"restaurant"},{"id":"node-12409143295","lat":22.99557,"lon":120.2159896,"name":"御鍋燒","decorType":"restaurant"},{"id":"node-12409165303","lat":22.9955463,"lon":120.2161891,"name":"上樂炒飯","decorType":"restaurant"},{"id":"node-12409165304","lat":22.9955701,"lon":120.2160731,"name":"未命名漢堡店","decorType":"burger"},{"id":"node-12409168105","lat":22.9955821,"lon":120.2158713,"name":"未命名餐廳","decorType":"restaurant"},{"id":"node-12409168261","lat":22.995545,"lon":120.2162239,"name":"肉燥飯達人","decorType":"restaurant"},{"id":"node-12415624778","lat":22.9920013,"lon":120.2219881,"name":"揚城國際","decorType":"electronics"},{"id":"node-12415641507","lat":22.991319,"lon":120.2176601,"name":"廟口二代 清燉牛肉麵","decorType":"restaurant"},{"id":"node-12415679613","lat":22.991983,"lon":120.2220551,"name":"孫東寶","decorType":"restaurant"},{"id":"node-12459978691","lat":23.010844,"lon":120.2232235,"name":"未命名餐廳","decorType":"restaurant"},{"id":"node-12459994120","lat":23.0108881,"lon":120.2232143,"name":"未命名餐廳","decorType":"restaurant"},{"id":"node-12469952919","lat":22.9950546,"lon":120.1969116,"name":"未命名餐廳","decorType":"restaurant"},{"id":"node-12470286499","lat":22.9950131,"lon":120.1970641,"name":"東寧文旅","decorType":"hotel"},{"id":"node-12470293340","lat":22.9950013,"lon":120.1971058,"name":"咕嚕叫吐司","decorType":"restaurant"},{"id":"node-12470295477","lat":22.9950359,"lon":120.1969556,"name":"Oh! Yaki","decorType":"restaurant"},{"id":"node-12470307963","lat":22.9950983,"lon":120.196789,"name":"名東蛋糕","decorType":"sweetshop"},{"id":"node-12470308802","lat":22.9949789,"lon":120.197157,"name":"鄉村柴火雞","decorType":"restaurant"},{"id":"node-12470322824","lat":22.998572,"lon":120.2007753,"name":"暖時嚼旅","decorType":"hotel"},{"id":"node-12470357740","lat":22.9953699,"lon":120.1968881,"name":"九份礦工","decorType":"restaurant"},{"id":"node-12470392451","lat":22.9985977,"lon":120.2002284,"name":"未命名美髮院","decorType":"hair_salon"},{"id":"node-12470401115","lat":22.9987417,"lon":120.2001639,"name":"薏仁屋","decorType":"restaurant"},{"id":"node-12470568866","lat":23.0044227,"lon":120.2189535,"name":"良晨吉食 成大店","decorType":"restaurant"},{"id":"node-12470631320","lat":23.0043258,"lon":120.2193244,"name":"櫻之庭食堂","decorType":"restaurant"},{"id":"node-12473118037","lat":23.0133078,"lon":120.2122889,"name":"尚介讚香雞排","decorType":"burger"},{"id":"node-12473125317","lat":23.0129875,"lon":120.2167453,"name":"太三圓","decorType":"restaurant"},{"id":"node-12475109099","lat":22.9959895,"lon":120.2207726,"name":"宜華蛋餅-台南成大店","decorType":"restaurant"},{"id":"node-12475109100","lat":22.9959742,"lon":120.22077,"name":"K Y Beauty","decorType":"cosmetics"},{"id":"node-12475327997","lat":22.9883764,"lon":120.1779138,"name":"老廣粵花雕雞創意坊","decorType":"restaurant"},{"id":"node-12475327998","lat":22.9884986,"lon":120.1865834,"name":"歐巴答韓式炸雞","decorType":"restaurant"},{"id":"node-12475327999","lat":22.977819,"lon":120.1943839,"name":"杜牛肉湯","decorType":"restaurant"},{"id":"node-12475328000","lat":22.99559,"lon":120.2053978,"name":"小南天生活輕旅","decorType":"hotel"},{"id":"node-12494253019","lat":22.9888667,"lon":120.2238993,"name":"鐵牛早餐","decorType":"restaurant"},{"id":"node-12497481847","lat":22.9938332,"lon":120.2218181,"name":"未命名餐廳","decorType":"restaurant"},{"id":"node-12497487649","lat":23.02025,"lon":120.2225907,"name":"香承汕頭意麵","decorType":"restaurant"},{"id":"node-12500787308","lat":23.0480615,"lon":120.2475268,"name":"鹽行國中(民松街)","decorType":"bus_stop"},{"id":"node-12506789127","lat":23.0092241,"lon":120.2230283,"name":"金旺港式臭豆腐","decorType":"restaurant"},{"id":"node-12506799419","lat":23.0091952,"lon":120.2229983,"name":"黃家小籠包","decorType":"restaurant"},{"id":"node-12506801630","lat":23.009254,"lon":120.2230628,"name":"東山鴨頭","decorType":"restaurant"},{"id":"node-12513601782","lat":23.014762,"lon":120.209478,"name":"焼肉ショジョ","decorType":"restaurant"},{"id":"node-12513644698","lat":23.0145064,"lon":120.209505,"name":"未命名漢堡店","decorType":"burger"},{"id":"node-12513650520","lat":23.0146019,"lon":120.2095206,"name":"小鮮肉咖哩小北店","decorType":"restaurant"},{"id":"node-12522321915","lat":22.9740958,"lon":120.187794,"name":"全家便利商店","decorType":"convenience"},{"id":"node-12528571049","lat":23.0127976,"lon":120.2228301,"name":"四海外省麵","decorType":"restaurant"},{"id":"node-12529011381","lat":23.004359,"lon":120.2046008,"name":"未命名咖啡廳","decorType":"cafe"},{"id":"node-12529055820","lat":22.9959829,"lon":120.1994202,"name":"未命名漢堡店","decorType":"burger"},{"id":"node-12529169448","lat":22.9954639,"lon":120.1968706,"name":"未命名咖啡廳","decorType":"cafe"},{"id":"node-12529213415","lat":23.0012248,"lon":120.2086318,"name":"未命名漢堡店","decorType":"burger"},{"id":"node-12530487777","lat":22.9893333,"lon":120.2235885,"name":"未命名甜點店","decorType":"sweetshop"},{"id":"node-12530547637","lat":23.0024279,"lon":120.2267196,"name":"未命名美髮院","decorType":"hair_salon"},{"id":"node-12530587361","lat":23.0023436,"lon":120.2271068,"name":"未命名餐廳","decorType":"restaurant"},{"id":"node-12530904712","lat":23.0108627,"lon":120.2202179,"name":"金廣海產","decorType":"restaurant"},{"id":"node-12538783454","lat":23.0444386,"lon":120.2453184,"name":"全家","decorType":"convenience"},{"id":"node-12538784951","lat":23.0443524,"lon":120.2431121,"name":"鄉村漢堡","decorType":"restaurant"},{"id":"node-12538798394","lat":23.0443567,"lon":120.2431573,"name":"未命名化妝品商店","decorType":"cosmetics"},{"id":"node-12540712886","lat":23.0150035,"lon":120.2131661,"name":"未命名藥局","decorType":"pharmacy"},{"id":"node-12540761637","lat":23.0148873,"lon":120.2130514,"name":"未命名甜點店","decorType":"sweetshop"},{"id":"node-12540778462","lat":23.04082,"lon":120.1941563,"name":"未命名美髮院","decorType":"hair_salon"},{"id":"node-12540783009","lat":23.0360892,"lon":120.203497,"name":"全國電子","decorType":"electronics"},{"id":"node-12540786563","lat":23.0519876,"lon":120.1646837,"name":"未命名甜點店","decorType":"sweetshop"},{"id":"node-12540821420","lat":23.0490374,"lon":120.1710165,"name":"未命名餐廳","decorType":"restaurant"},{"id":"node-12540830971","lat":23.0520571,"lon":120.164471,"name":"未命名麵包店","decorType":"bakery"},{"id":"node-12540885660","lat":23.048896,"lon":120.1712745,"name":"尚鮮 牛肉湯 鮮魚湯","decorType":"restaurant"},{"id":"node-12541886680","lat":22.9926678,"lon":120.2160005,"name":"9 Cheers Café and Bar","decorType":"cafe"},{"id":"node-12542975972","lat":23.0400298,"lon":120.1879459,"name":"未命名化妝品商店","decorType":"cosmetics"},{"id":"node-12542977292","lat":23.0392016,"lon":120.1883601,"name":"茶的魔手","decorType":"cafe"},{"id":"node-12542977293","lat":23.0409207,"lon":120.187759,"name":"未命名餐廳","decorType":"restaurant"},{"id":"node-12542983126","lat":23.0402738,"lon":120.189708,"name":"未命名餐廳","decorType":"restaurant"},{"id":"node-12542998818","lat":23.0408185,"lon":120.1877799,"name":"未命名電器行","decorType":"electronics"},{"id":"node-12543005253","lat":23.0491934,"lon":120.1752534,"name":"未命名餐廳","decorType":"restaurant"},{"id":"node-12543009397","lat":23.0454267,"lon":120.185078,"name":"茶的魔手","decorType":"cafe"},{"id":"node-12543010599","lat":23.0489715,"lon":120.1726332,"name":"未命名餐廳","decorType":"restaurant"},{"id":"node-12543012919","lat":23.0453095,"lon":120.1851474,"name":"未命名餐廳","decorType":"restaurant"},{"id":"node-12543084843","lat":22.9872441,"lon":120.1972058,"name":"未命名化妝品商店","decorType":"cosmetics"},{"id":"node-12543093486","lat":23.0026717,"lon":120.1605609,"name":"未命名餐廳","decorType":"restaurant"},{"id":"node-12543095314","lat":23.0001011,"lon":120.153813,"name":"未命名餐廳","decorType":"restaurant"},{"id":"node-12543095315","lat":23.0027049,"lon":120.1606847,"name":"未命名餐廳","decorType":"restaurant"},{"id":"node-12543100791","lat":23.0001202,"lon":120.1539123,"name":"未命名便利商店","decorType":"convenience"},{"id":"node-12543101909","lat":22.9881509,"lon":120.1996638,"name":"未命名餐廳","decorType":"restaurant"},{"id":"node-12543105352","lat":22.997667,"lon":120.1946548,"name":"北安美芝城","decorType":"restaurant"},{"id":"node-12543105764","lat":23.0002835,"lon":120.1537043,"name":"未命名餐廳","decorType":"restaurant"},{"id":"node-12543110413","lat":22.9885679,"lon":120.1919508,"name":"未命名餐廳","decorType":"restaurant"},{"id":"node-12543116026","lat":22.9885761,"lon":120.1976774,"name":"未命名化妝品商店","decorType":"cosmetics"},{"id":"node-12543116108","lat":22.9971764,"lon":120.194455,"name":"未命名咖啡廳","decorType":"cafe"},{"id":"node-12543116368","lat":22.9989976,"lon":120.1834793,"name":"未命名餐廳","decorType":"restaurant"},{"id":"node-12543120242","lat":22.9883957,"lon":120.19192,"name":"未命名化妝品商店","decorType":"cosmetics"},{"id":"node-12543121645","lat":22.9885433,"lon":120.1979226,"name":"未命名漢堡店","decorType":"burger"},{"id":"node-12543131279","lat":23.003178,"lon":120.2037037,"name":"未命名餐廳","decorType":"restaurant"},{"id":"node-12543133879","lat":22.9902849,"lon":120.1974568,"name":"阿財牛肉湯","decorType":"restaurant"},{"id":"node-12543151457","lat":23.0022675,"lon":120.2030194,"name":"未命名餐廳","decorType":"restaurant"},{"id":"node-12543152321","lat":22.992819,"lon":120.1989009,"name":"中正伊美","decorType":"cosmetics"},{"id":"node-12543157050","lat":22.9901201,"lon":120.1975349,"name":"未命名餐廳","decorType":"restaurant"},{"id":"node-12543162839","lat":22.9913454,"lon":120.1979518,"name":"未命名服飾店","decorType":"clothing"},{"id":"node-12543167548","lat":23.0169437,"lon":120.2093689,"name":"未命名餐廳","decorType":"restaurant"},{"id":"node-12543196355","lat":22.9911539,"lon":120.1724948,"name":"薩達印度蔬食料理餐館","decorType":"restaurant"},{"id":"node-12543216635","lat":22.989989,"lon":120.1746932,"name":"全聯福利中心","decorType":"supermarket"},{"id":"node-12543216921","lat":22.9929322,"lon":120.1672477,"name":"臺南育平郵局","decorType":"post_office"},{"id":"node-12543227356","lat":22.9910027,"lon":120.1739517,"name":"7-Eleven","decorType":"convenience"},{"id":"node-12556365163","lat":22.9917411,"lon":120.1577158,"name":"安平浪居","decorType":"hotel"},{"id":"node-12556365164","lat":22.9919016,"lon":120.1579376,"name":"林的家","decorType":"hotel"},{"id":"node-12556365165","lat":22.9915792,"lon":120.1572317,"name":"河畔暮光","decorType":"hotel"},{"id":"node-12556379631","lat":23.0247846,"lon":120.2288332,"name":"全家便利商店","decorType":"convenience"},{"id":"node-12557836592","lat":22.9953013,"lon":120.1952808,"name":"達煦23旅店 - Dash Hotel 23","decorType":"hotel"},{"id":"node-12557886808","lat":22.9893958,"lon":120.1930732,"name":"宜華蛋餅 台南大智店 Breakfast","decorType":"restaurant"},{"id":"node-12560952937","lat":22.9938017,"lon":120.2601004,"name":"7-Eleven","decorType":"convenience"},{"id":"node-12560952938","lat":22.9909904,"lon":120.2603801,"name":"仁德太子郵局","decorType":"post_office"},{"id":"node-12560952939","lat":22.9887663,"lon":120.2609697,"name":"全家便利商店","decorType":"convenience"},{"id":"node-12568522235","lat":22.9708091,"lon":120.2599372,"name":"康是美","decorType":"pharmacy"},{"id":"node-12568522250","lat":22.9684543,"lon":120.255925,"name":"全家便利商店","decorType":"convenience"},{"id":"node-12568522259","lat":22.9706389,"lon":120.2434436,"name":"7-Eleven","decorType":"convenience"},{"id":"node-12572843014","lat":23.0099162,"lon":120.2245929,"name":"漾媽咪","decorType":"restaurant"},{"id":"node-12574189205","lat":22.9730579,"lon":120.1847434,"name":"天鍋麻辣鴛鴦鍋新興店","decorType":"restaurant"},{"id":"node-12574189206","lat":22.9732456,"lon":120.1846227,"name":"碳佐麻里精品燒肉新興店","decorType":"restaurant"},{"id":"node-12577844246","lat":23.0136027,"lon":120.2129036,"name":"陽光果汁","decorType":"burger"},{"id":"node-12578103716","lat":22.9960312,"lon":120.2135996,"name":"華新電腦","decorType":"electronics"},{"id":"node-12578115991","lat":23.0134982,"lon":120.2124477,"name":"李記餃子館","decorType":"restaurant"},{"id":"node-12578116500","lat":23.0135098,"lon":120.213189,"name":"未命名餐廳","decorType":"restaurant"},{"id":"node-12578119107","lat":23.0135831,"lon":120.2129292,"name":"武廟蔡","decorType":"restaurant"},{"id":"node-12578131150","lat":23.0136865,"lon":120.2129003,"name":"QQ堡","decorType":"restaurant"},{"id":"node-12578134631","lat":23.0134382,"lon":120.2133092,"name":"未命名餐廳","decorType":"restaurant"},{"id":"node-12578134632","lat":23.0134313,"lon":120.2130876,"name":"未命名餐廳","decorType":"restaurant"},{"id":"node-12578134633","lat":23.0130912,"lon":120.2129772,"name":"嘉義火雞肉飯 長榮店","decorType":"restaurant"},{"id":"node-12578134634","lat":23.0127714,"lon":120.2159627,"name":"未命名餐廳","decorType":"restaurant"},{"id":"node-12578865959","lat":23.0781504,"lon":120.2213682,"name":"金安宮","decorType":"bus_stop"},{"id":"node-12578865960","lat":23.0784958,"lon":120.2211455,"name":"金安宮","decorType":"bus_stop"},{"id":"node-12578865961","lat":23.0801922,"lon":120.2191576,"name":"安定區南興國小","decorType":"bus_stop"},{"id":"node-12578865962","lat":23.0796288,"lon":120.2187696,"name":"安定區南興國小","decorType":"bus_stop"},{"id":"node-12578865963","lat":23.0787796,"lon":120.2123458,"name":"中沙里","decorType":"bus_stop"},{"id":"node-12578865964","lat":23.0785334,"lon":120.2125292,"name":"中沙里","decorType":"bus_stop"},{"id":"node-12578865965","lat":23.0784816,"lon":120.2092606,"name":"中沙里活動中心","decorType":"bus_stop"},{"id":"node-12578865966","lat":23.0783794,"lon":120.2091337,"name":"中沙里活動中心","decorType":"bus_stop"},{"id":"node-12578865972","lat":23.0683768,"lon":120.19289,"name":"安清","decorType":"bus_stop"},{"id":"node-12578865973","lat":23.0682155,"lon":120.19289,"name":"安清","decorType":"bus_stop"},{"id":"node-12578865974","lat":23.0680459,"lon":120.1787627,"name":"佃東神榕","decorType":"bus_stop"},{"id":"node-12578865975","lat":23.0678828,"lon":120.178778,"name":"佃東神榕","decorType":"bus_stop"},{"id":"node-12578865983","lat":23.0699224,"lon":120.1563936,"name":"溪南寮興安宮","decorType":"bus_stop"},{"id":"node-12587424987","lat":22.9953075,"lon":120.2292295,"name":"三多","decorType":"restaurant"},{"id":"node-12587460333","lat":22.9955192,"lon":120.2291391,"name":"甘津奉茶","decorType":"cafe"},{"id":"node-12587463310","lat":22.9955241,"lon":120.229105,"name":"白妞鹹酥雞","decorType":"restaurant"},{"id":"node-12587465383","lat":22.9955277,"lon":120.2290683,"name":"鼎福廣東粥","decorType":"restaurant"},{"id":"node-12587478753","lat":22.9952048,"lon":120.2167573,"name":"餃場","decorType":"restaurant"},{"id":"node-12587528347","lat":22.9951886,"lon":120.2168348,"name":"恩熹泡麵","decorType":"restaurant"},{"id":"node-12587529414","lat":22.9952094,"lon":120.2167066,"name":"暖食堂","decorType":"restaurant"},{"id":"node-12587572075","lat":22.994898,"lon":120.2119643,"name":"三井3C 台南北門店","decorType":"electronics"},{"id":"node-12589600548","lat":23.0001165,"lon":120.2278298,"name":"未命名餐廳","decorType":"restaurant"},{"id":"node-12589616180","lat":22.9994472,"lon":120.2283183,"name":"樸啄豆乳雞 光明總店","decorType":"burger"},{"id":"node-12589630244","lat":22.9992484,"lon":120.228116,"name":"未命名餐廳","decorType":"restaurant"},{"id":"node-12589633636","lat":22.9994418,"lon":120.2281038,"name":"素食法國麵包、越南河粉","decorType":"restaurant"},{"id":"node-12589633637","lat":22.9995017,"lon":120.2280557,"name":"未命名餐廳","decorType":"restaurant"},{"id":"node-12589633951","lat":23.0000626,"lon":120.228005,"name":"茶的魔手","decorType":"cafe"},{"id":"node-12589636363","lat":22.9994073,"lon":120.2283404,"name":"心悅","decorType":"hair_salon"},{"id":"node-12589642701","lat":22.9992864,"lon":120.2281114,"name":"未命名餐廳","decorType":"restaurant"},{"id":"node-12589645567","lat":22.9999671,"lon":120.22839,"name":"未命名餐廳","decorType":"restaurant"},{"id":"node-12589647220","lat":22.9999171,"lon":120.2285662,"name":"你我家水餃麵館","decorType":"restaurant"},{"id":"node-12589669997","lat":22.9898532,"lon":120.1667561,"name":"歐薇汽車旅館","decorType":"hotel"},{"id":"node-12589669998","lat":22.9923905,"lon":120.1645536,"name":"3皇3家","decorType":"restaurant"},{"id":"node-12590234285","lat":22.9595335,"lon":120.2274382,"name":"萊爾富","decorType":"convenience"},{"id":"node-12590237213","lat":22.937841,"lon":120.2478519,"name":"7-Eleven","decorType":"convenience"},{"id":"node-12590237256","lat":22.9541382,"lon":120.2502543,"name":"7-Eleven","decorType":"convenience"},{"id":"node-12590237257","lat":22.9550405,"lon":120.2526834,"name":"7-Eleven","decorType":"convenience"},{"id":"node-12591876268","lat":23.0129535,"lon":120.2173381,"name":"未命名咖啡廳","decorType":"cafe"},{"id":"node-12591936280","lat":23.0130812,"lon":120.2130208,"name":"未命名美髮院","decorType":"hair_salon"},{"id":"node-12591959097","lat":23.0130638,"lon":120.2132796,"name":"唯芯髮式","decorType":"hair_salon"},{"id":"node-12591969726","lat":22.9485216,"lon":120.2521194,"name":"全家便利商店","decorType":"convenience"},{"id":"node-12591969791","lat":22.9466799,"lon":120.255028,"name":"美廉社","decorType":"supermarket"},{"id":"node-12592632930","lat":23.0047655,"lon":120.2106058,"name":"未命名美髮院","decorType":"hair_salon"},{"id":"node-12592635654","lat":23.0129598,"lon":120.217464,"name":"未命名餐廳","decorType":"restaurant"},{"id":"node-12592650240","lat":23.0115924,"lon":120.2109761,"name":"可不可熟成紅茶","decorType":"cafe"},{"id":"node-12594169083","lat":22.9994078,"lon":120.1991273,"name":"和勝堂","decorType":"shrine"},{"id":"node-12594474504","lat":23.017158,"lon":120.2059137,"name":"樂禾田","decorType":"restaurant"},{"id":"node-12594496548","lat":23.0153721,"lon":120.2103436,"name":"未命名餐廳","decorType":"restaurant"},{"id":"node-12594541934","lat":23.0171249,"lon":120.2060542,"name":"未命名餐廳","decorType":"restaurant"},{"id":"node-12594544006","lat":23.0154087,"lon":120.2103659,"name":"未命名餐廳","decorType":"restaurant"},{"id":"node-12594545494","lat":23.0168101,"lon":120.2068453,"name":"未命名美髮院","decorType":"hair_salon"},{"id":"node-12594549623","lat":23.0171642,"lon":120.2057936,"name":"未命名美髮院","decorType":"hair_salon"},{"id":"node-12594550651","lat":23.0135775,"lon":120.2123364,"name":"未命名美髮院","decorType":"hair_salon"},{"id":"node-12594551489","lat":23.0170732,"lon":120.2075623,"name":"未命名美髮院","decorType":"hair_salon"},{"id":"node-12594551499","lat":23.0128597,"lon":120.2155058,"name":"小北百貨","decorType":"hardware"},{"id":"node-12597749365","lat":22.9192416,"lon":120.229467,"name":"7-Eleven","decorType":"convenience"},{"id":"node-12598043287","lat":23.0113068,"lon":120.1940786,"name":"大樹藥局","decorType":"pharmacy"},{"id":"node-12598085682","lat":22.9925949,"lon":120.1944572,"name":"南興鱔魚意麵","decorType":"restaurant"},{"id":"node-12599683703","lat":23.0104394,"lon":120.2229172,"name":"未命名漢堡店","decorType":"burger"},{"id":"node-12605629348","lat":22.995723,"lon":120.1964172,"name":"吸粉堂過橋米粉","decorType":"restaurant"},{"id":"node-12605629353","lat":22.9982444,"lon":120.1751676,"name":"吸粉堂過橋米粉","decorType":"restaurant"},{"id":"node-12606016547","lat":22.918097,"lon":120.2245956,"name":"全家便利商店","decorType":"convenience"},{"id":"node-12606565142","lat":22.9951829,"lon":120.2068088,"name":"麻古茶坊","decorType":"cafe"},{"id":"node-12606567929","lat":22.9930468,"lon":120.2046573,"name":"未命名服飾店","decorType":"clothing"},{"id":"node-12606706827","lat":22.9840727,"lon":120.2041482,"name":"未命名餐廳","decorType":"restaurant"},{"id":"node-12607196284","lat":23.0168015,"lon":120.2608729,"name":"永康區衛生所","decorType":"bus_stop"},{"id":"node-12607196290","lat":23.0325158,"lon":120.1398061,"name":"紅樹林社區","decorType":"bus_stop"},{"id":"node-12607196292","lat":23.0323872,"lon":120.139566,"name":"紅樹林社區","decorType":"bus_stop"},{"id":"node-12607196296","lat":23.0167665,"lon":120.2613283,"name":"永康區衛生所","decorType":"bus_stop"},{"id":"node-12607196299","lat":23.0185674,"lon":120.2599172,"name":"永康區社教中心","decorType":"bus_stop"},{"id":"node-12607196300","lat":23.0186387,"lon":120.2608161,"name":"永康區社教中心","decorType":"bus_stop"},{"id":"node-12609002317","lat":23.0090129,"lon":120.2210625,"name":"未命名漢堡店","decorType":"burger"},{"id":"node-12615575663","lat":22.9971371,"lon":120.2049015,"name":"未命名美髮院","decorType":"hair_salon"},{"id":"node-12615623677","lat":22.9972105,"lon":120.2047277,"name":"未命名美髮院","decorType":"hair_salon"},{"id":"node-12615626405","lat":22.9969351,"lon":120.2044476,"name":"有樂食堂","decorType":"restaurant"},{"id":"node-12615630518","lat":22.9964712,"lon":120.2053825,"name":"未命名美髮院","decorType":"hair_salon"},{"id":"node-12615630520","lat":22.9970829,"lon":120.2052471,"name":"未命名咖啡廳","decorType":"cafe"},{"id":"node-12615631736","lat":22.9966563,"lon":120.205686,"name":"未命名餐廳","decorType":"restaurant"},{"id":"node-12615634703","lat":22.9969689,"lon":120.2055722,"name":"未命名咖啡廳","decorType":"cafe"},{"id":"node-12615634860","lat":22.9969862,"lon":120.2044671,"name":"未命名服飾店","decorType":"clothing"},{"id":"node-12615697832","lat":22.9970104,"lon":120.2049085,"name":"未命名餐廳","decorType":"restaurant"},{"id":"node-12615699608","lat":22.9968097,"lon":120.2059317,"name":"未命名甜點店","decorType":"sweetshop"},{"id":"node-12617494860","lat":22.9864051,"lon":120.2224572,"name":"未命名電器行","decorType":"electronics"},{"id":"node-12617505009","lat":22.9911989,"lon":120.2238553,"name":"未命名服飾店","decorType":"clothing"},{"id":"node-12617522975","lat":22.9776297,"lon":120.2198422,"name":"未命名藥局","decorType":"pharmacy"},{"id":"node-12617524618","lat":22.977676,"lon":120.2197941,"name":"未命名自主洗衣店&乾洗店","decorType":"laundry"},{"id":"node-12617533386","lat":22.9756318,"lon":120.2221809,"name":"Jam Kitchen","decorType":"restaurant"},{"id":"node-12617538066","lat":22.9818834,"lon":120.2159471,"name":"未命名電器行","decorType":"electronics"},{"id":"node-12617549195","lat":22.9758087,"lon":120.2220149,"name":"未命名服飾店","decorType":"clothing"},{"id":"node-12617562537","lat":22.9866532,"lon":120.2190984,"name":"萬成鮮魚湯","decorType":"restaurant"},{"id":"node-12617564590","lat":23.0047186,"lon":120.2227373,"name":"未命名餐廳","decorType":"restaurant"},{"id":"node-12617570587","lat":22.9751913,"lon":120.2221394,"name":"未命名餐廳","decorType":"restaurant"},{"id":"node-12617573941","lat":23.0063195,"lon":120.2219103,"name":"未命名美髮院","decorType":"hair_salon"},{"id":"node-12617577120","lat":22.9843413,"lon":120.2181796,"name":"未命名服飾店","decorType":"clothing"},{"id":"node-12617581490","lat":22.9907131,"lon":120.2211682,"name":"未命名咖啡廳","decorType":"cafe"},{"id":"node-12617582502","lat":22.9898739,"lon":120.2204366,"name":"未命名美髮院","decorType":"hair_salon"},{"id":"node-12617912674","lat":22.9977842,"lon":120.2283261,"name":"未命名餐廳","decorType":"restaurant"},{"id":"node-12617951995","lat":22.9985741,"lon":120.2282351,"name":"未命名餐廳","decorType":"restaurant"},{"id":"node-12617962546","lat":22.9978276,"lon":120.2283219,"name":"府川食堂","decorType":"restaurant"},{"id":"node-12619869456","lat":23.0040344,"lon":120.2189311,"name":"白巷子","decorType":"cafe"},{"id":"node-12619987765","lat":22.9955111,"lon":120.2164529,"name":"未命名餐廳","decorType":"restaurant"},{"id":"node-12619993397","lat":23.0050051,"lon":120.2158012,"name":"未命名飯店","decorType":"hotel"},{"id":"node-12619994218","lat":23.0067209,"lon":120.2181158,"name":"未命名咖啡廳","decorType":"cafe"},{"id":"node-12622796979","lat":22.9758227,"lon":120.2379855,"name":"東哥牛肉涮涮鍋","decorType":"restaurant"},{"id":"node-12622796980","lat":22.9757837,"lon":120.2380828,"name":"Joyfull珍有福","decorType":"restaurant"},{"id":"node-12622796989","lat":22.9757255,"lon":120.2381702,"name":"薩圖爾精品咖啡","decorType":"cafe"},{"id":"node-12625951264","lat":22.9979997,"lon":120.2165723,"name":"成功大學藝術中心","decorType":"art_gallery"},{"id":"node-12625951297","lat":22.9992645,"lon":120.2186677,"name":"The Pool NCKU","decorType":"cafe"},{"id":"node-12625954563","lat":23.0019623,"lon":120.2183607,"name":"成大醫院免費接駁車","decorType":"bus_stop"},{"id":"node-12627823734","lat":23.0091764,"lon":120.2236339,"name":"未命名藥局","decorType":"pharmacy"},{"id":"node-12627824714","lat":23.0091996,"lon":120.2236661,"name":"未命名美髮院","decorType":"hair_salon"},{"id":"node-12627828724","lat":23.0092184,"lon":120.2236075,"name":"未命名餐廳","decorType":"restaurant"},{"id":"node-12629737856","lat":22.9984083,"lon":120.2548695,"name":"7-Eleven","decorType":"convenience"},{"id":"node-12629851331","lat":23.0027382,"lon":120.2249766,"name":"迷客夏","decorType":"cafe"},{"id":"node-12629906082","lat":22.9995455,"lon":120.2549208,"name":"未命名電器行","decorType":"electronics"},{"id":"node-12629912270","lat":22.9992352,"lon":120.2308064,"name":"未命名餐廳","decorType":"restaurant"},{"id":"node-12632053722","lat":23.0058172,"lon":120.2218995,"name":"第二碗","decorType":"restaurant"},{"id":"node-12633232365","lat":22.9814381,"lon":120.2095424,"name":"全家便利商店","decorType":"convenience"},{"id":"node-12633254576","lat":22.9814774,"lon":120.2089583,"name":"未命名餐廳","decorType":"restaurant"},{"id":"node-12633322546","lat":22.981183,"lon":120.2072423,"name":"未命名餐廳","decorType":"restaurant"},{"id":"node-12633327528","lat":22.9814497,"lon":120.2069981,"name":"Nice Box 手機配件","decorType":"electronics"},{"id":"node-12637884622","lat":22.9957374,"lon":120.2269934,"name":"大福樂","decorType":"restaurant"},{"id":"node-12637926153","lat":22.9919998,"lon":120.217908,"name":"老江紅茶牛奶","decorType":"cafe"},{"id":"node-12637933962","lat":22.9895057,"lon":120.2181793,"name":"未命名餐廳","decorType":"restaurant"},{"id":"node-12639952615","lat":22.8742514,"lon":120.1919063,"name":"德南","decorType":"restaurant"},{"id":"node-12643082135","lat":23.0138063,"lon":120.2062546,"name":"未命名自主洗衣店&乾洗店","decorType":"laundry"},{"id":"node-12643090907","lat":23.0141044,"lon":120.2053264,"name":"未命名化妝品商店","decorType":"cosmetics"},{"id":"node-12643128525","lat":23.0141128,"lon":120.2056492,"name":"樂檸漢堡","decorType":"burger"},{"id":"node-12644503292","lat":23.0038781,"lon":120.2186921,"name":"未命名餐廳","decorType":"restaurant"},{"id":"node-12644607769","lat":23.0035565,"lon":120.2189047,"name":"未命名漢堡店","decorType":"burger"},{"id":"node-12644649663","lat":23.0035531,"lon":120.2189729,"name":"未命名餐廳","decorType":"restaurant"},{"id":"node-12644660555","lat":23.0042534,"lon":120.2189487,"name":"Everyday Cafe 台南勝利店","decorType":"cafe"},{"id":"node-12644660634","lat":23.0041285,"lon":120.2187181,"name":"拉亞漢堡","decorType":"burger"},{"id":"node-12645270097","lat":22.9771708,"lon":120.2033378,"name":"未命名公園","decorType":"park"},{"id":"node-12645598726","lat":22.9676175,"lon":120.1859182,"name":"康是美","decorType":"pharmacy"},{"id":"node-12645598727","lat":22.9676126,"lon":120.1857559,"name":"星巴克","decorType":"cafe"},{"id":"node-12645598728","lat":22.9676175,"lon":120.1856071,"name":"7-Eleven","decorType":"convenience"},{"id":"node-12646798436","lat":22.9922178,"lon":120.2177369,"name":"未命名咖啡廳","decorType":"cafe"},{"id":"node-12646974690","lat":22.9874419,"lon":120.2308325,"name":"鮨次郎壽司專賣","decorType":"restaurant"},{"id":"node-12647068065","lat":22.9866952,"lon":120.2292087,"name":"7-Eleven","decorType":"convenience"},{"id":"node-12647112934","lat":22.98675,"lon":120.2292924,"name":"未命名咖啡廳","decorType":"cafe"},{"id":"node-12647146754","lat":22.9902834,"lon":120.227716,"name":"未命名電器行","decorType":"electronics"},{"id":"node-12647373028","lat":23.0100917,"lon":120.212975,"name":"未命名甜點店","decorType":"sweetshop"},{"id":"node-12647381314","lat":23.0101404,"lon":120.2128412,"name":"未命名美髮院","decorType":"hair_salon"},{"id":"node-12649891848","lat":23.0070269,"lon":120.2196954,"name":"未命名藥局","decorType":"pharmacy"},{"id":"node-12652035673","lat":22.9814971,"lon":120.2064335,"name":"寶雅","decorType":"pharmacy"},{"id":"node-12657824440","lat":23.0089628,"lon":120.2232631,"name":"日藥本舖","decorType":"pharmacy"},{"id":"node-12657834964","lat":23.0090109,"lon":120.2233429,"name":"華園燒臘快餐","decorType":"restaurant"},{"id":"node-12657840220","lat":23.0086909,"lon":120.2234211,"name":"未命名餐廳","decorType":"restaurant"},{"id":"node-12657858675","lat":23.009058,"lon":120.2229197,"name":"未命名餐廳","decorType":"restaurant"},{"id":"node-12657881430","lat":23.0090258,"lon":120.2228799,"name":"華泰藥局","decorType":"pharmacy"},{"id":"node-12662491251","lat":23.0150752,"lon":120.2249848,"name":"東家牛肉麵","decorType":"restaurant"},{"id":"node-12662542577","lat":23.0182017,"lon":120.2264649,"name":"未命名超市","decorType":"supermarket"},{"id":"node-12662545547","lat":23.0182406,"lon":120.2263998,"name":"未命名餐廳","decorType":"restaurant"},{"id":"node-12662585098","lat":23.0199318,"lon":120.2223874,"name":"未命名漢堡店","decorType":"burger"},{"id":"node-12662585494","lat":23.0210093,"lon":120.2212116,"name":"未命名藥局","decorType":"pharmacy"},{"id":"node-12662594000","lat":23.0200993,"lon":120.2223143,"name":"杏一醫療用品","decorType":"pharmacy"},