{"bbox":{"south":23.303125,"north":23.525,"west":120.13125,"east":120.2625},"pois":[{"id":"node-10004204547","lat":23.3832438,"lon":120.1707025,"name":"安南府","decorType":"shrine"},{"id":"node-10072701163","lat":23.33683,"lon":120.2456716,"name":"美廉社","decorType":"supermarket"},{"id":"node-10072701164","lat":23.3368359,"lon":120.244357,"name":"美廉社","decorType":"supermarket"},{"id":"node-10072701165","lat":23.3365224,"lon":120.2424554,"name":"7-Eleven","decorType":"convenience"},{"id":"node-10072701166","lat":23.3374814,"lon":120.2444911,"name":"7-Eleven","decorType":"convenience"},{"id":"node-10101256162","lat":23.4613855,"lon":120.2423061,"name":"全家便利商店","decorType":"convenience"},{"id":"node-10103451744","lat":23.5124471,"lon":120.2278206,"name":"頂蔦松天保宮","decorType":"shrine"},{"id":"node-10103451745","lat":23.5147966,"lon":120.2284651,"name":"頂蔦松天后宮","decorType":"shrine"},{"id":"node-10218071469","lat":23.4659449,"lon":120.2432361,"name":"蝦皮店到店","decorType":"convenience"},{"id":"node-10807787505","lat":23.3264906,"lon":120.19698,"name":"蝦蝦公主民宿","decorType":"hotel"},{"id":"node-11580692125","lat":23.46457,"lon":120.1704212,"name":"英語娘娘廟","decorType":"shrine"},{"id":"node-12124076198","lat":23.4224237,"lon":120.1534929,"name":"白水湖九龍江廟","decorType":"shrine"},{"id":"node-12124076199","lat":23.4224761,"lon":120.1539165,"name":"瑞鋒商店","decorType":"convenience"},{"id":"node-12124081612","lat":23.4212236,"lon":120.1574122,"name":"白水湖奉安宮-劉府元帥","decorType":"shrine"},{"id":"node-12124385842","lat":23.4066886,"lon":120.1511324,"name":"白水湖壽島特色郵筒-養蚵夫婦","decorType":"post_office"},{"id":"node-12124415475","lat":23.4172487,"lon":120.1559887,"name":"白水湖大眾爺廟","decorType":"shrine"},{"id":"node-12127008629","lat":23.4184286,"lon":120.1838371,"name":"過溝豆花","decorType":"restaurant"},{"id":"node-12265551674","lat":23.3041085,"lon":120.1580814,"name":"北馬","decorType":"bus_stop"},{"id":"node-12466397426","lat":23.4640931,"lon":120.2416782,"name":"肯德基","decorType":"burger"},{"id":"node-12509224053","lat":23.4166333,"lon":120.1805288,"name":"過溝建德宮","decorType":"shrine"},{"id":"node-12509224054","lat":23.4162911,"lon":120.181105,"name":"陳皮小吃館","decorType":"restaurant"},{"id":"node-12509224065","lat":23.4175857,"lon":120.1783859,"name":"故鄉自助餐","decorType":"burger"},{"id":"node-12537834400","lat":23.4595749,"lon":120.2428855,"name":"7-Eleven","decorType":"convenience"},{"id":"node-12537865419","lat":23.4672555,"lon":120.2446269,"name":"美廉社","decorType":"supermarket"},{"id":"node-12583405949","lat":23.520085,"lon":120.230676,"name":"萊爾富","decorType":"convenience"},{"id":"node-12608947132","lat":23.4653487,"lon":120.2404745,"name":"未命名公車站","decorType":"bus_stop"},{"id":"node-12608949359","lat":23.4653501,"lon":120.2419899,"name":"猴子想吃鬆餅","decorType":"restaurant"},{"id":"node-12608967695","lat":23.4655255,"lon":120.2421185,"name":"未命名郵局","decorType":"post_office"},{"id":"node-12609426641","lat":23.4170473,"lon":120.1816409,"name":"龍德宮","decorType":"shrine"},{"id":"node-12630072501","lat":23.4626965,"lon":120.2453207,"name":"牛脾氣排餐館","decorType":"restaurant"},{"id":"node-12644711701","lat":23.3723111,"lon":120.1850642,"name":"阿惠美髮屋","decorType":"hair_salon"},{"id":"node-12727159701","lat":23.3822463,"lon":120.1939485,"name":"古早味肉碟","decorType":"restaurant"},{"id":"node-12756793701","lat":23.377706,"lon":120.1897158,"name":"阿嬤ㄟ肉碟","decorType":"restaurant"},{"id":"node-12772303501","lat":23.3790271,"lon":120.1614627,"name":"上裕大賣場","decorType":"hardware"},{"id":"node-12853817187","lat":23.3779255,"lon":120.1647328,"name":"全聯福利中心","decorType":"supermarket"},{"id":"node-12960486827","lat":23.3779156,"lon":120.1579836,"name":"布袋郵局","decorType":"post_office"},{"id":"node-12960486828","lat":23.42023,"lon":120.1821797,"name":"布袋過溝郵局","decorType":"post_office"},{"id":"node-12960486829","lat":23.3740435,"lon":120.1847759,"name":"布袋大寮郵局","decorType":"post_office"},{"id":"node-12960486830","lat":23.3244644,"lon":120.1620889,"name":"布袋新塭郵局","decorType":"post_office"},{"id":"node-12960486831","lat":23.3371585,"lon":120.2434036,"name":"義竹郵局","decorType":"post_office"},{"id":"node-13011563201","lat":23.466289,"lon":120.2530426,"name":"細花韓式烤肉","decorType":"restaurant"},{"id":"node-13077773496","lat":23.5133333,"lon":120.2287757,"name":"萊爾富","decorType":"convenience"},{"id":"node-13252364446","lat":23.4712337,"lon":120.1730034,"name":"萊爾富","decorType":"convenience"},{"id":"node-13252364447","lat":23.4877211,"lon":120.1994699,"name":"萊爾富","decorType":"convenience"},{"id":"node-1678908429","lat":23.3089763,"lon":120.2491031,"name":"未命名神社","decorType":"shrine"},{"id":"node-1678908526","lat":23.3206069,"lon":120.2443424,"name":"護濟宮","decorType":"shrine"},{"id":"node-1678908531","lat":23.3274736,"lon":120.2549096,"name":"中軍府","decorType":"shrine"},{"id":"node-1945681178","lat":23.3042726,"lon":120.1581592,"name":"太興宮","decorType":"shrine"},{"id":"node-2092579553","lat":23.3245615,"lon":120.2609227,"name":"岸內","decorType":"bus_stop"},{"id":"node-2423110536","lat":23.378834,"lon":120.1381949,"name":"布袋港","decorType":"station"},{"id":"node-2613441684","lat":23.4696383,"lon":120.2476304,"name":"自然豬小排飯","decorType":"restaurant"},{"id":"node-2613500392","lat":23.4654152,"lon":120.2443391,"name":"朴子市場","decorType":"bus_stop"},{"id":"node-2613510798","lat":23.4653314,"lon":120.2444145,"name":"朴子市場","decorType":"bus_stop"},{"id":"node-2613510800","lat":23.466629,"lon":120.2451173,"name":"真好味鴨肉飯","decorType":"restaurant"},{"id":"node-2808503526","lat":23.4558126,"lon":120.1505609,"name":"東石郵局","decorType":"post_office"},{"id":"node-2821099775","lat":23.5075845,"lon":120.1478598,"name":"鰲鼓溼地保護區","decorType":"waterside"},{"id":"node-2822062402","lat":23.4526268,"lon":120.1380311,"name":"良江海產小吃","decorType":"restaurant"},{"id":"node-3071985318","lat":23.4576495,"lon":120.1519342,"name":"全家便利商店","decorType":"convenience"},{"id":"node-3071985319","lat":23.4582327,"lon":120.1521756,"name":"萊爾富","decorType":"convenience"},{"id":"node-3073018477","lat":23.3031588,"lon":120.2574948,"name":"舊營","decorType":"bus_stop"},{"id":"node-3090561146","lat":23.3097321,"lon":120.2521595,"name":"後寮","decorType":"bus_stop"},{"id":"node-3090561147","lat":23.3099314,"lon":120.2523714,"name":"後寮","decorType":"bus_stop"},{"id":"node-3090561149","lat":23.303168,"lon":120.2349252,"name":"番子寮","decorType":"bus_stop"},{"id":"node-3091950920","lat":23.3180915,"lon":120.239131,"name":"下中福王宮","decorType":"bus_stop"},{"id":"node-3091950921","lat":23.3237174,"lon":120.2511655,"name":"二莊","decorType":"bus_stop"},{"id":"node-3091950922","lat":23.3236469,"lon":120.2509647,"name":"二莊","decorType":"bus_stop"},{"id":"node-3091950924","lat":23.3246548,"lon":120.2610141,"name":"岸內","decorType":"bus_stop"},{"id":"node-3091950925","lat":23.3203889,"lon":120.2442344,"name":"樹仔腳","decorType":"bus_stop"},{"id":"node-3091950926","lat":23.3204916,"lon":120.2443358,"name":"樹仔腳","decorType":"bus_stop"},{"id":"node-3091950929","lat":23.3256496,"lon":120.2550855,"name":"牛稠仔","decorType":"bus_stop"},{"id":"node-3091950930","lat":23.3256829,"lon":120.2548542,"name":"牛稠仔","decorType":"bus_stop"},{"id":"node-3091950931","lat":23.3251741,"lon":120.2578326,"name":"義中里","decorType":"bus_stop"},{"id":"node-3091950932","lat":23.3252318,"lon":120.2581553,"name":"義中里","decorType":"bus_stop"},{"id":"node-3691859022","lat":23.4652999,"lon":120.2613,"name":"大槺榔","decorType":"bus_stop"},{"id":"node-3691859024","lat":23.46501,"lon":120.2508196,"name":"東石國中站(BRT)","decorType":"bus_stop"},{"id":"node-3691859425","lat":23.4666171,"lon":120.2530594,"name":"東石國中(BRT)","decorType":"bus_stop"},{"id":"node-3691859426","lat":23.4589773,"lon":120.2484143,"name":"朴子轉運站","decorType":"bus_stop"},{"id":"node-3691859427","lat":23.4589458,"lon":120.2485018,"name":"朴子轉運站","decorType":"bus_stop"},{"id":"node-4004280233","lat":23.3788553,"lon":120.1609796,"name":"全家便利商店","decorType":"convenience"},{"id":"node-4004280237","lat":23.3798344,"lon":120.1548213,"name":"尚品海鮮餐廳","decorType":"restaurant"},{"id":"node-4004280238","lat":23.3791185,"lon":120.1584904,"name":"東宮廟","decorType":"shrine"},{"id":"node-4004280241","lat":23.3798721,"lon":120.1507282,"name":"海中鱻餐廳","decorType":"restaurant"},{"id":"node-4004280243","lat":23.3789281,"lon":120.1597254,"name":"涔苑冷飲","decorType":"cafe"},{"id":"node-4004284092","lat":23.3788733,"lon":120.1607136,"name":"茶的魔手","decorType":"cafe"},{"id":"node-4004284093","lat":23.3790057,"lon":120.1594718,"name":"阿惠自助餐便當","decorType":"restaurant"},{"id":"node-4004284094","lat":23.3798418,"lon":120.1540951,"name":"霸味薑母鴨","decorType":"restaurant"},{"id":"node-4004284096","lat":23.3788624,"lon":120.160333,"name":"鮮茶道","decorType":"cafe"},{"id":"node-4004284097","lat":23.3795985,"lon":120.154487,"name":"黑皮海鮮餐廳","decorType":"restaurant"},{"id":"node-4004284098","lat":23.3795985,"lon":120.1542929,"name":"龍彬海鮮餐廳","decorType":"restaurant"},{"id":"node-4004284099","lat":23.3796142,"lon":120.154863,"name":"7-Eleven","decorType":"convenience"},{"id":"node-4007612022","lat":23.4151141,"lon":120.1780996,"name":"過溝派出所","decorType":"bus_stop"},{"id":"node-4007612023","lat":23.4152672,"lon":120.1779843,"name":"過溝派出所","decorType":"bus_stop"},{"id":"node-4007612109","lat":23.4574892,"lon":120.1857063,"name":"洲子","decorType":"bus_stop"},{"id":"node-4007612111","lat":23.4577389,"lon":120.1855101,"name":"洲子","decorType":"bus_stop"},{"id":"node-4007612128","lat":23.417429,"lon":120.1787422,"name":"7-Eleven","decorType":"convenience"},{"id":"node-4007612129","lat":23.4598166,"lon":120.1734876,"name":"7-Eleven","decorType":"convenience"},{"id":"node-4019357906","lat":23.3343109,"lon":120.2488812,"name":"厚生橋","decorType":"bus_stop"},{"id":"node-4019357909","lat":23.3345909,"lon":120.2489448,"name":"厚生橋","decorType":"bus_stop"},{"id":"node-4019357913","lat":23.336525,"lon":120.2465215,"name":"義竹國小","decorType":"bus_stop"},{"id":"node-4019357914","lat":23.3379741,"lon":120.2476448,"name":"活動中心","decorType":"bus_stop"},{"id":"node-4019357915","lat":23.3381356,"lon":120.2475395,"name":"活動中心","decorType":"bus_stop"},{"id":"node-4019357916","lat":23.3396325,"lon":120.2501014,"name":"義竹加油站","decorType":"bus_stop"},{"id":"node-4019357917","lat":23.340306,"lon":120.2508682,"name":"義竹國中","decorType":"bus_stop"},{"id":"node-4019357918","lat":23.3405043,"lon":120.2513098,"name":"義竹國中","decorType":"bus_stop"},{"id":"node-4019357919","lat":23.3482148,"lon":120.2555549,"name":"角帶圍","decorType":"bus_stop"},{"id":"node-4019357920","lat":23.3481016,"lon":120.2558132,"name":"角帶圍","decorType":"bus_stop"},{"id":"node-4019357934","lat":23.362138,"lon":120.2515608,"name":"新庄","decorType":"bus_stop"},{"id":"node-4019357935","lat":23.3694008,"lon":120.2491128,"name":"農場口","decorType":"bus_stop"},{"id":"node-4019357936","lat":23.369382,"lon":120.2493722,"name":"農場口","decorType":"bus_stop"},{"id":"node-4019357937","lat":23.3777538,"lon":120.2468443,"name":"東後寮","decorType":"bus_stop"},{"id":"node-4019357938","lat":23.3905335,"lon":120.2456378,"name":"南溪洲","decorType":"bus_stop"},{"id":"node-4019357939","lat":23.390669,"lon":120.2453909,"name":"南溪洲","decorType":"bus_stop"},{"id":"node-4019357944","lat":23.3938559,"lon":120.2451277,"name":"溪洲","decorType":"bus_stop"},{"id":"node-4019357945","lat":23.3939599,"lon":120.24534,"name":"溪洲","decorType":"bus_stop"},{"id":"node-4019357962","lat":23.4241,"lon":120.2477122,"name":"竹仔腳","decorType":"bus_stop"},{"id":"node-4019357963","lat":23.4242713,"lon":120.2475281,"name":"竹仔腳","decorType":"bus_stop"},{"id":"node-4019357982","lat":23.43301,"lon":120.2466956,"name":"鴨母寮","decorType":"bus_stop"},{"id":"node-4019357983","lat":23.4330517,"lon":120.2469567,"name":"鴨母寮","decorType":"bus_stop"},{"id":"node-4019357985","lat":23.4391484,"lon":120.2461333,"name":"朴子工業區","decorType":"bus_stop"},{"id":"node-4019357986","lat":23.4394262,"lon":120.2458404,"name":"朴子工業區","decorType":"bus_stop"},{"id":"node-4019358883","lat":23.4608461,"lon":120.2424332,"name":"朴子加油站","decorType":"bus_stop"},{"id":"node-4019358892","lat":23.465272,"lon":120.2599467,"name":"大鄉里","decorType":"bus_stop"},{"id":"node-4019358898","lat":23.4659095,"lon":120.2557827,"name":"天星新村","decorType":"bus_stop"},{"id":"node-4019358899","lat":23.4662344,"lon":120.2556496,"name":"天星新村","decorType":"bus_stop"},{"id":"node-4019358900","lat":23.4666249,"lon":120.2513549,"name":"東石國中","decorType":"bus_stop"},{"id":"node-4019358902","lat":23.4670845,"lon":120.249593,"name":"水道頭","decorType":"bus_stop"},{"id":"node-4019358903","lat":23.4668975,"lon":120.249493,"name":"水道頭","decorType":"bus_stop"},{"id":"node-4019358905","lat":23.4143467,"lon":120.2470593,"name":"萊爾富","decorType":"convenience"},{"id":"node-4019358907","lat":23.4611914,"lon":120.2425238,"name":"85度C","decorType":"cafe"},{"id":"node-4117174354","lat":23.4640517,"lon":120.2449963,"name":"虎兒油飯","decorType":"restaurant"},{"id":"node-4117174355","lat":23.4640257,"lon":120.2449361,"name":"顧家雙胞胎","decorType":"restaurant"},{"id":"node-4340727091","lat":23.4583505,"lon":120.1492954,"name":"未命名餐廳","decorType":"restaurant"},{"id":"node-4346246801","lat":23.462596,"lon":120.21614,"name":"港墘蚵嗲","decorType":"restaurant"},{"id":"node-4432491989","lat":23.4622468,"lon":120.2414248,"name":"麥當勞","decorType":"burger"},{"id":"node-4439819293","lat":23.4586149,"lon":120.2430677,"name":"朴仔腳海鮮炭烤","decorType":"restaurant"},{"id":"node-4441427490","lat":23.4628117,"lon":120.2366589,"name":"睿皇休閒住宿館","decorType":"hotel"},{"id":"node-4524193089","lat":23.4582499,"lon":120.1526107,"name":"吳氏蚵捲","decorType":"restaurant"},{"id":"node-4553168208","lat":23.4745064,"lon":120.1523117,"name":"福安宮","decorType":"shrine"},{"id":"node-4663253098","lat":23.4638239,"lon":120.2459483,"name":"福州麵館","decorType":"restaurant"},{"id":"node-4663253792","lat":23.4665191,"lon":120.2443245,"name":"永豐春捲","decorType":"restaurant"},{"id":"node-4663254392","lat":23.4664607,"lon":120.2443817,"name":"麻糬凍","decorType":"restaurant"},{"id":"node-4664930372","lat":23.4708363,"lon":120.1728267,"name":"玉花小吃部","decorType":"restaurant"},{"id":"node-4754568613","lat":23.4654951,"lon":120.2454874,"name":"清木屋","decorType":"cafe"},{"id":"node-4855731338","lat":23.4667337,"lon":120.2527917,"name":"未命名神社","decorType":"shrine"},{"id":"node-4855731340","lat":23.4666039,"lon":120.2572816,"name":"聖善寺","decorType":"shrine"},{"id":"node-4891137365","lat":23.4384,"lon":120.175,"name":"塭仔村圓明寺","decorType":"shrine"},{"id":"node-5372064113","lat":23.4183455,"lon":120.18428,"name":"城隍廟","decorType":"shrine"},{"id":"node-5524464307","lat":23.4881795,"lon":120.1994411,"name":"未命名神社","decorType":"shrine"},{"id":"node-5589540907","lat":23.4646082,"lon":120.235282,"name":"春秋武廟","decorType":"shrine"},{"id":"node-5655597160","lat":23.4582313,"lon":120.2624594,"name":"大槺榔開基祖廟","decorType":"shrine"},{"id":"node-5662465103","lat":23.4647565,"lon":120.2439718,"name":"高明寺","decorType":"shrine"},{"id":"node-5662465108","lat":23.4640133,"lon":120.2460853,"name":"朴子自製外省麵","decorType":"restaurant"},{"id":"node-5662465109","lat":23.4638041,"lon":120.2455184,"name":"必勝客","decorType":"restaurant"},{"id":"node-5662465110","lat":23.4665873,"lon":120.2463236,"name":"拿坡里","decorType":"restaurant"},{"id":"node-5662466239","lat":23.4638345,"lon":120.2431137,"name":"青田寺","decorType":"shrine"},{"id":"node-5662866401","lat":23.4663192,"lon":120.2463028,"name":"朴子農會","decorType":"bus_stop"},{"id":"node-5662866779","lat":23.464327,"lon":120.2469615,"name":"朴子","decorType":"bus_stop"},{"id":"node-5662866788","lat":23.4680666,"lon":120.2484844,"name":"朴子刺繡文化館","decorType":"art_gallery"},{"id":"node-5690157426","lat":23.4670502,"lon":120.2446063,"name":"7-Eleven","decorType":"convenience"},{"id":"node-5690157427","lat":23.4655696,"lon":120.2421803,"name":"7-Eleven","decorType":"convenience"},{"id":"node-5690157428","lat":23.4770947,"lon":120.2451589,"name":"7-Eleven","decorType":"convenience"},{"id":"node-5690157429","lat":23.4614601,"lon":120.2413418,"name":"7-Eleven","decorType":"convenience"},{"id":"node-5690157430","lat":23.4636228,"lon":120.2430138,"name":"全家便利商店","decorType":"convenience"},{"id":"node-5690157431","lat":23.4637822,"lon":120.2365707,"name":"全家便利商店","decorType":"convenience"},{"id":"node-5690157432","lat":23.4613379,"lon":120.2449342,"name":"全聯福利中心","decorType":"supermarket"},{"id":"node-5690157433","lat":23.4614528,"lon":120.2369594,"name":"全聯福利中心","decorType":"supermarket"},{"id":"node-5690157434","lat":23.4644184,"lon":120.2415006,"name":"全聯福利中心","decorType":"supermarket"},{"id":"node-5690157435","lat":23.4636743,"lon":120.240989,"name":"全國電子","decorType":"electronics"},{"id":"node-5690157436","lat":23.4587163,"lon":120.2415503,"name":"燦坤3C","decorType":"electronics"},{"id":"node-5690157437","lat":23.4666829,"lon":120.245207,"name":"樸仔腳意麵","decorType":"restaurant"},{"id":"node-5690157438","lat":23.464763,"lon":120.2445134,"name":"阿義師素食自助餐","decorType":"restaurant"},{"id":"node-5690157440","lat":23.4649366,"lon":120.2475772,"name":"億客來","decorType":"supermarket"},{"id":"node-5690157441","lat":23.4630895,"lon":120.2468469,"name":"鬍鬚王古早味滷肉飯","decorType":"restaurant"},{"id":"node-5690157442","lat":23.4678083,"lon":120.2460971,"name":"朴子大眾餐廳","decorType":"restaurant"},{"id":"node-5690157443","lat":23.4608015,"lon":120.2462233,"name":"朴子傳統滷肉飯","decorType":"restaurant"},{"id":"node-5690157448","lat":23.4623798,"lon":120.242663,"name":"嘉義羊肉","decorType":"restaurant"},{"id":"node-5690157449","lat":23.4626401,"lon":120.242736,"name":"阿順羊肉","decorType":"restaurant"},{"id":"node-5690157450","lat":23.4628538,"lon":120.2427851,"name":"朴子米糕","decorType":"restaurant"},{"id":"node-5690157451","lat":23.4623224,"lon":120.2426428,"name":"品順素食自助餐","decorType":"restaurant"},{"id":"node-5690157452","lat":23.4643623,"lon":120.2456029,"name":"自強書局","decorType":"library"},{"id":"node-5692239925","lat":23.3697141,"lon":120.1953021,"name":"英濱海產餐廳","decorType":"restaurant"},{"id":"node-5713861800","lat":23.3266218,"lon":120.2549314,"name":"固執廚師的工作室","decorType":"bakery"},{"id":"node-5801635895","lat":23.51959,"lon":120.193913,"name":"未命名郵局","decorType":"post_office"},{"id":"node-5801635900","lat":23.513946,"lon":120.228967,"name":"未命名郵局","decorType":"post_office"},{"id":"node-6204966526","lat":23.3857723,"lon":120.1710963,"name":"卿雲廟","decorType":"bus_stop"},{"id":"node-6204966527","lat":23.3858308,"lon":120.1709367,"name":"卿雲廟","decorType":"bus_stop"},{"id":"node-6204966528","lat":23.4175956,"lon":120.1787661,"name":"過溝","decorType":"bus_stop"},{"id":"node-6204966529","lat":23.4171119,"lon":120.1784831,"name":"過溝","decorType":"bus_stop"},{"id":"node-6204966530","lat":23.4201098,"lon":120.1816039,"name":"過溝農會辦事處","decorType":"bus_stop"},{"id":"node-6204966531","lat":23.4201694,"lon":120.1818694,"name":"過溝農會辦事處","decorType":"bus_stop"},{"id":"node-6204966532","lat":23.4315294,"lon":120.1909648,"name":"龍崗派出所","decorType":"bus_stop"},{"id":"node-6204966533","lat":23.4315657,"lon":120.1908159,"name":"龍崗派出所","decorType":"bus_stop"},{"id":"node-6410577532","lat":23.4678523,"lon":120.2485707,"name":"三筒滷肉飯","decorType":"restaurant"},{"id":"node-6410577533","lat":23.4682945,"lon":120.2479493,"name":"猴母滷肉飯","decorType":"restaurant"},{"id":"node-6410577534","lat":23.4662042,"lon":120.2533001,"name":"順發3C","decorType":"electronics"},{"id":"node-6544302909","lat":23.4602595,"lon":120.2459385,"name":"鎮安宮","decorType":"shrine"},{"id":"node-6579996878","lat":23.3818646,"lon":120.1555824,"name":"布袋遊客中心","decorType":"bus_stop"},{"id":"node-6579996879","lat":23.3798595,"lon":120.1396005,"name":"布袋商港","decorType":"bus_stop"},{"id":"node-6579996881","lat":23.3784586,"lon":120.1498501,"name":"高跟鞋教堂","decorType":"bus_stop"},{"id":"node-6579996882","lat":23.3784594,"lon":120.1496832,"name":"高跟鞋教堂","decorType":"bus_stop"},{"id":"node-6581002830","lat":23.4668102,"lon":120.2513225,"name":"東石國中","decorType":"bus_stop"},{"id":"node-6581002832","lat":23.4656575,"lon":120.2575922,"name":"聖善寺","decorType":"bus_stop"},{"id":"node-6581002833","lat":23.4659331,"lon":120.2573401,"name":"聖善寺","decorType":"bus_stop"},{"id":"node-6581002834","lat":23.4655911,"lon":120.2598453,"name":"大鄉里","decorType":"bus_stop"},{"id":"node-6581017085","lat":23.5180804,"lon":120.2605426,"name":"魚寮","decorType":"bus_stop"},{"id":"node-6581017086","lat":23.5178443,"lon":120.2607223,"name":"魚寮","decorType":"bus_stop"},{"id":"node-6581017087","lat":23.5146667,"lon":120.2588394,"name":"磚瓦窯","decorType":"bus_stop"},{"id":"node-6581017089","lat":23.5083285,"lon":120.2559587,"name":"六腳","decorType":"bus_stop"},{"id":"node-6581017090","lat":23.5081465,"lon":120.2555403,"name":"六腳","decorType":"bus_stop"},{"id":"node-6581017091","lat":23.4773875,"lon":120.2454659,"name":"正義村","decorType":"bus_stop"},{"id":"node-6744150577","lat":23.3388499,"lon":120.2486899,"name":"活動中心","decorType":"bus_stop"},{"id":"node-6744150578","lat":23.3386714,"lon":120.2487047,"name":"活動中心","decorType":"bus_stop"},{"id":"node-6744150579","lat":23.3373599,"lon":120.2439371,"name":"義竹","decorType":"bus_stop"},{"id":"node-6744150580","lat":23.3374848,"lon":120.243975,"name":"義竹","decorType":"bus_stop"},{"id":"node-6744150581","lat":23.3252278,"lon":120.2581769,"name":"義稠里","decorType":"bus_stop"},{"id":"node-6744150582","lat":23.3251662,"lon":120.2578685,"name":"義稠里","decorType":"bus_stop"},{"id":"node-6985063478","lat":23.4665893,"lon":120.2441336,"name":"好友冷飲","decorType":"restaurant"},{"id":"node-6987705957","lat":23.4649103,"lon":120.2380297,"name":"順天宮","decorType":"shrine"},{"id":"node-6987705959","lat":23.4635804,"lon":120.2313118,"name":"一品便當","decorType":"restaurant"},{"id":"node-6987705960","lat":23.4637947,"lon":120.2310817,"name":"未命名神社","decorType":"shrine"},{"id":"node-6987705965","lat":23.4629473,"lon":120.2304164,"name":"崛頭公","decorType":"shrine"},{"id":"node-6990023924","lat":23.4593589,"lon":120.2449646,"name":"朴子會館","decorType":"hotel"},{"id":"node-6990023959","lat":23.4619063,"lon":120.2409718,"name":"流行之星","decorType":"clothing"},{"id":"node-6990023960","lat":23.4622172,"lon":120.2410612,"name":"未命名服飾店","decorType":"clothing"},{"id":"node-6990023961","lat":23.4617481,"lon":120.2413077,"name":"三商鞋行","decorType":"clothing"},{"id":"node-6990023962","lat":23.4630564,"lon":120.2421974,"name":"瑞仁藥局","decorType":"pharmacy"},{"id":"node-6990023967","lat":23.4639733,"lon":120.2389593,"name":"樸靈公廟","decorType":"shrine"},{"id":"node-6990023968","lat":23.4636751,"lon":120.2387825,"name":"朴子海通路郵局","decorType":"post_office"},{"id":"node-6990023976","lat":23.4668764,"lon":120.2398019,"name":"未命名神社","decorType":"shrine"},{"id":"node-6990034937","lat":23.4703969,"lon":120.2448813,"name":"早餐店","decorType":"restaurant"},{"id":"node-6990034938","lat":23.4707401,"lon":120.2448188,"name":"未命名餐廳","decorType":"restaurant"},{"id":"node-6992095974","lat":23.4672311,"lon":120.2402966,"name":"未命名神社","decorType":"shrine"},{"id":"node-6992108588","lat":23.4644028,"lon":120.2411752,"name":"未命名神社","decorType":"shrine"},{"id":"node-6992108605","lat":23.4675705,"lon":120.2418881,"name":"上味薑母鴨","decorType":"restaurant"},{"id":"node-6992108616","lat":23.4669476,"lon":120.2429619,"name":"家庭理髮","decorType":"hair_salon"},{"id":"node-6992108617","lat":23.4669904,"lon":120.2433962,"name":"未命名自主洗衣店&乾洗店","decorType":"laundry"},{"id":"node-6992108619","lat":23.4670975,"lon":120.2432047,"name":"西裝訂做","decorType":"clothing"},{"id":"node-6992108620","lat":23.4675345,"lon":120.2438865,"name":"大洋洋西服","decorType":"clothing"},{"id":"node-6992108625","lat":23.4688904,"lon":120.2425722,"name":"外省麵","decorType":"restaurant"},{"id":"node-6992108626","lat":23.4688133,"lon":120.2424601,"name":"朴子車站黑白切﹝分店﹞","decorType":"restaurant"},{"id":"node-6992538262","lat":23.4647956,"lon":120.2415313,"name":"家庭理髮","decorType":"hair_salon"},{"id":"node-6992538264","lat":23.4650443,"lon":120.2423662,"name":"肉粽","decorType":"restaurant"},{"id":"node-6992538265","lat":23.4647023,"lon":120.2419226,"name":"中藥店","decorType":"pharmacy"},{"id":"node-6992538266","lat":23.4651779,"lon":120.2423371,"name":"服飾店","decorType":"clothing"},{"id":"node-6992538268","lat":23.465553,"lon":120.2416699,"name":"服飾店","decorType":"clothing"},{"id":"node-6992538269","lat":23.4655472,"lon":120.2416164,"name":"野牛屋","decorType":"clothing"},{"id":"node-6992538273","lat":23.4650019,"lon":120.2411492,"name":"快炒","decorType":"restaurant"},{"id":"node-6992538275","lat":23.4656772,"lon":120.242521,"name":"中藥行","decorType":"pharmacy"},{"id":"node-6992538279","lat":23.4660985,"lon":120.243155,"name":"自成藥局","decorType":"pharmacy"},{"id":"node-6992538280","lat":23.4660533,"lon":120.2430934,"name":"刺繡、布料","decorType":"clothing"},{"id":"node-6992538282","lat":23.4663133,"lon":120.2434199,"name":"自成鞋行","decorType":"clothing"},{"id":"node-6992538283","lat":23.4663981,"lon":120.2435155,"name":"自成服飾","decorType":"clothing"},{"id":"node-6992547985","lat":23.4669535,"lon":120.2441814,"name":"遠東書局","decorType":"library"},{"id":"node-6992547986","lat":23.4669335,"lon":120.2441528,"name":"電器行","decorType":"electronics"},{"id":"node-6992547987","lat":23.4663642,"lon":120.2429794,"name":"早餐店","decorType":"restaurant"},{"id":"node-6992547988","lat":23.4662822,"lon":120.2430441,"name":"中藥行","decorType":"pharmacy"},{"id":"node-6992547989","lat":23.4653692,"lon":120.2422575,"name":"未命名餐廳","decorType":"restaurant"},{"id":"node-6992547995","lat":23.4652881,"lon":120.2432677,"name":"未命名神社","decorType":"shrine"},{"id":"node-6992547996","lat":23.4659628,"lon":120.2435456,"name":"未命名服飾店","decorType":"clothing"},{"id":"node-6992547997","lat":23.4660699,"lon":120.2434498,"name":"便當店","decorType":"restaurant"},{"id":"node-6992547998","lat":23.4654651,"lon":120.2440884,"name":"朴子車站黑白切﹝本店﹞","decorType":"restaurant"},{"id":"node-6992548000","lat":23.4650815,"lon":120.2435666,"name":"Hang-Ten","decorType":"clothing"},{"id":"node-6992548001","lat":23.4648836,"lon":120.2431887,"name":"瑞麟美而美","decorType":"burger"},{"id":"node-6992548005","lat":23.4653551,"lon":120.2439201,"name":"鞋店","decorType":"clothing"},{"id":"node-6992548007","lat":23.4652816,"lon":120.2440064,"name":"蚵嗲","decorType":"restaurant"},{"id":"node-6992548008","lat":23.4646966,"lon":120.2427925,"name":"佐丹奴","decorType":"clothing"},{"id":"node-6992548009","lat":23.4660197,"lon":120.2443516,"name":"未命名餐廳","decorType":"restaurant"},{"id":"node-6992548015","lat":23.4659389,"lon":120.2433499,"name":"未命名餐廳","decorType":"restaurant"},{"id":"node-6992727932","lat":23.4609843,"lon":120.2469199,"name":"快樂租書坊","decorType":"library"},{"id":"node-6992727933","lat":23.4612441,"lon":120.2487107,"name":"西服訂做","decorType":"clothing"},{"id":"node-6992727938","lat":23.4631189,"lon":120.2453474,"name":"開心麵館","decorType":"restaurant"},{"id":"node-6992727940","lat":23.4625727,"lon":120.2453259,"name":"早餐店","decorType":"restaurant"},{"id":"node-6992727942","lat":23.4620412,"lon":120.245047,"name":"未命名咖啡廳","decorType":"cafe"},{"id":"node-6992727944","lat":23.4611358,"lon":120.243089,"name":"包子專賣","decorType":"restaurant"},{"id":"node-6992727947","lat":23.4664633,"lon":120.2448256,"name":"朝榮西藥房","decorType":"pharmacy"},{"id":"node-6992727948","lat":23.4669757,"lon":120.2442273,"name":"信男藥局","decorType":"pharmacy"},{"id":"node-6992727949","lat":23.4669824,"lon":120.2445171,"name":"未命名電器行","decorType":"electronics"},{"id":"node-6992727950","lat":23.467162,"lon":120.2444581,"name":"肉圓攤","decorType":"burger"},{"id":"node-6992727953","lat":23.4666896,"lon":120.2454264,"name":"肉粽專賣","decorType":"restaurant"},{"id":"node-6992727963","lat":23.4701732,"lon":120.2464519,"name":"陳記食堂","decorType":"restaurant"},{"id":"node-6992727964","lat":23.4700892,"lon":120.2460784,"name":"新紅吉牛排館","decorType":"restaurant"},{"id":"node-6992727980","lat":23.4671003,"lon":120.2467924,"name":"臭豆幅、麵線","decorType":"burger"},{"id":"node-6992727981","lat":23.4666793,"lon":120.2464966,"name":"La New 皮鞋","decorType":"clothing"},{"id":"node-6992728186","lat":23.4693065,"lon":120.2481228,"name":"新風味日式料理","decorType":"restaurant"},{"id":"node-6992728187","lat":23.4688098,"lon":120.2480167,"name":"水餃之家","decorType":"restaurant"},{"id":"node-6996477305","lat":23.4654514,"lon":120.2534506,"name":"鄉野","decorType":"restaurant"},{"id":"node-6996477348","lat":23.4647298,"lon":120.2493208,"name":"早餐店","decorType":"restaurant"},{"id":"node-6996477356","lat":23.4646819,"lon":120.2483544,"name":"萬善爺布伯公","decorType":"shrine"},{"id":"node-7001496431","lat":23.4675627,"lon":120.2483278,"name":"張殷德堂","decorType":"shrine"},{"id":"node-7001496450","lat":23.4652514,"lon":120.2531168,"name":"未命名神社","decorType":"shrine"},{"id":"node-7001496457","lat":23.464756,"lon":120.2486872,"name":"男士理髮","decorType":"hair_salon"},{"id":"node-7001496459","lat":23.4581508,"lon":120.244933,"name":"良威電腦維修販賣","decorType":"electronics"},{"id":"node-7004119244","lat":23.4646243,"lon":120.2458524,"name":"文慧書局","decorType":"library"},{"id":"node-7004119245","lat":23.4621238,"lon":120.2452609,"name":"文具廣場","decorType":"library"},{"id":"node-7004119247","lat":23.4610143,"lon":120.2452975,"name":"津溱自助餐","decorType":"restaurant"},{"id":"node-7004119248","lat":23.4617602,"lon":120.2452914,"name":"三才自助餐","decorType":"restaurant"},{"id":"node-7004119250","lat":23.4614888,"lon":120.2407559,"name":"金鍠五金","decorType":"hardware"},{"id":"node-7028802804","lat":23.4625086,"lon":120.2429087,"name":"OK超商","decorType":"convenience"},{"id":"node-7040643089","lat":23.4645244,"lon":120.2465124,"name":"華信藥局","decorType":"pharmacy"},{"id":"node-7053626725","lat":23.4662909,"lon":120.2520173,"name":"豚將拉麵","decorType":"restaurant"},{"id":"node-7053626729","lat":23.4663819,"lon":120.2524303,"name":"餃踏實地","decorType":"restaurant"},{"id":"node-7053626730","lat":23.4662909,"lon":120.2531921,"name":"先悅居","decorType":"restaurant"},{"id":"node-7053626731","lat":23.4663352,"lon":120.252838,"name":"原味坊火鍋","decorType":"restaurant"},{"id":"node-7053626732","lat":23.468579,"lon":120.2504755,"name":"未命名神社","decorType":"shrine"},{"id":"node-7083962352","lat":23.4653226,"lon":120.2323132,"name":"永安宮","decorType":"shrine"},{"id":"node-7083962353","lat":23.4652882,"lon":120.2324742,"name":"晴‧預約約餐坊","decorType":"restaurant"},{"id":"node-7083962370","lat":23.4639877,"lon":120.2375021,"name":"自助餐","decorType":"restaurant"},{"id":"node-7093110035","lat":23.469321,"lon":120.2446041,"name":"龍樹亭","decorType":"shrine"},{"id":"node-7236814606","lat":23.4748251,"lon":120.2623448,"name":"巧聖道院","decorType":"shrine"},{"id":"node-7236814613","lat":23.4723968,"lon":120.2619374,"name":"德安宮","decorType":"shrine"},{"id":"node-7451152959","lat":23.463835,"lon":120.24422,"name":"50嵐","decorType":"cafe"},{"id":"node-7451152960","lat":23.4639275,"lon":120.2469262,"name":"朴子","decorType":"bus_stop"},{"id":"node-7477544839","lat":23.4638787,"lon":120.2351582,"name":"朴子醫院","decorType":"bus_stop"},{"id":"node-7477544840","lat":23.463934,"lon":120.2345332,"name":"朴子醫院","decorType":"bus_stop"},{"id":"node-7477555836","lat":23.4637901,"lon":120.238739,"name":"樸靈宮","decorType":"bus_stop"},{"id":"node-7477555837","lat":23.4638934,"lon":120.2393639,"name":"樸靈宮","decorType":"bus_stop"},{"id":"node-7477555838","lat":23.4637581,"lon":120.239431,"name":"樸靈宮","decorType":"bus_stop"},{"id":"node-7477726042","lat":23.4636056,"lon":120.232193,"name":"應菜埔","decorType":"bus_stop"},{"id":"node-7477726043","lat":23.4634481,"lon":120.2322574,"name":"應菜埔","decorType":"bus_stop"},{"id":"node-7477740591","lat":23.4633484,"lon":120.2269788,"name":"永和里","decorType":"bus_stop"},{"id":"node-7477740592","lat":23.4631725,"lon":120.2274066,"name":"永和里","decorType":"bus_stop"},{"id":"node-7477783914","lat":23.4627481,"lon":120.2144904,"name":"港墘國小","decorType":"bus_stop"},{"id":"node-7477783915","lat":23.4625328,"lon":120.2148056,"name":"港墘國小","decorType":"bus_stop"},{"id":"node-7477783923","lat":23.4629978,"lon":120.2195317,"name":"福亨","decorType":"bus_stop"},{"id":"node-7477783924","lat":23.4627789,"lon":120.2196738,"name":"福亨","decorType":"bus_stop"},{"id":"node-7477794898","lat":23.4486158,"lon":120.2022529,"name":"半月","decorType":"bus_stop"},{"id":"node-7477794899","lat":23.4487364,"lon":120.2025908,"name":"半月","decorType":"bus_stop"},{"id":"node-7477794900","lat":23.4581753,"lon":120.2078694,"name":"下厝","decorType":"bus_stop"},{"id":"node-7477794901","lat":23.4581212,"lon":120.2080733,"name":"下厝","decorType":"bus_stop"},{"id":"node-7477794902","lat":23.461652,"lon":120.2112316,"name":"港墘派出所","decorType":"bus_stop"},{"id":"node-7477794903","lat":23.4618808,"lon":120.2113093,"name":"港墘派出所","decorType":"bus_stop"},{"id":"node-7477817529","lat":23.4327851,"lon":120.1916099,"name":"東崙村","decorType":"bus_stop"},{"id":"node-7477817530","lat":23.433612,"lon":120.1920779,"name":"東崙村","decorType":"bus_stop"},{"id":"node-7477817531","lat":23.4336785,"lon":120.191988,"name":"東崙村","decorType":"bus_stop"},{"id":"node-7477817532","lat":23.4418831,"lon":120.1976462,"name":"中洲","decorType":"bus_stop"},{"id":"node-7477817533","lat":23.4420406,"lon":120.1975697,"name":"中洲","decorType":"bus_stop"},{"id":"node-7477823965","lat":23.4277646,"lon":120.1882155,"name":"台電栗子崙服務所","decorType":"bus_stop"},{"id":"node-7477823966","lat":23.4278175,"lon":120.1885052,"name":"台電栗子崙服務所","decorType":"bus_stop"},{"id":"node-7477823967","lat":23.4282962,"lon":120.1887855,"name":"台電栗子崙服務所","decorType":"bus_stop"},{"id":"node-7477861918","lat":23.4213582,"lon":120.1835391,"name":"過溝國中","decorType":"bus_stop"},{"id":"node-7477861919","lat":23.4215391,"lon":120.1833741,"name":"過溝國中","decorType":"bus_stop"},{"id":"node-7477861920","lat":23.4262449,"lon":120.1872231,"name":"西崙村","decorType":"bus_stop"},{"id":"node-7477861921","lat":23.4261772,"lon":120.187321,"name":"西崙村","decorType":"bus_stop"},{"id":"node-7477949285","lat":23.3978097,"lon":120.1754066,"name":"新厝社區","decorType":"bus_stop"},{"id":"node-7477949286","lat":23.3976497,"lon":120.175589,"name":"新厝社區","decorType":"bus_stop"},{"id":"node-7477949299","lat":23.4004953,"lon":120.1757956,"name":"富勤公司","decorType":"bus_stop"},{"id":"node-7477949300","lat":23.4003796,"lon":120.1756078,"name":"富勤公司","decorType":"bus_stop"},{"id":"node-7477962104","lat":23.3828728,"lon":120.1703064,"name":"布袋國小","decorType":"bus_stop"},{"id":"node-7477962105","lat":23.3828519,"lon":120.1704781,"name":"布袋國小","decorType":"bus_stop"},{"id":"node-7477962109","lat":23.3904713,"lon":120.1733011,"name":"台鹽員工宿舍","decorType":"bus_stop"},{"id":"node-7477962110","lat":23.390475,"lon":120.1735197,"name":"台鹽員工宿舍","decorType":"bus_stop"},{"id":"node-7477979657","lat":23.3814424,"lon":120.1697405,"name":"布袋衛生所","decorType":"bus_stop"},{"id":"node-7477979658","lat":23.3817625,"lon":120.1697043,"name":"布袋衛生所","decorType":"bus_stop"},{"id":"node-7477994474","lat":23.3797215,"lon":120.1575498,"name":"布新橋","decorType":"bus_stop"},{"id":"node-7477994475","lat":23.3790617,"lon":120.1617891,"name":"布袋鎮農會","decorType":"bus_stop"},{"id":"node-7478002823","lat":23.3764815,"lon":120.1702662,"name":"布袋廟後","decorType":"bus_stop"},{"id":"node-7478002824","lat":23.3761786,"lon":120.1704459,"name":"布袋廟後","decorType":"bus_stop"},{"id":"node-7478048573","lat":23.3258004,"lon":120.159416,"name":"新塭","decorType":"bus_stop"},{"id":"node-7478048574","lat":23.3256871,"lon":120.159251,"name":"新塭","decorType":"bus_stop"},{"id":"node-7478048575","lat":23.3269543,"lon":120.1605391,"name":"新塭嘉應廟","decorType":"shrine"},{"id":"node-7478048580","lat":23.329964,"lon":120.1596406,"name":"新塭國小","decorType":"bus_stop"},{"id":"node-7478048581","lat":23.3300034,"lon":120.1594502,"name":"新塭國小","decorType":"bus_stop"},{"id":"node-7478048582","lat":23.3431055,"lon":120.1756909,"name":"新岑國小","decorType":"bus_stop"},{"id":"node-7478048583","lat":23.3432434,"lon":120.1755193,"name":"新岑國小","decorType":"bus_stop"},{"id":"node-7478057864","lat":23.3229023,"lon":120.1644026,"name":"新塭社區","decorType":"bus_stop"},{"id":"node-7478057865","lat":23.3230061,"lon":120.164537,"name":"新塭社區","decorType":"bus_stop"},{"id":"node-7478057866","lat":23.3240738,"lon":120.1622719,"name":"布袋電信局","decorType":"bus_stop"},{"id":"node-7478057867","lat":23.324285,"lon":120.1621471,"name":"布袋電信局","decorType":"bus_stop"},{"id":"node-7478057868","lat":23.3253497,"lon":120.1600745,"name":"新塭","decorType":"bus_stop"},{"id":"node-7478057869","lat":23.3254562,"lon":120.16011,"name":"新塭","decorType":"bus_stop"},{"id":"node-7478057870","lat":23.3372286,"lon":120.1394531,"name":"好美里","decorType":"bus_stop"},{"id":"node-7478119069","lat":23.4691623,"lon":120.1467486,"name":"塭港","decorType":"bus_stop"},{"id":"node-7478119083","lat":23.4689372,"lon":120.1476645,"name":"土地公廟","decorType":"bus_stop"},{"id":"node-7478119084","lat":23.4691168,"lon":120.1478603,"name":"土地公廟","decorType":"bus_stop"},{"id":"node-7478119585","lat":23.472437,"lon":120.1526816,"name":"型厝","decorType":"bus_stop"},{"id":"node-7478119586","lat":23.4726325,"lon":120.152341,"name":"型厝","decorType":"bus_stop"},{"id":"node-7478119587","lat":23.4610504,"lon":120.1507518,"name":"國姓廟","decorType":"shrine"},{"id":"node-7478119588","lat":23.4610959,"lon":120.1507974,"name":"頂寮","decorType":"bus_stop"},{"id":"node-7478119589","lat":23.4611217,"lon":120.1509033,"name":"頂寮","decorType":"bus_stop"},{"id":"node-7478119595","lat":23.4581605,"lon":120.1519842,"name":"東石","decorType":"bus_stop"},{"id":"node-7478119596","lat":23.4582368,"lon":120.1520808,"name":"東石","decorType":"bus_stop"},{"id":"node-7478119597","lat":23.4582737,"lon":120.1532154,"name":"東石鄉公所","decorType":"bus_stop"},{"id":"node-7478119598","lat":23.4583783,"lon":120.15321,"name":"東石鄉公所","decorType":"bus_stop"},{"id":"node-7478119599","lat":23.4580436,"lon":120.1501684,"name":"7-Eleven","decorType":"convenience"},{"id":"node-7478182657","lat":23.46014,"lon":120.172707,"name":"屯子頭","decorType":"bus_stop"},{"id":"node-7478182658","lat":23.4599136,"lon":120.1728317,"name":"屯子頭","decorType":"bus_stop"},{"id":"node-7478187284","lat":23.4591546,"lon":120.1970842,"name":"圍潭村","decorType":"bus_stop"},{"id":"node-7478205885","lat":23.4589184,"lon":120.1969796,"name":"圍潭村","decorType":"bus_stop"},{"id":"node-7494302176","lat":23.4928156,"lon":120.1737048,"name":"鰲鼓","decorType":"bus_stop"},{"id":"node-7494302177","lat":23.4927123,"lon":120.1735914,"name":"鰲鼓","decorType":"bus_stop"},{"id":"node-7494302178","lat":23.4939428,"lon":120.1723462,"name":"鰲鼓1","decorType":"bus_stop"},{"id":"node-7494302179","lat":23.4941138,"lon":120.1723033,"name":"鰲鼓1","decorType":"bus_stop"},{"id":"node-7494302181","lat":23.507919,"lon":120.1617569,"name":"農場","decorType":"bus_stop"},{"id":"node-7494477890","lat":23.4977349,"lon":120.1846658,"name":"港口","decorType":"bus_stop"},{"id":"node-7494477891","lat":23.4914842,"lon":120.186456,"name":"港口","decorType":"bus_stop"},{"id":"node-7496698759","lat":23.4849714,"lon":120.2263243,"name":"林內1","decorType":"bus_stop"},{"id":"node-7496698760","lat":23.4850796,"lon":120.2260159,"name":"林內1","decorType":"bus_stop"},{"id":"node-7496698771","lat":23.4856319,"lon":120.2238795,"name":"林內","decorType":"bus_stop"},{"id":"node-7496698772","lat":23.4857881,"lon":120.2236354,"name":"林內","decorType":"bus_stop"},{"id":"node-7496698773","lat":23.4914965,"lon":120.2165142,"name":"安龍府","decorType":"shrine"},{"id":"node-7496698782","lat":23.4899719,"lon":120.2140539,"name":"頂揖子","decorType":"bus_stop"},{"id":"node-7496723789","lat":23.4867057,"lon":120.2037643,"name":"揖源分校","decorType":"bus_stop"},{"id":"node-7496723790","lat":23.4873502,"lon":120.200842,"name":"下揖子","decorType":"bus_stop"},{"id":"node-7496723791","lat":23.4878053,"lon":120.2005872,"name":"下揖子","decorType":"bus_stop"},{"id":"node-7496723796","lat":23.4909282,"lon":120.1997249,"name":"溪下","decorType":"bus_stop"},{"id":"node-7496723797","lat":23.4907782,"lon":120.199694,"name":"溪下","decorType":"bus_stop"},{"id":"node-7496727200","lat":23.4792597,"lon":120.2390253,"name":"更寮","decorType":"bus_stop"},{"id":"node-7496727201","lat":23.4794276,"lon":120.238637,"name":"更寮","decorType":"bus_stop"},{"id":"node-7496737802","lat":23.4608056,"lon":120.2423009,"name":"朴子加油站","decorType":"bus_stop"},{"id":"node-7496737803","lat":23.4629006,"lon":120.245309,"name":"新榮路","decorType":"bus_stop"},{"id":"node-7496737804","lat":23.4630433,"lon":120.2451494,"name":"新榮路","decorType":"bus_stop"},{"id":"node-7496737805","lat":23.4613653,"lon":120.2391574,"name":"朴子國中","decorType":"bus_stop"},{"id":"node-7505874570","lat":23.4429413,"lon":120.2452862,"name":"全家便利商店","decorType":"convenience"},{"id":"node-7505874571","lat":23.4440769,"lon":120.2451889,"name":"水蓮社區","decorType":"bus_stop"},{"id":"node-7505874572","lat":23.4440942,"lon":120.2454324,"name":"水蓮社區","decorType":"bus_stop"},{"id":"node-7505874573","lat":23.4477915,"lon":120.2447158,"name":"橋頭","decorType":"bus_stop"},{"id":"node-7505874574","lat":23.4478068,"lon":120.2449136,"name":"橋頭","decorType":"bus_stop"},{"id":"node-7505885768","lat":23.4102528,"lon":120.2532289,"name":"前松華","decorType":"bus_stop"},{"id":"node-7505885770","lat":23.4096005,"lon":120.2565958,"name":"東牛挑灣","decorType":"bus_stop"},{"id":"node-7505885772","lat":23.4097088,"lon":120.2579141,"name":"牛挑灣朝天宮","decorType":"shrine"},{"id":"node-7505885774","lat":23.4118416,"lon":120.2568626,"name":"梅華","decorType":"bus_stop"},{"id":"node-7505885775","lat":23.4123413,"lon":120.2529091,"name":"後松華","decorType":"bus_stop"},{"id":"node-7505885777","lat":23.4114613,"lon":120.2496229,"name":"松梅國小","decorType":"bus_stop"},{"id":"node-7505885778","lat":23.4140536,"lon":120.247236,"name":"松華里","decorType":"bus_stop"},{"id":"node-7505885779","lat":23.4140443,"lon":120.2471325,"name":"松華里","decorType":"bus_stop"},{"id":"node-7505963135","lat":23.3620543,"lon":120.2513145,"name":"新庄","decorType":"bus_stop"},{"id":"node-7505963153","lat":23.377806,"lon":120.2466273,"name":"東後寮","decorType":"bus_stop"},{"id":"node-7505992007","lat":23.3363219,"lon":120.2465241,"name":"義竹國小","decorType":"bus_stop"},{"id":"node-7505992026","lat":23.3394261,"lon":120.250116,"name":"義竹加油站","decorType":"bus_stop"},{"id":"node-7529585288","lat":23.4663575,"lon":120.2460976,"name":"朴子農會","decorType":"bus_stop"},{"id":"node-7538053550","lat":23.4519771,"lon":120.136351,"name":"東石漁人碼頭","decorType":"bus_stop"},{"id":"node-7538053551","lat":23.4520558,"lon":120.1364771,"name":"東石漁人碼頭","decorType":"bus_stop"},{"id":"node-7538053552","lat":23.4567974,"lon":120.1893675,"name":"洲子路口","decorType":"bus_stop"},{"id":"node-7538053553","lat":23.4575368,"lon":120.1897015,"name":"洲子路口","decorType":"bus_stop"},{"id":"node-7538505027","lat":23.4614304,"lon":120.1737774,"name":"屯子頭","decorType":"bus_stop"},{"id":"node-7538505028","lat":23.4696212,"lon":120.1724138,"name":"三塊厝1","decorType":"bus_stop"},{"id":"node-7538505029","lat":23.4719036,"lon":120.1729655,"name":"三塊厝","decorType":"bus_stop"},{"id":"node-7538505030","lat":23.4727877,"lon":120.1731819,"name":"海埔","decorType":"bus_stop"},{"id":"node-7538505031","lat":23.4801015,"lon":120.1733779,"name":"過港","decorType":"bus_stop"},{"id":"node-7538505032","lat":23.4846738,"lon":120.1725879,"name":"副瀨","decorType":"bus_stop"},{"id":"node-7538505033","lat":23.483216,"lon":120.1804091,"name":"港乾厝1","decorType":"bus_stop"},{"id":"node-7538505034","lat":23.481467,"lon":120.1797652,"name":"港墘厝","decorType":"bus_stop"},{"id":"node-7538505035","lat":23.4814865,"lon":120.1796876,"name":"港墘厝","decorType":"bus_stop"},{"id":"node-7538505036","lat":23.4831728,"lon":120.1803091,"name":"港墘厝1","decorType":"bus_stop"},{"id":"node-7538505037","lat":23.4844754,"lon":120.1722678,"name":"副瀨","decorType":"bus_stop"},{"id":"node-7538505038","lat":23.4800688,"lon":120.1735026,"name":"過港","decorType":"bus_stop"},{"id":"node-7538505039","lat":23.4727737,"lon":120.1732827,"name":"海埔","decorType":"bus_stop"},{"id":"node-7538505040","lat":23.4717387,"lon":120.1730312,"name":"三塊厝","decorType":"bus_stop"},{"id":"node-7538505041","lat":23.4696132,"lon":120.1725426,"name":"三塊厝1","decorType":"bus_stop"},{"id":"node-7538505042","lat":23.4615799,"lon":120.1739311,"name":"屯子頭","decorType":"bus_stop"},{"id":"node-7538550152","lat":23.4620321,"lon":120.2119678,"name":"港墘派出所","decorType":"bus_stop"},{"id":"node-7538550153","lat":23.4627186,"lon":120.2140573,"name":"港墘國小","decorType":"bus_stop"},{"id":"node-7538550154","lat":23.4327617,"lon":120.1917064,"name":"東崙村","decorType":"bus_stop"},{"id":"node-7538550155","lat":23.4320025,"lon":120.1906925,"name":"龍崗派出所","decorType":"bus_stop"},{"id":"node-7538550156","lat":23.4354669,"lon":120.1837207,"name":"龍崗國小","decorType":"bus_stop"},{"id":"node-7538550157","lat":23.4368838,"lon":120.1771246,"name":"塭仔","decorType":"bus_stop"},{"id":"node-7538550158","lat":23.437702,"lon":120.1653954,"name":"東寮","decorType":"bus_stop"},{"id":"node-7538550159","lat":23.4350608,"lon":120.1580172,"name":"西寮","decorType":"bus_stop"},{"id":"node-7538550160","lat":23.4351311,"lon":120.1542448,"name":"網寮","decorType":"bus_stop"},{"id":"node-7538550161","lat":23.4351285,"lon":120.1579957,"name":"西寮","decorType":"bus_stop"},{"id":"node-7538550162","lat":23.4379994,"lon":120.1656768,"name":"東寮","decorType":"bus_stop"},{"id":"node-7538550163","lat":23.4370097,"lon":120.1769508,"name":"塭仔","decorType":"bus_stop"},{"id":"node-7538550164","lat":23.4355075,"lon":120.18382,"name":"龍崗國小","decorType":"bus_stop"},{"id":"node-7538550165","lat":23.4318179,"lon":120.190818,"name":"龍崗派出所","decorType":"bus_stop"},{"id":"node-7621327989","lat":23.4590383,"lon":120.2486097,"name":"朴子轉運站","decorType":"bus_stop"},{"id":"node-7621327990","lat":23.4591276,"lon":120.2485879,"name":"朴子轉運站","decorType":"bus_stop"},{"id":"node-7621327991","lat":23.4590901,"lon":120.2485441,"name":"朴子轉運站","decorType":"bus_stop"},{"id":"node-7621327992","lat":23.4590557,"lon":120.2485042,"name":"朴子轉運站","decorType":"bus_stop"},{"id":"node-7621327993","lat":23.4590176,"lon":120.2484608,"name":"朴子轉運站","decorType":"bus_stop"},{"id":"node-7890974103","lat":23.4645381,"lon":120.2469975,"name":"朴子","decorType":"bus_stop"},{"id":"node-7892457131","lat":23.3794088,"lon":120.1576947,"name":"布新橋","decorType":"bus_stop"},{"id":"node-7892457132","lat":23.3791909,"lon":120.1619151,"name":"布袋鎮農會","decorType":"bus_stop"},{"id":"node-7892457134","lat":23.4217545,"lon":120.1836464,"name":"過溝國中","decorType":"bus_stop"},{"id":"node-7965784894","lat":23.3791035,"lon":120.1675195,"name":"阿秋海產","decorType":"restaurant"},{"id":"node-8196477201","lat":23.4662167,"lon":120.25094,"name":"朴子市召會聚會所","decorType":"shrine"},{"id":"node-8385313823","lat":23.463702,"lon":120.240126,"name":"八方雲集","decorType":"burger"},{"id":"node-8442800427","lat":23.3374833,"lon":120.244005,"name":"義竹","decorType":"bus_stop"},{"id":"node-8442800428","lat":23.3404944,"lon":120.251296,"name":"義竹國中","decorType":"bus_stop"},{"id":"node-8442800430","lat":23.460875,"lon":120.2424087,"name":"朴子加油站","decorType":"bus_stop"},{"id":"node-8442800432","lat":23.4639884,"lon":120.2468819,"name":"朴子","decorType":"bus_stop"},{"id":"node-8443252751","lat":23.4640608,"lon":120.2475721,"name":"朴子","decorType":"bus_stop"},{"id":"node-8443252752","lat":23.4608614,"lon":120.2422794,"name":"朴子加油站","decorType":"bus_stop"},{"id":"node-8443252754","lat":23.340458,"lon":120.251041,"name":"義竹國中","decorType":"bus_stop"},{"id":"node-8443252755","lat":23.3373549,"lon":120.2439769,"name":"義竹","decorType":"bus_stop"},{"id":"node-8443252760","lat":23.3342979,"lon":120.2488936,"name":"厚生橋","decorType":"bus_stop"},{"id":"node-8443252761","lat":23.3345802,"lon":120.2489525,"name":"厚生橋","decorType":"bus_stop"},{"id":"node-8445906505","lat":23.3361952,"lon":120.2407953,"name":"義竹仁里","decorType":"bus_stop"},{"id":"node-8445906506","lat":23.3314956,"lon":120.2320308,"name":"頭竹圍","decorType":"bus_stop"},{"id":"node-8445906507","lat":23.3182721,"lon":120.2233183,"name":"新富村","decorType":"bus_stop"},{"id":"node-8445906508","lat":23.3051757,"lon":120.2099184,"name":"東過路仔","decorType":"bus_stop"},{"id":"node-8445906509","lat":23.3049377,"lon":120.2048012,"name":"過路仔","decorType":"bus_stop"},{"id":"node-8445906510","lat":23.3051236,"lon":120.1888866,"name":"東竿仔寮","decorType":"bus_stop"},{"id":"node-8445906511","lat":23.3057223,"lon":120.1864883,"name":"中竿仔寮","decorType":"bus_stop"},{"id":"node-8445906512","lat":23.305852,"lon":120.1845994,"name":"西竿仔寮","decorType":"bus_stop"},{"id":"node-8445906513","lat":23.3371378,"lon":120.139431,"name":"好美里","decorType":"bus_stop"},{"id":"node-8445906514","lat":23.3056587,"lon":120.184843,"name":"西竿仔寮","decorType":"bus_stop"},{"id":"node-8445906515","lat":23.3056624,"lon":120.186629,"name":"中竿仔寮","decorType":"bus_stop"},{"id":"node-8445906516","lat":23.3049971,"lon":120.1890649,"name":"東竿仔寮","decorType":"bus_stop"},{"id":"node-8445925917","lat":23.3048321,"lon":120.20478,"name":"過路仔","decorType":"bus_stop"},{"id":"node-8445925918","lat":23.3050582,"lon":120.2098313,"name":"東過路仔","decorType":"bus_stop"},{"id":"node-8445925919","lat":23.3182297,"lon":120.2234319,"name":"新富村","decorType":"bus_stop"},{"id":"node-8445925920","lat":23.3315499,"lon":120.2321379,"name":"頭竹圍","decorType":"bus_stop"},{"id":"node-8445925921","lat":23.3361026,"lon":120.2409047,"name":"義竹仁里","decorType":"bus_stop"},{"id":"node-8448883500","lat":23.3431748,"lon":120.2418221,"name":"松子腳","decorType":"bus_stop"},{"id":"node-8448883501","lat":23.3465236,"lon":120.2408519,"name":"竹圍仔","decorType":"bus_stop"},{"id":"node-8448883502","lat":23.3522079,"lon":120.2315417,"name":"四十九公廟","decorType":"bus_stop"},{"id":"node-8448883503","lat":23.3558312,"lon":120.22482,"name":"埤仔頭","decorType":"bus_stop"},{"id":"node-8448883504","lat":23.3582425,"lon":120.2199866,"name":"安溪寮仔","decorType":"bus_stop"},{"id":"node-8448883505","lat":23.3597676,"lon":120.2169337,"name":"磚廠","decorType":"bus_stop"},{"id":"node-8448883506","lat":23.3636184,"lon":120.209265,"name":"東後鎮仔","decorType":"bus_stop"},{"id":"node-8448883507","lat":23.364894,"lon":120.2066822,"name":"後鎮仔","decorType":"bus_stop"},{"id":"node-8448883508","lat":23.36954,"lon":120.1966707,"name":"義布橋","decorType":"bus_stop"},{"id":"node-8448883509","lat":23.3703308,"lon":120.1942095,"name":"平和社區","decorType":"bus_stop"},{"id":"node-8448883510","lat":23.3721004,"lon":120.1897257,"name":"江山里","decorType":"bus_stop"},{"id":"node-8448883511","lat":23.3735965,"lon":120.1862573,"name":"前東港","decorType":"bus_stop"},{"id":"node-8448883513","lat":23.374198,"lon":120.1787191,"name":"山寮仔","decorType":"bus_stop"},{"id":"node-8448883514","lat":23.3792461,"lon":120.1673856,"name":"布袋轉運站","decorType":"bus_stop"},{"id":"node-8448883515","lat":23.379195,"lon":120.1619456,"name":"布袋鎮農會","decorType":"bus_stop"},{"id":"node-8448883516","lat":23.3797209,"lon":120.1575894,"name":"布新橋","decorType":"bus_stop"},{"id":"node-8448886018","lat":23.3795588,"lon":120.1575433,"name":"布新橋","decorType":"bus_stop"},{"id":"node-8448886019","lat":23.3790664,"lon":120.1618165,"name":"布袋鎮農會","decorType":"bus_stop"},{"id":"node-8448886020","lat":23.3790318,"lon":120.1673352,"name":"布袋轉運站","decorType":"bus_stop"},{"id":"node-8448886021","lat":23.3740516,"lon":120.1785547,"name":"山寮仔","decorType":"bus_stop"},{"id":"node-8448886022","lat":23.3734911,"lon":120.1861538,"name":"前東港","decorType":"bus_stop"},{"id":"node-8448886023","lat":23.3721089,"lon":120.1894001,"name":"江山里","decorType":"bus_stop"},{"id":"node-8448886024","lat":23.370077,"lon":120.1944385,"name":"平和社區","decorType":"bus_stop"},{"id":"node-8448886025","lat":23.3694371,"lon":120.1966463,"name":"義布橋","decorType":"bus_stop"},{"id":"node-8448886026","lat":23.3647641,"lon":120.2066363,"name":"後鎮仔","decorType":"bus_stop"},{"id":"node-8448886027","lat":23.3635138,"lon":120.2091813,"name":"東後鎮仔","decorType":"bus_stop"},{"id":"node-8448886028","lat":23.3596943,"lon":120.2168903,"name":"磚廠","decorType":"bus_stop"},{"id":"node-8448886029","lat":23.3580971,"lon":120.2200404,"name":"安溪寮仔","decorType":"bus_stop"},{"id":"node-8448886030","lat":23.3557476,"lon":120.2247942,"name":"埤仔頭","decorType":"bus_stop"},{"id":"node-8448886031","lat":23.3521251,"lon":120.2314726,"name":"四十九公廟","decorType":"bus_stop"},{"id":"node-8448886032","lat":23.3464374,"lon":120.2407663,"name":"竹圍仔","decorType":"bus_stop"},{"id":"node-8448886033","lat":23.3430799,"lon":120.2416438,"name":"松子腳","decorType":"bus_stop"},{"id":"node-8448886040","lat":23.3798795,"lon":120.139599,"name":"布袋商港","decorType":"bus_stop"},{"id":"node-8634331459","lat":23.4388623,"lon":120.1762661,"name":"塭仔慈安宮","decorType":"shrine"},{"id":"node-8634331491","lat":23.4422292,"lon":120.1805834,"name":"福安宮","decorType":"shrine"},{"id":"node-8634331496","lat":23.443184,"lon":120.1819647,"name":"未命名神社","decorType":"shrine"},{"id":"node-8715276187","lat":23.4677499,"lon":120.1469527,"name":"未命名神社","decorType":"shrine"},{"id":"node-8715276188","lat":23.4682112,"lon":120.1466538,"name":"未命名神社","decorType":"shrine"},{"id":"node-9079525153","lat":23.4158922,"lon":120.2175,"name":"樹林頭","decorType":"bus_stop"},{"id":"node-9223494654","lat":23.3195161,"lon":120.2406573,"name":"下中","decorType":"bus_stop"},{"id":"node-9223494656","lat":23.3200214,"lon":120.2412877,"name":"下中","decorType":"bus_stop"},{"id":"node-9892479218","lat":23.4579643,"lon":120.1505725,"name":"林記蚵餃","decorType":"restaurant"},{"id":"way-1015074731","lat":23.3389563,"lon":120.15219,"name":"未命名水邊","decorType":"waterside"},{"id":"way-1015074732","lat":23.3354764,"lon":120.155481,"name":"未命名水邊","decorType":"waterside"},{"id":"way-103151705","lat":23.3060269,"lon":120.1493457,"name":"西部濱海快速公路","decorType":"bridge"},{"id":"way-103151719","lat":23.3137019,"lon":120.1529797,"name":"嘉南大橋","decorType":"bridge"},{"id":"way-103151748","lat":23.3095086,"lon":120.1509951,"name":"西部濱海快速公路","decorType":"bridge"},{"id":"way-103151754","lat":23.3136505,"lon":120.1530662,"name":"嘉南大橋","decorType":"bridge"},{"id":"way-103198907","lat":23.4200545,"lon":120.162042,"name":"掌潭橋","decorType":"bridge"},{"id":"way-103387131","lat":23.3908278,"lon":120.166724,"name":"未命名橋樑","decorType":"bridge"},{"id":"way-103387135","lat":23.3909258,"lon":120.1668451,"name":"未命名橋樑","decorType":"bridge"},{"id":"way-103387527","lat":23.3796941,"lon":120.1567369,"name":"布新橋","decorType":"bridge"},{"id":"way-103508469","lat":23.3296935,"lon":120.25202,"name":"厚生橋","decorType":"bridge"},{"id":"way-1039395607","lat":23.4842121,"lon":120.1798586,"name":"未命名水邊","decorType":"waterside"},{"id":"way-1039395608","lat":23.4842986,"lon":120.1793405,"name":"未命名水邊","decorType":"waterside"},{"id":"way-1039395609","lat":23.4844066,"lon":120.1787339,"name":"未命名水邊","decorType":"waterside"},{"id":"way-1055339145","lat":23.4021011,"lon":120.1527401,"name":"未命名水邊","decorType":"waterside"},{"id":"way-1055339146","lat":23.4011828,"lon":120.1516512,"name":"未命名水邊","decorType":"waterside"},{"id":"way-1073321502","lat":23.4818629,"lon":120.1594606,"name":"未命名水邊","decorType":"waterside"},{"id":"way-1073321503","lat":23.480262,"lon":120.1571861,"name":"未命名水邊","decorType":"waterside"},{"id":"way-1073322111","lat":23.4747377,"lon":120.1603497,"name":"未命名水邊","decorType":"waterside"},{"id":"way-1073621393","lat":23.4728317,"lon":120.2068086,"name":"未命名橋樑","decorType":"bridge"},{"id":"way-1085487012","lat":23.330272,"lon":120.2615519,"name":"未命名森林","decorType":"forest"},{"id":"way-1085487013","lat":23.3288809,"lon":120.2617772,"name":"未命名森林","decorType":"forest"},{"id":"way-1086326619","lat":23.4371203,"lon":120.1566448,"name":"未命名水邊","decorType":"waterside"},{"id":"way-1086326620","lat":23.4318143,"lon":120.1514078,"name":"未命名水邊","decorType":"waterside"},{"id":"way-1086326621","lat":23.4330027,"lon":120.1483315,"name":"未命名水邊","decorType":"waterside"},{"id":"way-1086326622","lat":23.438207,"lon":120.1511551,"name":"未命名水邊","decorType":"waterside"},{"id":"way-1086326623","lat":23.4385664,"lon":120.1511848,"name":"未命名水邊","decorType":"waterside"},{"id":"way-1086326624","lat":23.4388799,"lon":120.1501186,"name":"未命名水邊","decorType":"waterside"},{"id":"way-1086326625","lat":23.438237,"lon":120.1502234,"name":"未命名水邊","decorType":"waterside"},{"id":"way-1086326626","lat":23.4376701,"lon":120.1505275,"name":"未命名水邊","decorType":"waterside"},{"id":"way-1086326627","lat":23.4392087,"lon":120.1494659,"name":"未命名水邊","decorType":"waterside"},{"id":"way-1086326628","lat":23.4392991,"lon":120.1490928,"name":"未命名水邊","decorType":"waterside"},{"id":"way-1086326629","lat":23.4384656,"lon":120.1493575,"name":"未命名水邊","decorType":"waterside"},{"id":"way-1086326630","lat":23.4389959,"lon":120.1489227,"name":"未命名水邊","decorType":"waterside"},{"id":"way-1086326631","lat":23.4398841,"lon":120.1573932,"name":"未命名水邊","decorType":"waterside"},{"id":"way-1086326632","lat":23.4401952,"lon":120.1549419,"name":"未命名水邊","decorType":"waterside"},{"id":"way-1086326633","lat":23.44302,"lon":120.1528158,"name":"未命名水邊","decorType":"waterside"},{"id":"way-1086326634","lat":23.444456,"lon":120.1572082,"name":"未命名水邊","decorType":"waterside"},{"id":"way-1086326635","lat":23.4463656,"lon":120.1572241,"name":"未命名水邊","decorType":"waterside"},{"id":"way-1086326636","lat":23.4466824,"lon":120.1565489,"name":"未命名水邊","decorType":"waterside"},{"id":"way-1086326637","lat":23.445831,"lon":120.1568288,"name":"未命名水邊","decorType":"waterside"},{"id":"way-1086327065","lat":23.443286,"lon":120.1560158,"name":"未命名水邊","decorType":"waterside"},{"id":"way-1092348194","lat":23.3833109,"lon":120.1690693,"name":"石雕九龍池","decorType":"waterside"},{"id":"way-1094038893","lat":23.3792092,"lon":120.1445163,"name":"未命名森林","decorType":"forest"},{"id":"way-1094038895","lat":23.3792156,"lon":120.1425253,"name":"未命名森林","decorType":"forest"},{"id":"way-1094038896","lat":23.3796466,"lon":120.1408249,"name":"未命名森林","decorType":"forest"},{"id":"way-1094038897","lat":23.3832492,"lon":120.1476986,"name":"未命名森林","decorType":"forest"},{"id":"way-1094039827","lat":23.5067586,"lon":120.1734525,"name":"未命名橋樑","decorType":"bridge"},{"id":"way-1094039828","lat":23.5132778,"lon":120.1773261,"name":"未命名橋樑","decorType":"bridge"},{"id":"way-1095723041","lat":23.4764582,"lon":120.2003404,"name":"未命名水邊","decorType":"waterside"},{"id":"way-1095723042","lat":23.4711404,"lon":120.2000467,"name":"未命名水邊","decorType":"waterside"},{"id":"way-1097983359","lat":23.4286831,"lon":120.162431,"name":"未命名橋樑","decorType":"bridge"},{"id":"way-1097987851","lat":23.4206505,"lon":120.183888,"name":"未命名水邊","decorType":"waterside"},{"id":"way-1097987852","lat":23.42083,"lon":120.1827279,"name":"未命名水邊","decorType":"waterside"},{"id":"way-1105483506","lat":23.3875781,"lon":120.1961705,"name":"未命名橋樑","decorType":"bridge"},{"id":"way-1112540548","lat":23.3227315,"lon":120.1984187,"name":"未命名水邊","decorType":"waterside"},{"id":"way-1112540549","lat":23.322702,"lon":120.2024165,"name":"未命名水邊","decorType":"waterside"},{"id":"way-1112542330","lat":23.3181058,"lon":120.1468646,"name":"八掌溪","decorType":"waterside"},{"id":"way-1112739407","lat":23.4110402,"lon":120.2543467,"name":"牛挑灣龍安宮","decorType":"shrine"},{"id":"way-1124629281","lat":23.4437218,"lon":120.1799956,"name":"未命名水邊","decorType":"waterside"},{"id":"way-1124629283","lat":23.4411521,"lon":120.1753977,"name":"未命名橋樑","decorType":"bridge"},{"id":"way-1126940112","lat":23.3062286,"lon":120.2438901,"name":"興農橋","decorType":"bridge"},{"id":"way-1126940120","lat":23.3118343,"lon":120.2447364,"name":"未命名橋樑","decorType":"bridge"},{"id":"way-1131982884","lat":23.4531209,"lon":120.2311274,"name":"未命名橋樑","decorType":"bridge"},{"id":"way-1131982886","lat":23.453365,"lon":120.2311158,"name":"未命名橋樑","decorType":"bridge"},{"id":"way-116792727","lat":23.489556,"lon":120.1895356,"name":"聖母橋","decorType":"bridge"},{"id":"way-116792732","lat":23.4902648,"lon":120.1843984,"name":"未命名橋樑","decorType":"bridge"},{"id":"way-1194662221","lat":23.4092567,"lon":120.2565382,"name":"牛挑灣教會","decorType":"shrine"},{"id":"way-1207644631","lat":23.4136138,"lon":120.2547226,"name":"未命名橋樑","decorType":"bridge"},{"id":"way-1207644633","lat":23.4191651,"lon":120.2549999,"name":"未命名橋樑","decorType":"bridge"},{"id":"way-1207644637","lat":23.4312691,"lon":120.2357523,"name":"未命名水邊","decorType":"waterside"},{"id":"way-1207644641","lat":23.413377,"lon":120.2604446,"name":"未命名橋樑","decorType":"bridge"},{"id":"way-1207644643","lat":23.4305961,"lon":120.2081666,"name":"未命名橋樑","decorType":"bridge"},{"id":"way-1211699722","lat":23.5217288,"lon":120.1667775,"name":"未命名橋樑","decorType":"bridge"},{"id":"way-1211750483","lat":23.3465067,"lon":120.1930914,"name":"未命名橋樑","decorType":"bridge"},{"id":"way-1221248100","lat":23.5191529,"lon":120.2280465,"name":"未命名橋樑","decorType":"bridge"},{"id":"way-122500023","lat":23.4460152,"lon":120.1695682,"name":"東石南橋","decorType":"bridge"},{"id":"way-122500024","lat":23.4070993,"lon":120.1906089,"name":"考試潭排","decorType":"waterside"},{"id":"way-122500025","lat":23.3927786,"lon":120.2289776,"name":"溪墘大排","decorType":"waterside"},{"id":"way-122500026","lat":23.3581496,"lon":120.1897268,"name":"溪墘大排","decorType":"waterside"},{"id":"way-122500027","lat":23.3777361,"lon":120.2184862,"name":"新庄大排水線","decorType":"waterside"},{"id":"way-122500028","lat":23.4062021,"lon":120.1683917,"name":"考試潭排","decorType":"waterside"},{"id":"way-1239894796","lat":23.4499328,"lon":120.1651123,"name":"未命名水邊","decorType":"waterside"},{"id":"way-1245738622","lat":23.4357198,"lon":120.1827625,"name":"文光橋","decorType":"bridge"},{"id":"way-1254084070","lat":23.5221792,"lon":120.2245068,"name":"未命名橋樑","decorType":"bridge"},{"id":"way-1284825416","lat":23.3250414,"lon":120.2554949,"name":"未命名橋樑","decorType":"bridge"},{"id":"way-1287031123","lat":23.336152,"lon":120.1821833,"name":"未命名橋樑","decorType":"bridge"},{"id":"way-1287031126","lat":23.3332312,"lon":120.179542,"name":"未命名橋樑","decorType":"bridge"},{"id":"way-1287031128","lat":23.3314768,"lon":120.1817366,"name":"未命名水邊","decorType":"waterside"},{"id":"way-1287151349","lat":23.3155306,"lon":120.1681598,"name":"未命名橋樑","decorType":"bridge"},{"id":"way-1287151371","lat":23.3209334,"lon":120.166955,"name":"未命名橋樑","decorType":"bridge"},{"id":"way-1287151375","lat":23.3280824,"lon":120.1711205,"name":"未命名水邊","decorType":"waterside"},{"id":"way-1291299032","lat":23.31342,"lon":120.2470175,"name":"未命名森林","decorType":"forest"},{"id":"way-1291699627","lat":23.4464114,"lon":120.2356264,"name":"未命名橋樑","decorType":"bridge"},{"id":"way-1291699635","lat":23.4478696,"lon":120.2579389,"name":"未命名橋樑","decorType":"bridge"},{"id":"way-1308417364","lat":23.3531426,"lon":120.2488744,"name":"未命名森林","decorType":"forest"},{"id":"way-1308417409","lat":23.3474953,"lon":120.2566031,"name":"未命名森林","decorType":"forest"},{"id":"way-1309287878","lat":23.4211546,"lon":120.1557532,"name":"未命名水邊","decorType":"waterside"},{"id":"way-1309287882","lat":23.4214045,"lon":120.1547319,"name":"未命名水邊","decorType":"waterside"},{"id":"way-1309507709","lat":23.4162891,"lon":120.1519119,"name":"眾仁橋","decorType":"bridge"},{"id":"way-1318034668","lat":23.4519807,"lon":120.2449945,"name":"未命名橋樑","decorType":"bridge"},{"id":"way-1318034669","lat":23.4516815,"lon":120.2447621,"name":"未命名橋樑","decorType":"bridge"},{"id":"way-1345304249","lat":23.4205373,"lon":120.1555527,"name":"未命名水邊","decorType":"waterside"},{"id":"way-1345304250","lat":23.4201714,"lon":120.1554107,"name":"未命名水邊","decorType":"waterside"},{"id":"way-1345304251","lat":23.4196527,"lon":120.1552277,"name":"未命名水邊","decorType":"waterside"},{"id":"way-1345304252","lat":23.4197103,"lon":120.1549132,"name":"未命名水邊","decorType":"waterside"},{"id":"way-1345304253","lat":23.4198646,"lon":120.1542539,"name":"未命名水邊","decorType":"waterside"},{"id":"way-1345304254","lat":23.4196778,"lon":120.1546704,"name":"未命名水邊","decorType":"waterside"},{"id":"way-1345304255","lat":23.4194845,"lon":120.1537599,"name":"未命名水邊","decorType":"waterside"},{"id":"way-1345304256","lat":23.4193712,"lon":120.1541323,"name":"未命名水邊","decorType":"waterside"},{"id":"way-1345309463","lat":23.4312581,"lon":120.1561779,"name":"未命名公園","decorType":"park"},{"id":"way-1345309464","lat":23.4313847,"lon":120.1561269,"name":"未命名公園","decorType":"park"},{"id":"way-1345309467","lat":23.4314149,"lon":120.1575643,"name":"未命名公園","decorType":"park"},{"id":"way-1345338604","lat":23.4220223,"lon":120.1555494,"name":"未命名橋樑","decorType":"bridge"},{"id":"way-1347716781","lat":23.4678488,"lon":120.2413467,"name":"NET","decorType":"clothing"},{"id":"way-1348974001","lat":23.4226087,"lon":120.1568793,"name":"未命名水邊","decorType":"waterside"},{"id":"way-1348974002","lat":23.4229007,"lon":120.1573635,"name":"未命名水邊","decorType":"waterside"},{"id":"way-1348974003","lat":23.4247967,"lon":120.1575529,"name":"未命名水邊","decorType":"waterside"},{"id":"way-1348974004","lat":23.4257022,"lon":120.1567906,"name":"未命名水邊","decorType":"waterside"},{"id":"way-1348974005","lat":23.4252227,"lon":120.1567793,"name":"未命名水邊","decorType":"waterside"},{"id":"way-1348974006","lat":23.424964,"lon":120.1567881,"name":"未命名水邊","decorType":"waterside"},{"id":"way-1348974007","lat":23.4246743,"lon":120.1567956,"name":"未命名水邊","decorType":"waterside"},{"id":"way-1348974008","lat":23.424312,"lon":120.1567342,"name":"未命名水邊","decorType":"waterside"},{"id":"way-1348974009","lat":23.4246766,"lon":120.155035,"name":"未命名水邊","decorType":"waterside"},{"id":"way-1348974010","lat":23.4197196,"lon":120.1567768,"name":"未命名水邊","decorType":"waterside"},{"id":"way-1349135658","lat":23.4224711,"lon":120.1535401,"name":"未命名神社","decorType":"shrine"},{"id":"way-1349992211","lat":23.4514739,"lon":120.2560797,"name":"未命名橋樑","decorType":"bridge"},{"id":"way-1353983358","lat":23.5234132,"lon":120.2364645,"name":"景陽宮","decorType":"shrine"},{"id":"way-1360559837","lat":23.379841,"lon":120.1673035,"name":"步雲橋","decorType":"bridge"},{"id":"way-1360559839","lat":23.3798246,"lon":120.1673819,"name":"步雲橋","decorType":"bridge"},{"id":"way-1360559840","lat":23.3795105,"lon":120.1690603,"name":"布袋橋","decorType":"bridge"},{"id":"way-1360559846","lat":23.3791297,"lon":120.1608925,"name":"未命名橋樑","decorType":"bridge"},{"id":"way-1360559850","lat":23.3791053,"lon":120.1606576,"name":"未命名橋樑","decorType":"bridge"},{"id":"way-1373598621","lat":23.5247937,"lon":120.174884,"name":"未命名橋樑","decorType":"bridge"},{"id":"way-1378357592","lat":23.4581623,"lon":120.239359,"name":"朴子台福基督教會","decorType":"shrine"},{"id":"way-1408380041","lat":23.446648,"lon":120.2302787,"name":"寶龍宮","decorType":"shrine"},{"id":"way-1424309916","lat":23.4844386,"lon":120.1578866,"name":"未命名橋樑","decorType":"bridge"},{"id":"way-1424309964","lat":23.4940961,"lon":120.1794642,"name":"未命名橋樑","decorType":"bridge"},{"id":"way-1424310052","lat":23.5018451,"lon":120.1676719,"name":"未命名橋樑","decorType":"bridge"},{"id":"way-1424310055","lat":23.502059,"lon":120.1687859,"name":"未命名橋樑","decorType":"bridge"},{"id":"way-1424310060","lat":23.5012755,"lon":120.1657469,"name":"未命名橋樑","decorType":"bridge"},{"id":"way-1424310062","lat":23.501238,"lon":120.1645125,"name":"未命名橋樑","decorType":"bridge"},{"id":"way-1424310063","lat":23.5012403,"lon":120.1641519,"name":"未命名橋樑","decorType":"bridge"},{"id":"way-1427723265","lat":23.4097698,"lon":120.2565493,"name":"全家便利商店","decorType":"convenience"},{"id":"way-1429882274","lat":23.3345763,"lon":120.2441342,"name":"義竹慈化寺","decorType":"shrine"},{"id":"way-1429883913","lat":23.3272209,"lon":120.2572699,"name":"普照宮","decorType":"shrine"},{"id":"way-1430118861","lat":23.4699969,"lon":120.1459593,"name":"未命名水邊","decorType":"waterside"},{"id":"way-1430118862","lat":23.4702896,"lon":120.1469122,"name":"未命名水邊","decorType":"waterside"},{"id":"way-1430118863","lat":23.4705529,"lon":120.1472863,"name":"未命名水邊","decorType":"waterside"},{"id":"way-1430118864","lat":23.4710405,"lon":120.171948,"name":"三家福靈宮","decorType":"shrine"},{"id":"way-1430139749","lat":23.3377818,"lon":120.1384375,"name":"未命名神社","decorType":"shrine"},{"id":"way-1430139750","lat":23.3392461,"lon":120.1385936,"name":"未命名神社","decorType":"shrine"},{"id":"way-1430203174","lat":23.338425,"lon":120.1382756,"name":"魍港太聖宮","decorType":"shrine"},{"id":"way-1434034357","lat":23.3399727,"lon":120.1728231,"name":"龍宮溪","decorType":"waterside"},{"id":"way-1434034416","lat":23.3827549,"lon":120.1723218,"name":"清華祠","decorType":"shrine"},{"id":"way-1444282280","lat":23.338521,"lon":120.2478617,"name":"萊爾富","decorType":"convenience"},{"id":"way-1444282281","lat":23.4582536,"lon":120.15172,"name":"萊爾富","decorType":"convenience"},{"id":"way-1444836758","lat":23.4766174,"lon":120.1741846,"name":"三江橋","decorType":"bridge"},{"id":"way-1444836761","lat":23.393488,"lon":120.1687596,"name":"鹿草溪","decorType":"waterside"},{"id":"way-1444836762","lat":23.3930412,"lon":120.1744729,"name":"鹿草溪","decorType":"waterside"},{"id":"way-1444836763","lat":23.3936127,"lon":120.1951765,"name":"鹿草溪","decorType":"waterside"},{"id":"way-1444836764","lat":23.3930387,"lon":120.1913741,"name":"鹿草溪","decorType":"waterside"},{"id":"way-1444836765","lat":23.3926021,"lon":120.1916351,"name":"鹿草溪","decorType":"waterside"},{"id":"way-1444836766","lat":23.3920834,"lon":120.1918675,"name":"鹿草溪","decorType":"waterside"},{"id":"way-1444836767","lat":23.3923666,"lon":120.1778101,"name":"鹿草溪","decorType":"waterside"},{"id":"way-1444836768","lat":23.3917133,"lon":120.1811149,"name":"鹿草溪","decorType":"waterside"},{"id":"way-1444836769","lat":23.3915709,"lon":120.1827979,"name":"鹿草溪","decorType":"waterside"},{"id":"way-1444836770","lat":23.3914302,"lon":120.1844777,"name":"鹿草溪","decorType":"waterside"},{"id":"way-1445274404","lat":23.4051147,"lon":120.2461598,"name":"南勢橋","decorType":"bridge"},{"id":"way-1445274406","lat":23.4050546,"lon":120.2462544,"name":"南勢橋","decorType":"bridge"},{"id":"way-1445274408","lat":23.3492418,"lon":120.2552936,"name":"角帶圍橋","decorType":"bridge"},{"id":"way-1445274410","lat":23.3492729,"lon":120.2553726,"name":"角帶圍橋","decorType":"bridge"},{"id":"way-1445284137","lat":23.3711471,"lon":120.1791252,"name":"贊寮溝排水","decorType":"waterside"},{"id":"way-1445284138","lat":23.3682457,"lon":120.1783849,"name":"贊寮溝排水","decorType":"waterside"},{"id":"way-1445284139","lat":23.3682761,"lon":120.1784886,"name":"贊寮溝排水","decorType":"waterside"},{"id":"way-1445284140","lat":23.3754189,"lon":120.1836411,"name":"贊寮溝排水","decorType":"waterside"},{"id":"way-1445284141","lat":23.3764101,"lon":120.1820546,"name":"贊寮溝排水","decorType":"waterside"},{"id":"way-1445284142","lat":23.3744152,"lon":120.1863395,"name":"贊寮溝排水","decorType":"waterside"},{"id":"way-1445284143","lat":23.374435,"lon":120.1852527,"name":"贊寮溝排水","decorType":"waterside"},{"id":"way-1445284144","lat":23.3239103,"lon":120.1434441,"name":"新塭排水","decorType":"waterside"},{"id":"way-1445284145","lat":23.3244663,"lon":120.1437355,"name":"新塭排水","decorType":"waterside"},{"id":"way-1445284146","lat":23.328705,"lon":120.1453587,"name":"新塭排水","decorType":"waterside"},{"id":"way-1445284147","lat":23.3286415,"lon":120.1453553,"name":"新塭排水","decorType":"waterside"},{"id":"way-1445284148","lat":23.3339417,"lon":120.1416286,"name":"未命名水邊","decorType":"waterside"},{"id":"way-1445284149","lat":23.334011,"lon":120.1417436,"name":"未命名水邊","decorType":"waterside"},{"id":"way-1446600724","lat":23.3754108,"lon":120.1808698,"name":"贊寮溝排水","decorType":"waterside"},{"id":"way-1446600725","lat":23.3740586,"lon":120.1797619,"name":"贊寮溝排水","decorType":"waterside"},{"id":"way-1446656194","lat":23.4624534,"lon":120.156975,"name":"東榮橋","decorType":"bridge"},{"id":"way-1446656195","lat":23.4612079,"lon":120.1571158,"name":"未命名水邊","decorType":"waterside"},{"id":"way-1446656196","lat":23.4638165,"lon":120.1592247,"name":"未命名水邊","decorType":"waterside"},{"id":"way-1446656197","lat":23.4638644,"lon":120.1593195,"name":"未命名水邊","decorType":"waterside"},{"id":"way-1446656198","lat":23.4638719,"lon":120.1594409,"name":"未命名水邊","decorType":"waterside"},{"id":"way-1446656199","lat":23.4633292,"lon":120.1630328,"name":"未命名水邊","decorType":"waterside"},{"id":"way-1446656200","lat":23.4626523,"lon":120.1669318,"name":"未命名水邊","decorType":"waterside"},{"id":"way-1446656201","lat":23.4627199,"lon":120.1667597,"name":"未命名水邊","decorType":"waterside"},{"id":"way-1446656202","lat":23.4627875,"lon":120.1665877,"name":"未命名水邊","decorType":"waterside"},{"id":"way-1446656215","lat":23.4902914,"lon":120.2261785,"name":"未命名水邊","decorType":"waterside"},{"id":"way-1446656216","lat":23.4912211,"lon":120.2265982,"name":"未命名水邊","decorType":"waterside"},{"id":"way-1446656218","lat":23.503988,"lon":120.2558735,"name":"六腳橋","decorType":"bridge"},{"id":"way-1446853120","lat":23.3555488,"lon":120.2601174,"name":"八掌溪支線","decorType":"waterside"},{"id":"way-1446853121","lat":23.3576347,"lon":120.2615453,"name":"八掌溪支線","decorType":"waterside"},{"id":"way-1448039291","lat":23.4571318,"lon":120.1546894,"name":"未命名水邊","decorType":"waterside"},{"id":"way-1448039292","lat":23.4573749,"lon":120.1547215,"name":"未命名水邊","decorType":"waterside"},{"id":"way-1448039293","lat":23.4578723,"lon":120.1547887,"name":"未命名水邊","decorType":"waterside"},{"id":"way-1448039294","lat":23.4583472,"lon":120.1548535,"name":"未命名水邊","decorType":"waterside"},{"id":"way-1448039295","lat":23.4583933,"lon":120.1548603,"name":"未命名水邊","decorType":"waterside"},{"id":"way-1448039296","lat":23.4584393,"lon":120.1548672,"name":"未命名水邊","decorType":"waterside"},{"id":"way-1448039297","lat":23.4614591,"lon":120.1699429,"name":"未命名水邊","decorType":"waterside"},{"id":"way-1448039298","lat":23.4586239,"lon":120.1560772,"name":"未命名水邊","decorType":"waterside"},{"id":"way-1448039299","lat":23.4587758,"lon":120.1573357,"name":"未命名水邊","decorType":"waterside"},{"id":"way-1448039300","lat":23.4604123,"lon":120.1675906,"name":"未命名水邊","decorType":"waterside"},{"id":"way-1448039301","lat":23.4603116,"lon":120.1661937,"name":"未命名水邊","decorType":"waterside"},{"id":"way-1448039302","lat":23.4603154,"lon":120.1662465,"name":"未命名水邊","decorType":"waterside"},{"id":"way-1448039303","lat":23.460319,"lon":120.1662963,"name":"未命名水邊","decorType":"waterside"},{"id":"way-1448039304","lat":23.4603299,"lon":120.1664476,"name":"未命名水邊","decorType":"waterside"},{"id":"way-1448039305","lat":23.460341,"lon":120.1666019,"name":"未命名水邊","decorType":"waterside"},{"id":"way-1448039306","lat":23.4609646,"lon":120.1692824,"name":"未命名水邊","decorType":"waterside"},{"id":"way-1448039307","lat":23.4604851,"lon":120.1686003,"name":"未命名水邊","decorType":"waterside"},{"id":"way-1448039308","lat":23.4539749,"lon":120.2104319,"name":"未命名水邊","decorType":"waterside"},{"id":"way-1448039309","lat":23.454102,"lon":120.2104357,"name":"未命名水邊","decorType":"waterside"},{"id":"way-1448039310","lat":23.4552417,"lon":120.2114481,"name":"未命名水邊","decorType":"waterside"},{"id":"way-1448039311","lat":23.456371,"lon":120.2124922,"name":"未命名水邊","decorType":"waterside"},{"id":"way-1448039312","lat":23.4624259,"lon":120.2174456,"name":"未命名水邊","decorType":"waterside"},{"id":"way-1448039313","lat":23.462229,"lon":120.2174348,"name":"未命名水邊","decorType":"waterside"},{"id":"way-1448039314","lat":23.4562192,"lon":120.2146236,"name":"未命名水邊","decorType":"waterside"},{"id":"way-1448039315","lat":23.4568416,"lon":120.2167251,"name":"未命名水邊","decorType":"waterside"},{"id":"way-1448039316","lat":23.4568914,"lon":120.2168607,"name":"未命名水邊","decorType":"waterside"},{"id":"way-1448039317","lat":23.4568776,"lon":120.2170516,"name":"未命名水邊","decorType":"waterside"},{"id":"way-1448039318","lat":23.4578951,"lon":120.2171868,"name":"未命名水邊","decorType":"waterside"},{"id":"way-1448039319","lat":23.4589692,"lon":120.2172681,"name":"未命名水邊","decorType":"waterside"},{"id":"way-1448039320","lat":23.4616905,"lon":120.2174052,"name":"未命名水邊","decorType":"waterside"},{"id":"way-1448039321","lat":23.4611573,"lon":120.2173767,"name":"未命名水邊","decorType":"waterside"},{"id":"way-1448039323","lat":23.4623469,"lon":120.2097611,"name":"港墘橋","decorType":"bridge"},{"id":"way-1448039325","lat":23.4622566,"lon":120.2097858,"name":"港墘橋","decorType":"bridge"},{"id":"way-1452491593","lat":23.3818445,"lon":120.1927345,"name":"未命名橋樑","decorType":"bridge"},{"id":"way-1452491595","lat":23.3837383,"lon":120.1840208,"name":"未命名橋樑","decorType":"bridge"},{"id":"way-1452639772","lat":23.3817903,"lon":120.1548321,"name":"萊爾富","decorType":"convenience"},{"id":"way-1453328986","lat":23.3395298,"lon":120.2497206,"name":"義竹車站 (廢)","decorType":"station"},{"id":"way-1453328987","lat":23.3549959,"lon":120.2254042,"name":"埤子頭車站 (廢)","decorType":"park"},{"id":"way-1458226188","lat":23.3428634,"lon":120.2462402,"name":"未命名橋樑","decorType":"bridge"},{"id":"way-1462199616","lat":23.3274608,"lon":120.1590291,"name":"未命名水邊","decorType":"waterside"},{"id":"way-1462199617","lat":23.3278256,"lon":120.1590032,"name":"未命名水邊","decorType":"waterside"},{"id":"way-1462199648","lat":23.4279904,"lon":120.2229488,"name":"貴舍排水","decorType":"waterside"},{"id":"way-1462199649","lat":23.411671,"lon":120.2358434,"name":"貴舍排水","decorType":"waterside"},{"id":"way-1462199657","lat":23.3179022,"lon":120.1981183,"name":"未命名橋樑","decorType":"bridge"},{"id":"way-1462199660","lat":23.4072193,"lon":120.2428511,"name":"貴舍排水","decorType":"waterside"},{"id":"way-1462199661","lat":23.4027677,"lon":120.2498588,"name":"貴舍排水","decorType":"waterside"},{"id":"way-1462199662","lat":23.4014817,"lon":120.2518856,"name":"貴舍排水","decorType":"waterside"},{"id":"way-1462199663","lat":23.4001958,"lon":120.2539124,"name":"貴舍排水","decorType":"waterside"},{"id":"way-1462199664","lat":23.3984346,"lon":120.2571894,"name":"貴舍排水","decorType":"waterside"},{"id":"way-1462199665","lat":23.3966913,"lon":120.2604798,"name":"貴舍排水","decorType":"waterside"},{"id":"way-1462199678","lat":23.412607,"lon":120.2343785,"name":"貴舍排水","decorType":"waterside"},{"id":"way-1462199679","lat":23.4135432,"lon":120.2329137,"name":"貴舍排水","decorType":"waterside"},{"id":"way-1462199681","lat":23.4258103,"lon":120.216103,"name":"貴舍橋","decorType":"bridge"},{"id":"way-1462199696","lat":23.3281408,"lon":120.2118583,"name":"未命名水邊","decorType":"waterside"},{"id":"way-1462199697","lat":23.3234805,"lon":120.2054949,"name":"未命名水邊","decorType":"waterside"},{"id":"way-1462199698","lat":23.3329095,"lon":120.2185469,"name":"未命名水邊","decorType":"waterside"},{"id":"way-1462199699","lat":23.3327812,"lon":120.2182282,"name":"未命名水邊","decorType":"waterside"},{"id":"way-1463632026","lat":23.4188876,"lon":120.2062797,"name":"未命名水邊","decorType":"waterside"},{"id":"way-1463632027","lat":23.4186575,"lon":120.2087533,"name":"未命名水邊","decorType":"waterside"},{"id":"way-1463632028","lat":23.4184256,"lon":120.2112385,"name":"未命名水邊","decorType":"waterside"},{"id":"way-1463632029","lat":23.4182467,"lon":120.2131084,"name":"未命名水邊","decorType":"waterside"},{"id":"way-152981563","lat":23.310268,"lon":120.2526759,"name":"岸內大排水線","decorType":"waterside"},{"id":"way-154781578","lat":23.3082826,"lon":120.2500996,"name":"未命名水邊","decorType":"waterside"},{"id":"way-154781581","lat":23.3078875,"lon":120.2489934,"name":"未命名水邊","decorType":"waterside"},{"id":"way-154781588","lat":23.3064622,"lon":120.2512371,"name":"未命名水邊","decorType":"waterside"},{"id":"way-154781589","lat":23.3037583,"lon":120.236615,"name":"未命名水邊","decorType":"waterside"},{"id":"way-154781592","lat":23.3064249,"lon":120.249965,"name":"未命名水邊","decorType":"waterside"},{"id":"way-154781593","lat":23.3085816,"lon":120.249067,"name":"未命名水邊","decorType":"waterside"},{"id":"way-154781594","lat":23.3071141,"lon":120.2483257,"name":"未命名水邊","decorType":"waterside"},{"id":"way-156363756","lat":23.3371621,"lon":120.1714961,"name":"新塭橋","decorType":"bridge"},{"id":"way-156363758","lat":23.3441628,"lon":120.1618662,"name":"未命名水邊","decorType":"waterside"},{"id":"way-168443080","lat":23.4900456,"lon":120.2551116,"name":"未命名水邊","decorType":"waterside"},{"id":"way-181095096","lat":23.4791573,"lon":120.2019611,"name":"未命名橋樑","decorType":"bridge"},{"id":"way-184130091","lat":23.3137552,"lon":120.1528958,"name":"嘉南大橋","decorType":"bridge"},{"id":"way-184130093","lat":23.3136057,"lon":120.1531501,"name":"嘉南大橋","decorType":"bridge"},{"id":"way-185795229","lat":23.3803195,"lon":120.1682788,"name":"未命名水邊","decorType":"waterside"},{"id":"way-188560433","lat":23.3298444,"lon":120.258388,"name":"未命名森林","decorType":"forest"},{"id":"way-189015979","lat":23.317985,"lon":120.2392995,"name":"未命名水邊","decorType":"waterside"},{"id":"way-196601537","lat":23.3464962,"lon":120.2540315,"name":"八掌溪","decorType":"waterside"},{"id":"way-198992802","lat":23.3738188,"lon":120.155264,"name":"布袋濱海大橋","decorType":"bridge"},{"id":"way-198993034","lat":23.3796658,"lon":120.1580839,"name":"布袋濱海大橋","decorType":"bridge"},{"id":"way-198993038","lat":23.374995,"lon":120.155211,"name":"布袋二交流道","decorType":"bridge"},{"id":"way-198993039","lat":23.3797017,"lon":120.1579816,"name":"布袋濱海大橋","decorType":"bridge"},{"id":"way-216499329","lat":23.4423194,"lon":120.2140381,"name":"未命名橋樑","decorType":"bridge"},{"id":"way-216499330","lat":23.4340289,"lon":120.2391364,"name":"竹安橋","decorType":"bridge"},{"id":"way-216499331","lat":23.4357696,"lon":120.2133884,"name":"未命名橋樑","decorType":"bridge"},{"id":"way-216499333","lat":23.4221066,"lon":120.2197865,"name":"未命名橋樑","decorType":"bridge"},{"id":"way-216499334","lat":23.4385353,"lon":120.2058972,"name":"未命名橋樑","decorType":"bridge"},{"id":"way-216635673","lat":23.4427735,"lon":120.2051009,"name":"未命名橋樑","decorType":"bridge"},{"id":"way-216635675","lat":23.4430894,"lon":120.2085907,"name":"未命名橋樑","decorType":"bridge"},{"id":"way-216635678","lat":23.4355064,"lon":120.2066396,"name":"未命名橋樑","decorType":"bridge"},{"id":"way-216635679","lat":23.4478415,"lon":120.208193,"name":"未命名橋樑","decorType":"bridge"},{"id":"way-216635680","lat":23.4415239,"lon":120.2007974,"name":"未命名橋樑","decorType":"bridge"},{"id":"way-216635685","lat":23.4462099,"lon":120.2073816,"name":"未命名橋樑","decorType":"bridge"},{"id":"way-216635686","lat":23.4431646,"lon":120.2040522,"name":"未命名橋樑","decorType":"bridge"},{"id":"way-216635687","lat":23.4432244,"lon":120.2031403,"name":"未命名橋樑","decorType":"bridge"},{"id":"way-216635705","lat":23.430635,"lon":120.2081231,"name":"未命名水邊","decorType":"waterside"},{"id":"way-216635707","lat":23.4284811,"lon":120.2604411,"name":"鴨母寮大排水溝","decorType":"waterside"},{"id":"way-216635708","lat":23.4333996,"lon":120.2062801,"name":"未命名水邊","decorType":"waterside"},{"id":"way-216638247","lat":23.4263411,"lon":120.2065927,"name":"未命名橋樑","decorType":"bridge"},{"id":"way-216638248","lat":23.4307933,"lon":120.2073832,"name":"未命名橋樑","decorType":"bridge"},{"id":"way-216638251","lat":23.441193,"lon":120.2069224,"name":"未命名橋樑","decorType":"bridge"},{"id":"way-216970491","lat":23.4340767,"lon":120.2249028,"name":"順安橋","decorType":"bridge"},{"id":"way-216974772","lat":23.4525166,"lon":120.2065256,"name":"未命名橋樑","decorType":"bridge"},{"id":"way-216974787","lat":23.4518223,"lon":120.2292149,"name":"未命名橋樑","decorType":"bridge"},{"id":"way-217160559","lat":23.4334323,"lon":120.23179,"name":"未命名橋樑","decorType":"bridge"},{"id":"way-217160560","lat":23.4532523,"lon":120.2124193,"name":"未命名橋樑","decorType":"bridge"},{"id":"way-217160562","lat":23.4408144,"lon":120.2175922,"name":"未命名橋樑","decorType":"bridge"},{"id":"way-217166256","lat":23.4439226,"lon":120.2405025,"name":"未命名橋樑","decorType":"bridge"},{"id":"way-217166257","lat":23.4278179,"lon":120.214766,"name":"未命名橋樑","decorType":"bridge"},{"id":"way-217166258","lat":23.4502921,"lon":120.235394,"name":"未命名橋樑","decorType":"bridge"},{"id":"way-217166260","lat":23.4250008,"lon":120.2435516,"name":"朴南四號橋","decorType":"bridge"},{"id":"way-217166262","lat":23.4293582,"lon":120.2408036,"name":"朴南二號橋","decorType":"bridge"},{"id":"way-217166264","lat":23.4315343,"lon":120.2408224,"name":"朴南一號橋","decorType":"bridge"},{"id":"way-217166268","lat":23.4263384,"lon":120.2425076,"name":"朴南三號橋","decorType":"bridge"},{"id":"way-217166328","lat":23.4159944,"lon":120.2293181,"name":"未命名橋樑","decorType":"bridge"},{"id":"way-217166330","lat":23.448161,"lon":120.2447179,"name":"排水路橋","decorType":"bridge"},{"id":"way-217166331","lat":23.4215321,"lon":120.2467513,"name":"豐年橋","decorType":"bridge"},{"id":"way-217174642","lat":23.4181013,"lon":120.2259971,"name":"未命名橋樑","decorType":"bridge"},{"id":"way-218602554","lat":23.3505153,"lon":120.1559136,"name":"龍宮溪橋","decorType":"bridge"},{"id":"way-218602556","lat":23.3506759,"lon":120.1556118,"name":"龍宮溪橋","decorType":"bridge"},{"id":"way-218602581","lat":23.3515325,"lon":120.1330262,"name":"未命名森林","decorType":"forest"},{"id":"way-218602584","lat":23.3326975,"lon":120.1613834,"name":"新塭體育運動公園","decorType":"park"},{"id":"way-218602585","lat":23.3164034,"lon":120.1666422,"name":"未命名水邊","decorType":"waterside"},{"id":"way-218604828","lat":23.3506294,"lon":120.155711,"name":"龍宮溪橋","decorType":"bridge"},{"id":"way-218604829","lat":23.350571,"lon":120.1558103,"name":"龍宮溪橋","decorType":"bridge"},{"id":"way-218611479","lat":23.3392845,"lon":120.1705894,"name":"龍宮橋(改建工程)","decorType":"bridge"},{"id":"way-218700026","lat":23.4053216,"lon":120.1669308,"name":"龍安橋","decorType":"bridge"},{"id":"way-218700027","lat":23.4053863,"lon":120.1670181,"name":"龍安橋","decorType":"bridge"},{"id":"way-218700031","lat":23.4286556,"lon":120.1625878,"name":"東石松仔港橋","decorType":"bridge"},{"id":"way-218700032","lat":23.4287008,"lon":120.1622833,"name":"東石松仔港橋","decorType":"bridge"},{"id":"way-218700033","lat":23.4052585,"lon":120.1668619,"name":"龍安橋","decorType":"bridge"},{"id":"way-218700034","lat":23.4054827,"lon":120.1671002,"name":"龍安橋","decorType":"bridge"},{"id":"way-218700038","lat":23.4455322,"lon":120.1658182,"name":"東石濱海橋","decorType":"bridge"},{"id":"way-218700050","lat":23.42867,"lon":120.1624906,"name":"東石松仔港橋","decorType":"bridge"},{"id":"way-218700051","lat":23.4286852,"lon":120.1623884,"name":"東石松仔港橋","decorType":"bridge"},{"id":"way-218700052","lat":23.4637707,"lon":120.166984,"name":"東石一號橋","decorType":"bridge"},{"id":"way-218700054","lat":23.4455775,"lon":120.1657263,"name":"東石濱海橋","decorType":"bridge"},{"id":"way-218700057","lat":23.4456357,"lon":120.1656214,"name":"東石濱海橋","decorType":"bridge"},{"id":"way-219117450","lat":23.4913488,"lon":120.169777,"name":"鰲鼓橋","decorType":"bridge"},{"id":"way-219117452","lat":23.5133335,"lon":120.1772155,"name":"雲嘉大橋","decorType":"bridge"},{"id":"way-219117453","lat":23.51318,"lon":120.1774514,"name":"雲嘉大橋","decorType":"bridge"},{"id":"way-219117455","lat":23.4913606,"lon":120.1700761,"name":"鰲鼓橋","decorType":"bridge"},{"id":"way-219117456","lat":23.4824645,"lon":120.1962952,"name":"未命名橋樑","decorType":"bridge"},{"id":"way-219117457","lat":23.4807809,"lon":120.1992669,"name":"港口大橋","decorType":"bridge"},{"id":"way-219117463","lat":23.4897897,"lon":120.2002199,"name":"下揖橋","decorType":"bridge"},{"id":"way-219117480","lat":23.5060598,"lon":120.1407543,"name":"未命名水邊","decorType":"waterside"},{"id":"way-219117481","lat":23.5114704,"lon":120.1481962,"name":"未命名森林","decorType":"forest"},{"id":"way-219117483","lat":23.5041255,"lon":120.1384019,"name":"未命名水邊","decorType":"waterside"},{"id":"way-219246404","lat":23.5132801,"lon":120.1772921,"name":"雲嘉大橋","decorType":"bridge"},{"id":"way-219246405","lat":23.5132257,"lon":120.1773798,"name":"雲嘉大橋","decorType":"bridge"},{"id":"way-219246410","lat":23.4913748,"lon":120.1698813,"name":"鰲鼓橋","decorType":"bridge"},{"id":"way-219246412","lat":23.4913576,"lon":120.1699812,"name":"鰲鼓橋","decorType":"bridge"},{"id":"way-219246414","lat":23.4637837,"lon":120.1668841,"name":"東石一號橋","decorType":"bridge"},{"id":"way-222297027","lat":23.4516144,"lon":120.2491843,"name":"朴子交流道","decorType":"bridge"},{"id":"way-222297028","lat":23.4525617,"lon":120.2382963,"name":"朴子交流道","decorType":"bridge"},{"id":"way-222297029","lat":23.4523873,"lon":120.2382639,"name":"朴子交流道","decorType":"bridge"},{"id":"way-222297030","lat":23.4518327,"lon":120.2492276,"name":"朴子交流道","decorType":"bridge"},{"id":"way-222297064","lat":23.4747498,"lon":120.2446502,"name":"朴子大橋","decorType":"bridge"},{"id":"way-222297065","lat":23.4747249,"lon":120.2447507,"name":"朴子大橋","decorType":"bridge"},{"id":"way-222942933","lat":23.45063,"lon":120.137701,"name":"東石漁港","decorType":"waterside"},{"id":"way-222942934","lat":23.3806044,"lon":120.1577966,"name":"未命名水邊","decorType":"waterside"},{"id":"way-222942938","lat":23.383236,"lon":120.1574398,"name":"未命名水邊","decorType":"waterside"},{"id":"way-222942940","lat":23.4365947,"lon":120.1464506,"name":"未命名水邊","decorType":"waterside"},{"id":"way-222942941","lat":23.4382951,"lon":120.1465624,"name":"未命名水邊","decorType":"waterside"},{"id":"way-223132397","lat":23.4749895,"lon":120.1483807,"name":"未命名水邊","decorType":"waterside"},{"id":"way-223132428","lat":23.4679871,"lon":120.1435089,"name":"塭港第二漁港","decorType":"waterside"},{"id":"way-223132430","lat":23.4735791,"lon":120.1464293,"name":"塭港第一漁港","decorType":"waterside"},{"id":"way-223132443","lat":23.4922403,"lon":120.1626708,"name":"六腳大排","decorType":"waterside"},{"id":"way-223132447","lat":23.4648132,"lon":120.1461994,"name":"下庄漁港","decorType":"waterside"},{"id":"way-242678947","lat":23.4558211,"lon":120.1959222,"name":"東西向快速公路 東石嘉義線","decorType":"bridge"},{"id":"way-242678948","lat":23.4556885,"lon":120.195876,"name":"東西向快速公路 東石嘉義線","decorType":"bridge"},{"id":"way-242678949","lat":23.4544981,"lon":120.2105083,"name":"東西向快速公路 東石嘉義線","decorType":"bridge"},{"id":"way-242678950","lat":23.4543617,"lon":120.2104855,"name":"東西向快速公路 東石嘉義線","decorType":"bridge"},{"id":"way-242678951","lat":23.4590358,"lon":120.1777721,"name":"東石大橋","decorType":"bridge"},{"id":"way-242678952","lat":23.4589573,"lon":120.1777514,"name":"東石大橋","decorType":"bridge"},{"id":"way-244644183","lat":23.4070387,"lon":120.2556413,"name":"牛挑灣埤生態園區","decorType":"waterside"},{"id":"way-244644472","lat":23.4078138,"lon":120.256563,"name":"未命名水邊","decorType":"waterside"},{"id":"way-244644654","lat":23.4079098,"lon":120.2557637,"name":"未命名橋樑","decorType":"bridge"},{"id":"way-244644655","lat":23.4077234,"lon":120.2559192,"name":"未命名橋樑","decorType":"bridge"},{"id":"way-244644658","lat":23.4085448,"lon":120.255655,"name":"未命名橋樑","decorType":"bridge"},{"id":"way-255671787","lat":23.4654351,"lon":120.2469318,"name":"金臻圖書館","decorType":"library"},{"id":"way-255672567","lat":23.466174,"lon":120.2464385,"name":"朴子郵局","decorType":"post_office"},{"id":"way-255678030","lat":23.4678939,"lon":120.2452816,"name":"配天宮","decorType":"shrine"},{"id":"way-255698315","lat":23.4672086,"lon":120.2542471,"name":"梅嶺美術館","decorType":"art_gallery"},{"id":"way-274771902","lat":23.5052011,"lon":120.2254104,"name":"松山大橋","decorType":"bridge"},{"id":"way-277747757","lat":23.4490035,"lon":120.1359395,"name":"人造沙灘區","decorType":"beach"},{"id":"way-284589926","lat":23.5016445,"lon":120.2548373,"name":"未命名橋樑","decorType":"bridge"},{"id":"way-284589943","lat":23.5015768,"lon":120.2548512,"name":"未命名橋樑","decorType":"bridge"},{"id":"way-284589966","lat":23.522701,"lon":120.2420518,"name":"六腳大排水溝","decorType":"waterside"},{"id":"way-286360013","lat":23.4560928,"lon":120.2440426,"name":"朴仔腳萬善廟","decorType":"shrine"},{"id":"way-286384573","lat":23.4559199,"lon":120.2438087,"name":"南威府囝仔公廟","decorType":"shrine"},{"id":"way-291710427","lat":23.3733954,"lon":120.1952113,"name":"前東港大排","decorType":"waterside"},{"id":"way-291716360","lat":23.379089,"lon":120.1603492,"name":"未命名橋樑","decorType":"bridge"},{"id":"way-291716361","lat":23.3791187,"lon":120.1607925,"name":"未命名橋樑","decorType":"bridge"},{"id":"way-291716365","lat":23.3791073,"lon":120.160694,"name":"未命名橋樑","decorType":"bridge"},{"id":"way-291716373","lat":23.3792484,"lon":120.1594673,"name":"未命名橋樑","decorType":"bridge"},{"id":"way-291716403","lat":23.3788874,"lon":120.1648651,"name":"未命名水邊","decorType":"waterside"},{"id":"way-291716404","lat":23.3388494,"lon":120.199787,"name":"新店大排","decorType":"waterside"},{"id":"way-291716407","lat":23.3754723,"lon":120.1609001,"name":"未命名水邊","decorType":"waterside"},{"id":"way-291716409","lat":23.3796473,"lon":120.1628694,"name":"未命名水邊","decorType":"waterside"},{"id":"way-294543535","lat":23.3315883,"lon":120.1573672,"name":"未命名水邊","decorType":"waterside"},{"id":"way-297041730","lat":23.3272599,"lon":120.1920131,"name":"未命名水邊","decorType":"waterside"},{"id":"way-310343918","lat":23.5038551,"lon":120.2620715,"name":"未命名水邊","decorType":"waterside"},{"id":"way-310483851","lat":23.4927411,"lon":120.2287638,"name":"未命名水邊","decorType":"waterside"},{"id":"way-337361811","lat":23.3803221,"lon":120.1803932,"name":"金華山堂","decorType":"shrine"},{"id":"way-337361813","lat":23.3811597,"lon":120.1800066,"name":"見龍宮","decorType":"shrine"},{"id":"way-344259073","lat":23.353084,"lon":120.1983966,"name":"後鎮大排","decorType":"waterside"},{"id":"way-344259074","lat":23.3713606,"lon":120.1670709,"name":"贊寮溝排水","decorType":"waterside"},{"id":"way-344268910","lat":23.4190441,"lon":120.1750042,"name":"未命名水邊","decorType":"waterside"},{"id":"way-344268911","lat":23.4192708,"lon":120.1730821,"name":"未命名水邊","decorType":"waterside"},{"id":"way-344268912","lat":23.4245278,"lon":120.1661569,"name":"白水湖滯洪池","decorType":"waterside"},{"id":"way-344268918","lat":23.4491619,"lon":120.1918485,"name":"未命名橋樑","decorType":"bridge"},{"id":"way-344268925","lat":23.4582332,"lon":120.2008397,"name":"港墘排水溝","decorType":"waterside"},{"id":"way-344268926","lat":23.4132749,"lon":120.167373,"name":"未命名水邊","decorType":"waterside"},{"id":"way-344268927","lat":23.4600703,"lon":120.2173241,"name":"未命名水邊","decorType":"waterside"},{"id":"way-344268928","lat":23.4150587,"lon":120.1762921,"name":"未命名水邊","decorType":"waterside"},{"id":"way-344272850","lat":23.4550439,"lon":120.2349223,"name":"竹圍中排","decorType":"waterside"},{"id":"way-344296076","lat":23.3990366,"lon":120.1641189,"name":"未命名水邊","decorType":"waterside"},{"id":"way-344296077","lat":23.3913977,"lon":120.1646421,"name":"未命名水邊","decorType":"waterside"},{"id":"way-344296093","lat":23.3918403,"lon":120.1879263,"name":"鹿草溪","decorType":"waterside"},{"id":"way-344296095","lat":23.4081806,"lon":120.1787905,"name":"未命名水邊","decorType":"waterside"},{"id":"way-344473688","lat":23.5161025,"lon":120.2250552,"name":"未命名水邊","decorType":"waterside"},{"id":"way-349750990","lat":23.5157681,"lon":120.2530309,"name":"海子溝","decorType":"waterside"},{"id":"way-351147263","lat":23.5247563,"lon":120.1623488,"name":"未命名水邊","decorType":"waterside"},{"id":"way-351147270","lat":23.5249616,"lon":120.1561095,"name":"未命名水邊","decorType":"waterside"},{"id":"way-351147273","lat":23.5241468,"lon":120.1621297,"name":"未命名水邊","decorType":"waterside"},{"id":"way-351147276","lat":23.5233879,"lon":120.1620415,"name":"未命名水邊","decorType":"waterside"},{"id":"way-351147280","lat":23.5235994,"lon":120.1604368,"name":"未命名水邊","decorType":"waterside"},{"id":"way-351147282","lat":23.5243163,"lon":120.1581525,"name":"未命名水邊","decorType":"waterside"},{"id":"way-351147283","lat":23.5249501,"lon":120.1591973,"name":"未命名水邊","decorType":"waterside"},{"id":"way-351147285","lat":23.5243222,"lon":120.1598094,"name":"未命名水邊","decorType":"waterside"},{"id":"way-351147287","lat":23.5245112,"lon":120.1572699,"name":"未命名水邊","decorType":"waterside"},{"id":"way-351147288","lat":23.5244717,"lon":120.1590923,"name":"未命名水邊","decorType":"waterside"},{"id":"way-351147289","lat":23.5229559,"lon":120.1632271,"name":"未命名水邊","decorType":"waterside"},{"id":"way-351147290","lat":23.5225636,"lon":120.1654739,"name":"未命名水邊","decorType":"waterside"},{"id":"way-351147292","lat":23.5249632,"lon":120.1598855,"name":"未命名水邊","decorType":"waterside"},{"id":"way-351147295","lat":23.5241636,"lon":120.1606669,"name":"未命名水邊","decorType":"waterside"},{"id":"way-351147296","lat":23.523908,"lon":120.1590171,"name":"未命名水邊","decorType":"waterside"},{"id":"way-351147297","lat":23.5204195,"lon":120.1652702,"name":"未命名水邊","decorType":"waterside"},{"id":"way-351147298","lat":23.5247469,"lon":120.1609495,"name":"未命名水邊","decorType":"waterside"},{"id":"way-351196150","lat":23.5209511,"lon":120.1633682,"name":"未命名水邊","decorType":"waterside"},{"id":"way-351196155","lat":23.5187647,"lon":120.1668851,"name":"未命名水邊","decorType":"waterside"},{"id":"way-351196157","lat":23.516161,"lon":120.1653372,"name":"未命名水邊","decorType":"waterside"},{"id":"way-351196160","lat":23.5235932,"lon":120.1632324,"name":"未命名水邊","decorType":"waterside"},{"id":"way-351196167","lat":23.5194589,"lon":120.1633783,"name":"未命名水邊","decorType":"waterside"},{"id":"way-351196169","lat":23.517282,"lon":120.1643452,"name":"未命名水邊","decorType":"waterside"},{"id":"way-351196171","lat":23.5185136,"lon":120.1628796,"name":"未命名水邊","decorType":"waterside"},{"id":"way-351196174","lat":23.5190829,"lon":120.1651999,"name":"未命名水邊","decorType":"waterside"},{"id":"way-351196176","lat":23.5224532,"lon":120.1643917,"name":"未命名水邊","decorType":"waterside"},{"id":"way-351196177","lat":23.5177461,"lon":120.1665449,"name":"未命名水邊","decorType":"waterside"},{"id":"way-351196178","lat":23.5167829,"lon":120.1656491,"name":"未命名水邊","decorType":"waterside"},{"id":"way-351196180","lat":23.5241819,"lon":120.163274,"name":"未命名水邊","decorType":"waterside"},{"id":"way-351196192","lat":23.5178186,"lon":120.1646942,"name":"未命名水邊","decorType":"waterside"},{"id":"way-351196197","lat":23.5172724,"lon":120.1659181,"name":"未命名水邊","decorType":"waterside"},{"id":"way-351196206","lat":23.5169139,"lon":120.1637305,"name":"未命名水邊","decorType":"waterside"},{"id":"way-351196207","lat":23.5199223,"lon":120.1670649,"name":"未命名水邊","decorType":"waterside"},{"id":"way-351196214","lat":23.5192403,"lon":120.1645969,"name":"未命名水邊","decorType":"waterside"},{"id":"way-351196216","lat":23.5193948,"lon":120.1658953,"name":"未命名水邊","decorType":"waterside"},{"id":"way-351196219","lat":23.5249258,"lon":120.1640828,"name":"未命名水邊","decorType":"waterside"},{"id":"way-351196226","lat":23.5179443,"lon":120.1626041,"name":"未命名水邊","decorType":"waterside"},{"id":"way-351196232","lat":23.5210567,"lon":120.166424,"name":"未命名水邊","decorType":"waterside"},{"id":"way-361900299","lat":23.4184563,"lon":120.1781638,"name":"未命名橋樑","decorType":"bridge"},{"id":"way-364734263","lat":23.3069273,"lon":120.1498759,"name":"西部濱海快速公路","decorType":"bridge"},{"id":"way-364794249","lat":23.4457037,"lon":120.1655201,"name":"東石濱海橋","decorType":"bridge"},{"id":"way-374410619","lat":23.4935311,"lon":120.170812,"name":"未命名水邊","decorType":"waterside"},{"id":"way-374410620","lat":23.4920549,"lon":120.1748203,"name":"未命名水邊","decorType":"waterside"},{"id":"way-374410621","lat":23.4664119,"lon":120.1470393,"name":"未命名水邊","decorType":"waterside"},{"id":"way-374410622","lat":23.4920247,"lon":120.1754876,"name":"未命名水邊","decorType":"waterside"},{"id":"way-374410731","lat":23.496038,"lon":120.1759449,"name":"未命名水邊","decorType":"waterside"},{"id":"way-374410732","lat":23.487335,"lon":120.1609984,"name":"未命名水邊","decorType":"waterside"},{"id":"way-374410733","lat":23.4785781,"lon":120.1567654,"name":"未命名水邊","decorType":"waterside"},{"id":"way-374414421","lat":23.4481661,"lon":120.244811,"name":"排水路橋","decorType":"bridge"},{"id":"way-374414422","lat":23.4214835,"lon":120.2468229,"name":"豐年橋","decorType":"bridge"},{"id":"way-374414455","lat":23.4526643,"lon":120.2476543,"name":"西大糠榔中排","decorType":"waterside"},{"id":"way-374417639","lat":23.3820479,"lon":120.2002125,"name":"未命名水邊","decorType":"waterside"},{"id":"way-374417640","lat":23.4155535,"lon":120.1508108,"name":"未命名水邊","decorType":"waterside"},{"id":"way-374417641","lat":23.4115231,"lon":120.1580376,"name":"未命名水邊","decorType":"waterside"},{"id":"way-374417642","lat":23.4177598,"lon":120.1544303,"name":"未命名水邊","decorType":"waterside"},{"id":"way-374417643","lat":23.4215922,"lon":120.1522889,"name":"未命名水邊","decorType":"waterside"},{"id":"way-374417644","lat":23.4371297,"lon":120.1566156,"name":"未命名水邊","decorType":"waterside"},{"id":"way-374585852","lat":23.3330484,"lon":120.132418,"name":"未命名水邊","decorType":"waterside"},{"id":"way-374587152","lat":23.3513106,"lon":120.1871229,"name":"未命名水邊","decorType":"waterside"},{"id":"way-374587153","lat":23.3508615,"lon":120.1889512,"name":"未命名水邊","decorType":"waterside"},{"id":"way-374588699","lat":23.3616903,"lon":120.1964105,"name":"未命名水邊","decorType":"waterside"},{"id":"way-374926920","lat":23.4335629,"lon":120.1657081,"name":"未命名水邊","decorType":"waterside"},{"id":"way-374926921","lat":23.3924622,"lon":120.1684956,"name":"未命名水邊","decorType":"waterside"},{"id":"way-374926941","lat":23.4420256,"lon":120.1600496,"name":"未命名水邊","decorType":"waterside"},