{"bbox":{"south":23.525,"north":23.746875,"west":120.525,"east":120.65625},"pois":[{"id":"node-10091554585","lat":23.7055039,"lon":120.5490492,"name":"震天府","decorType":"shrine"},{"id":"node-10103231182","lat":23.6415129,"lon":120.6054659,"name":"高厝林子頭山","decorType":"mountain"},{"id":"node-10103286072","lat":23.5863504,"lon":120.601052,"name":"龜子頭山西北","decorType":"mountain"},{"id":"node-10105436427","lat":23.5861764,"lon":120.6219416,"name":"頂尖觀光餐廳","decorType":"restaurant"},{"id":"node-10129334229","lat":23.6808434,"lon":120.5385053,"name":"美廉社","decorType":"supermarket"},{"id":"node-10129334238","lat":23.7233435,"lon":120.5819497,"name":"美廉社","decorType":"supermarket"},{"id":"node-10143076624","lat":23.7177865,"lon":120.5502924,"name":"育英北街路口","decorType":"bus_stop"},{"id":"node-10143076625","lat":23.7174445,"lon":120.5504344,"name":"育英北街路口","decorType":"bus_stop"},{"id":"node-10143076632","lat":23.7233335,"lon":120.5458436,"name":"萬年路173巷口","decorType":"bus_stop"},{"id":"node-10143076633","lat":23.7233455,"lon":120.5456616,"name":"萬年路173巷口","decorType":"bus_stop"},{"id":"node-10143076634","lat":23.7123799,"lon":120.5321163,"name":"台電公司雲林區處","decorType":"bus_stop"},{"id":"node-10143076639","lat":23.6959887,"lon":120.5336507,"name":"雲林科技大學","decorType":"bus_stop"},{"id":"node-10143076640","lat":23.6962805,"lon":120.5334886,"name":"雲林科技大學","decorType":"bus_stop"},{"id":"node-10143076641","lat":23.6964247,"lon":120.5278947,"name":"稅務局(雲林縣政府)","decorType":"bus_stop"},{"id":"node-10143076642","lat":23.7009576,"lon":120.5412599,"name":"水岸藝術公園","decorType":"bus_stop"},{"id":"node-10143076643","lat":23.6985555,"lon":120.5419982,"name":"鎮南國小","decorType":"bus_stop"},{"id":"node-10143076644","lat":23.698772,"lon":120.5417126,"name":"鎮南國小","decorType":"bus_stop"},{"id":"node-10143076649","lat":23.7037222,"lon":120.5499803,"name":"受天宮","decorType":"bus_stop"},{"id":"node-10143076650","lat":23.7038092,"lon":120.5499273,"name":"受天宮","decorType":"bus_stop"},{"id":"node-10143076651","lat":23.7038222,"lon":120.5500163,"name":"受天宮","decorType":"bus_stop"},{"id":"node-10143076652","lat":23.7037652,"lon":120.5500163,"name":"受天宮","decorType":"bus_stop"},{"id":"node-10143076653","lat":23.7109821,"lon":120.5456769,"name":"斗六高中(文化路)","decorType":"bus_stop"},{"id":"node-10143076654","lat":23.7109167,"lon":120.5458726,"name":"斗六高中(文化路)","decorType":"bus_stop"},{"id":"node-10143076657","lat":23.7132593,"lon":120.5513699,"name":"斗六國中","decorType":"bus_stop"},{"id":"node-10143076658","lat":23.7132613,"lon":120.5513229,"name":"斗六國中","decorType":"bus_stop"},{"id":"node-10143076659","lat":23.6402295,"lon":120.5605165,"name":"福祿壽酒廠","decorType":"bus_stop"},{"id":"node-10143076660","lat":23.6404795,"lon":120.5605575,"name":"福祿壽酒廠","decorType":"bus_stop"},{"id":"node-10143076665","lat":23.6453862,"lon":120.561881,"name":"古坑嘉興宮","decorType":"bus_stop"},{"id":"node-10143076666","lat":23.6454984,"lon":120.5619848,"name":"古坑嘉興宮","decorType":"bus_stop"},{"id":"node-10143076676","lat":23.6909698,"lon":120.5382991,"name":"雲林科技大學","decorType":"bus_stop"},{"id":"node-10143076677","lat":23.6910218,"lon":120.5383951,"name":"雲林科技大學","decorType":"bus_stop"},{"id":"node-10143076679","lat":23.7077681,"lon":120.5393958,"name":"雲中街","decorType":"bus_stop"},{"id":"node-10143076680","lat":23.7077381,"lon":120.5395568,"name":"雲中街","decorType":"bus_stop"},{"id":"node-10143076681","lat":23.701186,"lon":120.5289245,"name":"雲林監理站","decorType":"bus_stop"},{"id":"node-10143076682","lat":23.7117938,"lon":120.5403466,"name":"斗六火車站","decorType":"bus_stop"},{"id":"node-10143076683","lat":23.7118017,"lon":120.5403597,"name":"斗六火車站","decorType":"bus_stop"},{"id":"node-10143076695","lat":23.735498,"lon":120.545711,"name":"雲科工業區服務中心","decorType":"bus_stop"},{"id":"node-10143076696","lat":23.735037,"lon":120.546098,"name":"雲科工業區服務中心","decorType":"bus_stop"},{"id":"node-10143076697","lat":23.729658,"lon":120.551507,"name":"萬年庄","decorType":"bus_stop"},{"id":"node-10143076698","lat":23.7184778,"lon":120.5431613,"name":"明德北路一段路口","decorType":"bus_stop"},{"id":"node-10143076699","lat":23.680557,"lon":120.5581266,"name":"環球科技大學","decorType":"bus_stop"},{"id":"node-10143076700","lat":23.68067,"lon":120.558132,"name":"環球科技大學","decorType":"bus_stop"},{"id":"node-10143076701","lat":23.681047,"lon":120.552052,"name":"勞工育樂中心(鵝媽媽鵝童樂園)","decorType":"bus_stop"},{"id":"node-10143076702","lat":23.680711,"lon":120.552148,"name":"勞工育樂中心(鵝媽媽鵝童樂園)","decorType":"bus_stop"},{"id":"node-10143076703","lat":23.70294,"lon":120.544568,"name":"成大醫院","decorType":"bus_stop"},{"id":"node-10143076704","lat":23.702725,"lon":120.544708,"name":"成大醫院","decorType":"bus_stop"},{"id":"node-10143076705","lat":23.700044,"lon":120.543999,"name":"社口遊客中心","decorType":"bus_stop"},{"id":"node-10143076706","lat":23.699932,"lon":120.544229,"name":"社口遊客中心","decorType":"bus_stop"},{"id":"node-10143076707","lat":23.702306,"lon":120.530365,"name":"慈濟斗六分院","decorType":"bus_stop"},{"id":"node-10143076708","lat":23.7073455,"lon":120.5376975,"name":"鎮西國小","decorType":"bus_stop"},{"id":"node-10143076709","lat":23.71181,"lon":120.5403722,"name":"斗六火車站","decorType":"bus_stop"},{"id":"node-10143076710","lat":23.717383,"lon":120.542738,"name":"鎮北里","decorType":"bus_stop"},{"id":"node-10143076711","lat":23.717453,"lon":120.54259,"name":"鎮北里","decorType":"bus_stop"},{"id":"node-10143076712","lat":23.7163576,"lon":120.5368921,"name":"斗六棒球場","decorType":"bus_stop"},{"id":"node-10143105829","lat":23.702961,"lon":120.544572,"name":"成大醫院","decorType":"bus_stop"},{"id":"node-10143105830","lat":23.6812943,"lon":120.5551827,"name":"環球科技大學側門","decorType":"bus_stop"},{"id":"node-10143105831","lat":23.6678498,"lon":120.580278,"name":"荷苞厝","decorType":"bus_stop"},{"id":"node-10143105832","lat":23.6811186,"lon":120.5552299,"name":"環球科技大學側門","decorType":"bus_stop"},{"id":"node-10143105833","lat":23.6147114,"lon":120.5774021,"name":"劍湖山世界","decorType":"bus_stop"},{"id":"node-10143105834","lat":23.7,"lon":120.54416,"name":"社口遊客中心","decorType":"bus_stop"},{"id":"node-10143105835","lat":23.6145782,"lon":120.5776438,"name":"劍湖山世界","decorType":"bus_stop"},{"id":"node-10143105836","lat":23.69992,"lon":120.544183,"name":"社口遊客中心","decorType":"bus_stop"},{"id":"node-10143105841","lat":23.7018,"lon":120.54112,"name":"水岸藝術公園","decorType":"bus_stop"},{"id":"node-10143105842","lat":23.705944,"lon":120.535534,"name":"雲林溪","decorType":"bus_stop"},{"id":"node-10143105843","lat":23.6807,"lon":120.5521,"name":"勞工育樂中心","decorType":"bus_stop"},{"id":"node-10143105844","lat":23.68073,"lon":120.55213,"name":"勞工育樂中心","decorType":"bus_stop"},{"id":"node-10143105845","lat":23.6835746,"lon":120.5691871,"name":"東和","decorType":"bus_stop"},{"id":"node-10183153370","lat":23.7004842,"lon":120.5560939,"name":"美廉社","decorType":"supermarket"},{"id":"node-10183153372","lat":23.7094794,"lon":120.5461806,"name":"蝦皮店到店","decorType":"convenience"},{"id":"node-10183153373","lat":23.7114209,"lon":120.5511163,"name":"蝦皮店到店","decorType":"convenience"},{"id":"node-10237999193","lat":23.708225,"lon":120.5414636,"name":"老街碗粿","decorType":"restaurant"},{"id":"node-10252446114","lat":23.7125359,"lon":120.5349887,"name":"萊爾富","decorType":"convenience"},{"id":"node-10252446115","lat":23.7124694,"lon":120.5345881,"name":"蝦皮店到店","decorType":"convenience"},{"id":"node-10298524037","lat":23.706365,"lon":120.5399247,"name":"蝦皮店到店","decorType":"convenience"},{"id":"node-10298524038","lat":23.7001197,"lon":120.5273729,"name":"蝦皮店到店","decorType":"convenience"},{"id":"node-10777981352","lat":23.7298193,"lon":120.5915112,"name":"八方雲集","decorType":"burger"},{"id":"node-10777981353","lat":23.7298714,"lon":120.5915573,"name":"弘爺漢堡","decorType":"burger"},{"id":"node-10777981372","lat":23.7233407,"lon":120.5839531,"name":"50嵐","decorType":"cafe"},{"id":"node-10777981373","lat":23.7230745,"lon":120.584082,"name":"清心福全","decorType":"cafe"},{"id":"node-10780849015","lat":23.7332726,"lon":120.5335661,"name":"7-Eleven","decorType":"convenience"},{"id":"node-10821307326","lat":23.7107154,"lon":120.541516,"name":"漢堡王","decorType":"burger"},{"id":"node-10821307327","lat":23.7110121,"lon":120.5417065,"name":"摩斯漢堡","decorType":"burger"},{"id":"node-10821307328","lat":23.710913,"lon":120.5417559,"name":"Nike","decorType":"clothing"},{"id":"node-10836585690","lat":23.698425,"lon":120.5277616,"name":"7-Eleven","decorType":"convenience"},{"id":"node-10882761782","lat":23.6446639,"lon":120.5621919,"name":"OK超商","decorType":"convenience"},{"id":"node-10915454874","lat":23.7169794,"lon":120.5511799,"name":"全家便利商店","decorType":"convenience"},{"id":"node-10915454887","lat":23.7137375,"lon":120.5474345,"name":"OK超商","decorType":"convenience"},{"id":"node-10915454905","lat":23.7086453,"lon":120.5493227,"name":"全家便利商店","decorType":"convenience"},{"id":"node-10917228725","lat":23.7052115,"lon":120.5511269,"name":"全家便利商店","decorType":"convenience"},{"id":"node-10917228732","lat":23.7047096,"lon":120.5517063,"name":"大樹藥局","decorType":"pharmacy"},{"id":"node-10917228743","lat":23.7041125,"lon":120.5511181,"name":"85度C","decorType":"cafe"},{"id":"node-10917228764","lat":23.7033874,"lon":120.5444663,"name":"萊爾富","decorType":"convenience"},{"id":"node-10921366726","lat":23.7086833,"lon":120.5469114,"name":"7-Eleven","decorType":"convenience"},{"id":"node-10921366754","lat":23.7104381,"lon":120.5398545,"name":"寶雅","decorType":"pharmacy"},{"id":"node-10926429965","lat":23.7101765,"lon":120.5340022,"name":"萊爾富","decorType":"convenience"},{"id":"node-10926430024","lat":23.7053542,"lon":120.5344458,"name":"7-Eleven","decorType":"convenience"},{"id":"node-10926430025","lat":23.7045331,"lon":120.533741,"name":"全家便利商店","decorType":"convenience"},{"id":"node-10931057337","lat":23.7010064,"lon":120.5351164,"name":"蝦皮店到店","decorType":"convenience"},{"id":"node-10967377588","lat":23.7022843,"lon":120.5371518,"name":"Adidas Originals","decorType":"clothing"},{"id":"node-10967377589","lat":23.7022066,"lon":120.536851,"name":"大樹藥局","decorType":"pharmacy"},{"id":"node-10967377590","lat":23.7020245,"lon":120.5368413,"name":"DONUTS COFFEE","decorType":"cafe"},{"id":"node-10967377593","lat":23.7001803,"lon":120.5369202,"name":"85度C","decorType":"cafe"},{"id":"node-10967377604","lat":23.7017979,"lon":120.5383251,"name":"50嵐","decorType":"cafe"},{"id":"node-10967389212","lat":23.7024568,"lon":120.5406598,"name":"路易莎咖啡","decorType":"cafe"},{"id":"node-10967389217","lat":23.6990051,"lon":120.5420182,"name":"燦坤3C","decorType":"electronics"},{"id":"node-10967389218","lat":23.6991473,"lon":120.5419551,"name":"聚 日式鍋物","decorType":"restaurant"},{"id":"node-10967389219","lat":23.699376,"lon":120.5418848,"name":"寶家五金","decorType":"hardware"},{"id":"node-10967389220","lat":23.6983496,"lon":120.537208,"name":"7-Eleven","decorType":"convenience"},{"id":"node-10967389226","lat":23.6993677,"lon":120.5257142,"name":"OK超商","decorType":"convenience"},{"id":"node-10967389227","lat":23.6985328,"lon":120.5250865,"name":"7-Eleven","decorType":"convenience"},{"id":"node-10967389230","lat":23.6917248,"lon":120.5284828,"name":"全家便利商店","decorType":"convenience"},{"id":"node-10967389231","lat":23.6921477,"lon":120.529598,"name":"全家便利商店","decorType":"convenience"},{"id":"node-10967389232","lat":23.6919708,"lon":120.529281,"name":"7-Eleven","decorType":"convenience"},{"id":"node-10970118015","lat":23.7183959,"lon":120.5352349,"name":"多那之咖啡","decorType":"cafe"},{"id":"node-11147670204","lat":23.7049454,"lon":120.5368182,"name":"全聯福利中心","decorType":"supermarket"},{"id":"node-11147691005","lat":23.7039771,"lon":120.5371892,"name":"小北百貨","decorType":"cosmetics"},{"id":"node-11304228336","lat":23.5328433,"lon":120.6024952,"name":"未命名便利商店","decorType":"convenience"},{"id":"node-11415361334","lat":23.7078035,"lon":120.5478187,"name":"斗六家商","decorType":"bus_stop"},{"id":"node-11415361335","lat":23.7048636,"lon":120.5515797,"name":"二吉軒","decorType":"bus_stop"},{"id":"node-11415361340","lat":23.7007632,"lon":120.5556673,"name":"番子溝","decorType":"bus_stop"},{"id":"node-11415361341","lat":23.6895254,"lon":120.5643453,"name":"天下一家","decorType":"bus_stop"},{"id":"node-11415361342","lat":23.6896476,"lon":120.5641136,"name":"天下一家","decorType":"bus_stop"},{"id":"node-11415361343","lat":23.6856467,"lon":120.5672356,"name":"東和國中","decorType":"bus_stop"},{"id":"node-11415361344","lat":23.6852136,"lon":120.5673427,"name":"東和國中","decorType":"bus_stop"},{"id":"node-11415361345","lat":23.6805165,"lon":120.5690541,"name":"南東和","decorType":"bus_stop"},{"id":"node-11415361346","lat":23.6803965,"lon":120.5692276,"name":"南東和","decorType":"bus_stop"},{"id":"node-11415361347","lat":23.674565,"lon":120.5690996,"name":"高林","decorType":"bus_stop"},{"id":"node-11415361348","lat":23.674406,"lon":120.5689664,"name":"高林","decorType":"bus_stop"},{"id":"node-11415361349","lat":23.6696176,"lon":120.5651939,"name":"田中央","decorType":"bus_stop"},{"id":"node-11415361350","lat":23.669487,"lon":120.5652037,"name":"田中央","decorType":"bus_stop"},{"id":"node-11415631128","lat":23.6169655,"lon":120.5715596,"name":"湖仔寮","decorType":"bus_stop"},{"id":"node-11415631129","lat":23.6171239,"lon":120.5707703,"name":"湖仔寮","decorType":"bus_stop"},{"id":"node-11415631139","lat":23.5974954,"lon":120.6035601,"name":"長源","decorType":"bus_stop"},{"id":"node-11415631140","lat":23.5978048,"lon":120.6122461,"name":"蜈蜞坪","decorType":"bus_stop"},{"id":"node-11415631141","lat":23.5978174,"lon":120.6205603,"name":"仙地咖啡","decorType":"bus_stop"},{"id":"node-11415631142","lat":23.608442,"lon":120.6420322,"name":"清水溪橋","decorType":"bus_stop"},{"id":"node-11426862326","lat":23.5847186,"lon":120.6166965,"name":"蓮花池","decorType":"waterside"},{"id":"node-11452045581","lat":23.7096709,"lon":120.5426338,"name":"蓁好精品服飾","decorType":"clothing"},{"id":"node-11452045582","lat":23.7105532,"lon":120.5427304,"name":"微旅時尚旅店","decorType":"hotel"},{"id":"node-11452045583","lat":23.7105507,"lon":120.5423471,"name":"凱登商務旅館","decorType":"hotel"},{"id":"node-11452045584","lat":23.7096982,"lon":120.5423732,"name":"曼黛瑪蓮","decorType":"clothing"},{"id":"node-11452045585","lat":23.710808,"lon":120.5414655,"name":"悟饕池上飯包","decorType":"restaurant"},{"id":"node-11452045587","lat":23.7101365,"lon":120.5418439,"name":"Open","decorType":"clothing"},{"id":"node-11452045588","lat":23.7094875,"lon":120.5422613,"name":"思薇爾 Swear","decorType":"clothing"},{"id":"node-11452045590","lat":23.7097365,"lon":120.5426785,"name":"Show 3C手機配件","decorType":"electronics"},{"id":"node-11452045591","lat":23.7096249,"lon":120.5423413,"name":"小可愛","decorType":"clothing"},{"id":"node-11452045592","lat":23.7111893,"lon":120.5425078,"name":"小上海香酥雞","decorType":"restaurant"},{"id":"node-11452045593","lat":23.7110719,"lon":120.5422227,"name":"洪董滷味","decorType":"restaurant"},{"id":"node-11452045595","lat":23.7101429,"lon":120.5428397,"name":"老船長","decorType":"clothing"},{"id":"node-11452045596","lat":23.711317,"lon":120.5426239,"name":"日式板燒蛋餅","decorType":"restaurant"},{"id":"node-11452045597","lat":23.711225,"lon":120.5424809,"name":"瀟湘館早餐","decorType":"restaurant"},{"id":"node-11452045598","lat":23.711225,"lon":120.5414942,"name":"坤記豆漿（斗六割包）","decorType":"restaurant"},{"id":"node-11452045599","lat":23.7104514,"lon":120.5430503,"name":"宏基通訊","decorType":"electronics"},{"id":"node-11452045600","lat":23.7107271,"lon":120.5433497,"name":"品香居酒屋","decorType":"restaurant"},{"id":"node-11452045601","lat":23.7093194,"lon":120.5424433,"name":"帝爺鍋燒壽司","decorType":"restaurant"},{"id":"node-11452045602","lat":23.7104681,"lon":120.542246,"name":"魯都香滷味","decorType":"restaurant"},{"id":"node-11452045604","lat":23.7091488,"lon":120.5420655,"name":"Immense 恬恬","decorType":"restaurant"},{"id":"node-11452045605","lat":23.7103271,"lon":120.5420789,"name":"信明西藥局","decorType":"pharmacy"},{"id":"node-11452045606","lat":23.7098749,"lon":120.5422576,"name":"Luna鬆餅","decorType":"sweetshop"},{"id":"node-11452045608","lat":23.7095362,"lon":120.5425642,"name":"勝麗西裝號","decorType":"clothing"},{"id":"node-11452045609","lat":23.7109602,"lon":120.5417305,"name":"阿瘦皮鞋","decorType":"clothing"},{"id":"node-11452045610","lat":23.7108935,"lon":120.5414177,"name":"Puma","decorType":"clothing"},{"id":"node-11452045612","lat":23.7100283,"lon":120.5428056,"name":"MH hair salon","decorType":"hair_salon"},{"id":"node-11452045615","lat":23.7110999,"lon":120.5416617,"name":"DK呼吸空氣鞋","decorType":"clothing"},{"id":"node-11452045616","lat":23.7101859,"lon":120.5418233,"name":"Roots","decorType":"clothing"},{"id":"node-11452045617","lat":23.7092849,"lon":120.5424257,"name":"莉卡早午餐","decorType":"restaurant"},{"id":"node-11452045618","lat":23.7109552,"lon":120.5420378,"name":"梅亭蜜汁燒烤","decorType":"restaurant"},{"id":"node-11452045620","lat":23.7095028,"lon":120.5425471,"name":"YsA hair salon","decorType":"hair_salon"},{"id":"node-11452045623","lat":23.7099904,"lon":120.5427877,"name":"駿達通訊","decorType":"electronics"},{"id":"node-11452045626","lat":23.7104932,"lon":120.5426229,"name":"金冠電器","decorType":"electronics"},{"id":"node-11452045627","lat":23.7105093,"lon":120.5422983,"name":"東市擔仔麵","decorType":"restaurant"},{"id":"node-11452045628","lat":23.7109322,"lon":120.5420027,"name":"嘉悅髮藝","decorType":"hair_salon"},{"id":"node-11452045629","lat":23.7103696,"lon":120.5420497,"name":"The Boy Shop 美體小舖","decorType":"cosmetics"},{"id":"node-11452045630","lat":23.7093584,"lon":120.5424615,"name":"卡羅服飾","decorType":"clothing"},{"id":"node-11452045632","lat":23.710414,"lon":120.5420191,"name":"La New","decorType":"clothing"},{"id":"node-11452045634","lat":23.7111402,"lon":120.5416413,"name":"三花","decorType":"clothing"},{"id":"node-11452997971","lat":23.7089975,"lon":120.5422737,"name":"華歌爾","decorType":"clothing"},{"id":"node-11452997972","lat":23.7089308,"lon":120.5422374,"name":"井上西藥房","decorType":"pharmacy"},{"id":"node-11452997975","lat":23.7085287,"lon":120.5420247,"name":"西螺麻糬大王","decorType":"sweetshop"},{"id":"node-11452997977","lat":23.7086535,"lon":120.5417924,"name":"嵐の日式料理","decorType":"restaurant"},{"id":"node-11452997980","lat":23.7083289,"lon":120.5415427,"name":"軍茶","decorType":"cafe"},{"id":"node-11452997983","lat":23.7081623,"lon":120.5417402,"name":"重慶小麵","decorType":"restaurant"},{"id":"node-11452997984","lat":23.7081954,"lon":120.5417629,"name":"鱻味粥鋪","decorType":"restaurant"},{"id":"node-11491150354","lat":23.7069021,"lon":120.5403329,"name":"平井涼子","decorType":"clothing"},{"id":"node-11491150356","lat":23.7070575,"lon":120.5399928,"name":"MOMO美髮造型沙龍","decorType":"hair_salon"},{"id":"node-11491150360","lat":23.7069368,"lon":120.5403628,"name":"母子鱷魚","decorType":"clothing"},{"id":"node-11491150363","lat":23.7079634,"lon":120.541245,"name":"松阪屋","decorType":"clothing"},{"id":"node-11491150364","lat":23.7076602,"lon":120.5413152,"name":"東元家電","decorType":"electronics"},{"id":"node-11491150366","lat":23.7067965,"lon":120.5405388,"name":"壹番素食","decorType":"restaurant"},{"id":"node-11491150368","lat":23.7084696,"lon":120.5416702,"name":"正賀女裝店","decorType":"clothing"},{"id":"node-11491185469","lat":23.7074251,"lon":120.5410924,"name":"旗津不一樣赤肉羹","decorType":"restaurant"},{"id":"node-11491185471","lat":23.7069694,"lon":120.5407047,"name":"小楊麵館","decorType":"restaurant"},{"id":"node-11491185474","lat":23.7066617,"lon":120.5399816,"name":"囍事快剪","decorType":"hair_salon"},{"id":"node-11491185481","lat":23.7076039,"lon":120.5409139,"name":"黑白舞造型髮藝","decorType":"hair_salon"},{"id":"node-11491185482","lat":23.7076942,"lon":120.5413541,"name":"大山書局","decorType":"library"},{"id":"node-11491185483","lat":23.7073418,"lon":120.5406848,"name":"禾升手機網通","decorType":"electronics"},{"id":"node-11491185485","lat":23.7086445,"lon":120.5420902,"name":"O’GIRL","decorType":"clothing"},{"id":"node-11491185486","lat":23.7068605,"lon":120.5402759,"name":"芮緹髮藝","decorType":"hair_salon"},{"id":"node-11491185487","lat":23.7070229,"lon":120.539968,"name":"霏蕥","decorType":"clothing"},{"id":"node-11491185488","lat":23.7070992,"lon":120.5400196,"name":"彩色罐子","decorType":"hair_salon"},{"id":"node-11491185490","lat":23.7077439,"lon":120.5414004,"name":"麗嬰房","decorType":"clothing"},{"id":"node-11491185491","lat":23.7074563,"lon":120.5405524,"name":"M2咖啡","decorType":"cafe"},{"id":"node-11491185492","lat":23.7069881,"lon":120.5399414,"name":"囍事快剪","decorType":"hair_salon"},{"id":"node-11491185496","lat":23.7064041,"lon":120.5399785,"name":"喜樂牛排","decorType":"restaurant"},{"id":"node-11491185507","lat":23.7066748,"lon":120.5403917,"name":"詩威特","decorType":"cosmetics"},{"id":"node-11491185508","lat":23.7064274,"lon":120.5400347,"name":"老街豐原排骨麵","decorType":"restaurant"},{"id":"node-11491185510","lat":23.707843,"lon":120.5414873,"name":"源利美食坊","decorType":"restaurant"},{"id":"node-11491185511","lat":23.7070036,"lon":120.5407318,"name":"秧漾早午晚餐盒","decorType":"restaurant"},{"id":"node-11491185513","lat":23.7074742,"lon":120.5408179,"name":"墨池堂","decorType":"restaurant"},{"id":"node-11496963011","lat":23.7092778,"lon":120.5417146,"name":"鮮茶道","decorType":"cafe"},{"id":"node-11496963012","lat":23.7087885,"lon":120.5414049,"name":"小蒙牛","decorType":"restaurant"},{"id":"node-11496963014","lat":23.7097612,"lon":120.5420103,"name":"光華藥局","decorType":"pharmacy"},{"id":"node-11496963018","lat":23.7095416,"lon":120.5418762,"name":"BM專業包膜","decorType":"electronics"},{"id":"node-11496963019","lat":23.7086132,"lon":120.5412819,"name":"欣誠電腦","decorType":"electronics"},{"id":"node-11496963022","lat":23.7098346,"lon":120.5420533,"name":"大元精品服飾","decorType":"clothing"},{"id":"node-11496963024","lat":23.7092417,"lon":120.5416871,"name":"台灣鐵路便當","decorType":"restaurant"},{"id":"node-11496963025","lat":23.7097275,"lon":120.5419896,"name":"小仁泉極品豆漿","decorType":"restaurant"},{"id":"node-11496963026","lat":23.7091775,"lon":120.5416457,"name":"員濃苜蓿捲","decorType":"restaurant"},{"id":"node-11496963030","lat":23.7098775,"lon":120.542075,"name":"永光藥局","decorType":"pharmacy"},{"id":"node-11496963031","lat":23.7100141,"lon":120.5418503,"name":"瑞光皮鞋","decorType":"clothing"},{"id":"node-11496963032","lat":23.7089387,"lon":120.5414889,"name":"豪傳說雞排","decorType":"restaurant"},{"id":"node-11508157326","lat":23.708225,"lon":120.5410533,"name":"嗆染燙館","decorType":"hair_salon"},{"id":"node-11508157328","lat":23.7078249,"lon":120.5407954,"name":"故鄉小吃店","decorType":"restaurant"},{"id":"node-11508157332","lat":23.7095164,"lon":120.5415592,"name":"大將通信行","decorType":"electronics"},{"id":"node-11508157335","lat":23.7081874,"lon":120.5410213,"name":"健康那件小事","decorType":"restaurant"},{"id":"node-11508157337","lat":23.7081373,"lon":120.5409976,"name":"賀凱藝術髮廊","decorType":"hair_salon"},{"id":"node-11508157339","lat":23.7077733,"lon":120.5407599,"name":"端姐熱滷","decorType":"restaurant"},{"id":"node-11508157340","lat":23.7084968,"lon":120.5408743,"name":"咖啡館","decorType":"cafe"},{"id":"node-11508157341","lat":23.709091,"lon":120.5412889,"name":"晶華髮型","decorType":"hair_salon"},{"id":"node-11508157342","lat":23.7077415,"lon":120.5407429,"name":"四川樂山","decorType":"restaurant"},{"id":"node-11508157343","lat":23.7096201,"lon":120.5416299,"name":"秀快剪","decorType":"hair_salon"},{"id":"node-11508157346","lat":23.7096853,"lon":120.5416675,"name":"卡滋卡滋早午餐","decorType":"restaurant"},{"id":"node-11508157348","lat":23.7079522,"lon":120.5408899,"name":"威琳服飾","decorType":"clothing"},{"id":"node-11508157350","lat":23.709585,"lon":120.5416073,"name":"捷特快剪","decorType":"hair_salon"},{"id":"node-1151264469","lat":23.5256223,"lon":120.5536102,"name":"竹崎","decorType":"station"},{"id":"node-11536637288","lat":23.6017921,"lon":120.6349097,"name":"福德祠","decorType":"shrine"},{"id":"node-11568859839","lat":23.7177611,"lon":120.5507515,"name":"未命名神社","decorType":"shrine"},{"id":"node-11573291558","lat":23.7031817,"lon":120.5312288,"name":"觀月商務休閒旅館","decorType":"hotel"},{"id":"node-11769037785","lat":23.7008948,"lon":120.5414244,"name":"水岸藝術公園","decorType":"bus_stop"},{"id":"node-11769037786","lat":23.6848427,"lon":120.5671562,"name":"東和","decorType":"bus_stop"},{"id":"node-11769037787","lat":23.6848231,"lon":120.5672963,"name":"東和","decorType":"bus_stop"},{"id":"node-11769037788","lat":23.6262011,"lon":120.65554,"name":"小旗仔","decorType":"bus_stop"},{"id":"node-11851745773","lat":23.722607,"lon":120.6098261,"name":"咬狗山","decorType":"mountain"},{"id":"node-11933600431","lat":23.582051,"lon":120.5813499,"name":"未命名山丘","decorType":"mountain"},{"id":"node-12012000197","lat":23.713903,"lon":120.533927,"name":"永成電器行","decorType":"electronics"},{"id":"node-12015940406","lat":23.5443961,"lon":120.6300042,"name":"犁園寮","decorType":"mountain"},{"id":"node-12212397305","lat":23.7039699,"lon":120.5339703,"name":"7-Eleven","decorType":"convenience"},{"id":"node-12465183279","lat":23.7103101,"lon":120.5400148,"name":"肯德基","decorType":"burger"},{"id":"node-12548016870","lat":23.5848082,"lon":120.5556663,"name":"古味香","decorType":"restaurant"},{"id":"node-12548016871","lat":23.5849343,"lon":120.5557505,"name":"清心福全","decorType":"cafe"},{"id":"node-12548016872","lat":23.5848943,"lon":120.5554599,"name":"紅茶幫","decorType":"cafe"},{"id":"node-12548016873","lat":23.5823817,"lon":120.5588006,"name":"鮮茶道","decorType":"cafe"},{"id":"node-12744585471","lat":23.617924,"lon":120.6426727,"name":"村口小吃","decorType":"restaurant"},{"id":"node-12744608632","lat":23.607705,"lon":120.6421111,"name":"神木土雞城","decorType":"burger"},{"id":"node-12758868114","lat":23.6608665,"lon":120.5595113,"name":"7-Eleven","decorType":"convenience"},{"id":"node-12793598643","lat":23.702915,"lon":120.5532012,"name":"夯石頭無煙燒肉","decorType":"restaurant"},{"id":"node-12793619335","lat":23.7027111,"lon":120.5529276,"name":"川玥秘境鍋物","decorType":"restaurant"},{"id":"node-12810905701","lat":23.6728199,"lon":120.5276776,"name":"金熙宮","decorType":"shrine"},{"id":"node-12811017011","lat":23.6860938,"lon":120.5473521,"name":"北管天宮","decorType":"shrine"},{"id":"node-12811101301","lat":23.6864531,"lon":120.5451866,"name":"廣玄宮","decorType":"shrine"},{"id":"node-12813098201","lat":23.7463309,"lon":120.6081247,"name":"聖玄宮","decorType":"shrine"},{"id":"node-12896631754","lat":23.6790196,"lon":120.538531,"name":"斗六大崙郵局","decorType":"post_office"},{"id":"node-12896631755","lat":23.7106336,"lon":120.5477845,"name":"斗六永安郵局","decorType":"post_office"},{"id":"node-12896631757","lat":23.6837015,"lon":120.5691078,"name":"古坑東和郵局","decorType":"post_office"},{"id":"node-12923611101","lat":23.7061458,"lon":120.5501515,"name":"澳門富臨燒臘","decorType":"restaurant"},{"id":"node-13014811018","lat":23.7089542,"lon":120.5389992,"name":"臺米國際飯店","decorType":"restaurant"},{"id":"node-13059841324","lat":23.7033697,"lon":120.5389562,"name":"一沐日","decorType":"cafe"},{"id":"node-13059841326","lat":23.6459183,"lon":120.5617845,"name":"八方雲集","decorType":"burger"},{"id":"node-13059841327","lat":23.7144423,"lon":120.5430856,"name":"寶雅","decorType":"pharmacy"},{"id":"node-13059841334","lat":23.7021903,"lon":120.5370744,"name":"陶板屋","decorType":"restaurant"},{"id":"node-13059841337","lat":23.6439679,"lon":120.5623062,"name":"7-Eleven","decorType":"convenience"},{"id":"node-13059841338","lat":23.7354017,"lon":120.5329483,"name":"全家便利商店","decorType":"convenience"},{"id":"node-13059841343","lat":23.7236787,"lon":120.5818683,"name":"全家便利商店","decorType":"convenience"},{"id":"node-13077773464","lat":23.7068429,"lon":120.539856,"name":"八曜和茶","decorType":"cafe"},{"id":"node-13077773481","lat":23.6429257,"lon":120.5611183,"name":"蝦皮店到店","decorType":"convenience"},{"id":"node-13077773482","lat":23.7053253,"lon":120.5342202,"name":"Qburger","decorType":"burger"},{"id":"node-13126405044","lat":23.7102818,"lon":120.5483244,"name":"全聯福利中心","decorType":"supermarket"},{"id":"node-13141953719","lat":23.5436377,"lon":120.6188304,"name":"未命名山丘","decorType":"mountain"},{"id":"node-13141953720","lat":23.5414194,"lon":120.6200565,"name":"未命名山丘","decorType":"mountain"},{"id":"node-13141953721","lat":23.5402133,"lon":120.6205615,"name":"未命名山丘","decorType":"mountain"},{"id":"node-13141953722","lat":23.5438378,"lon":120.6214909,"name":"未命名山丘","decorType":"mountain"},{"id":"node-13141956750","lat":23.5414704,"lon":120.5655386,"name":"湖底東山","decorType":"mountain"},{"id":"node-13242257438","lat":23.5415147,"lon":120.5880551,"name":"未命名山丘","decorType":"mountain"},{"id":"node-13242257439","lat":23.544434,"lon":120.590339,"name":"未命名山丘","decorType":"mountain"},{"id":"node-13252364453","lat":23.5907495,"lon":120.5393712,"name":"萊爾富","decorType":"convenience"},{"id":"node-13257389637","lat":23.5620038,"lon":120.6475369,"name":"福興宮","decorType":"shrine"},{"id":"node-2146541868","lat":23.7066215,"lon":120.5396143,"name":"斗六西平路郵局","decorType":"post_office"},{"id":"node-2267129072","lat":23.6640358,"lon":120.5867311,"name":"桐花公園","decorType":"park"},{"id":"node-2377637377","lat":23.537402,"lon":120.5769979,"name":"木屐寮","decorType":"station"},{"id":"node-2377637378","lat":23.5327812,"lon":120.6026707,"name":"樟腦寮","decorType":"station"},{"id":"node-2377741630","lat":23.5314477,"lon":120.6437657,"name":"交力坪","decorType":"station"},{"id":"node-2377741631","lat":23.542366,"lon":120.6200511,"name":"梨園寮","decorType":"station"},{"id":"node-2377741632","lat":23.5368844,"lon":120.6077219,"name":"獨立山","decorType":"mountain"},{"id":"node-2377741633","lat":23.5385165,"lon":120.607481,"name":"獨立山","decorType":"station"},{"id":"node-2471625468","lat":23.7064646,"lon":120.5570956,"name":"清泉灣健康世界","decorType":"stadium"},{"id":"node-2482523883","lat":23.5900114,"lon":120.6231401,"name":"大尖山","decorType":"mountain"},{"id":"node-2482564546","lat":23.735345,"lon":120.6438135,"name":"南觸口山","decorType":"mountain"},{"id":"node-2482606676","lat":23.6154921,"lon":120.6353137,"name":"樟湖山","decorType":"mountain"},{"id":"node-2482606971","lat":23.6894474,"lon":120.618169,"name":"新厝山","decorType":"mountain"},{"id":"node-2482607267","lat":23.6596572,"lon":120.5844939,"name":"荷苞山","decorType":"mountain"},{"id":"node-2482607426","lat":23.5833766,"lon":120.5784287,"name":"梅山觀音山","decorType":"mountain"},{"id":"node-2482624739","lat":23.7157011,"lon":120.6464699,"name":"鯉魚尾山","decorType":"mountain"},{"id":"node-2482624801","lat":23.5446755,"lon":120.5967963,"name":"阿拔泉山","decorType":"mountain"},{"id":"node-2482641118","lat":23.6987951,"lon":120.6290839,"name":"檨子坑山","decorType":"mountain"},{"id":"node-2482641119","lat":23.6761705,"lon":120.6146832,"name":"棋盤厝山","decorType":"mountain"},{"id":"node-2482641120","lat":23.654586,"lon":120.6130579,"name":"尖山坑山","decorType":"mountain"},{"id":"node-2482641400","lat":23.7076921,"lon":120.6053993,"name":"內林山","decorType":"mountain"},{"id":"node-2482641401","lat":23.6653121,"lon":120.5948289,"name":"觀音山","decorType":"mountain"},{"id":"node-2482641413","lat":23.6515521,"lon":120.5896729,"name":"小溪子山","decorType":"mountain"},{"id":"node-2482641415","lat":23.5492401,"lon":120.6534939,"name":"九芎坪山","decorType":"mountain"},{"id":"node-2482645976","lat":23.6395929,"lon":120.5783319,"name":"崁仔頂山","decorType":"mountain"},{"id":"node-2499265502","lat":23.7037371,"lon":120.5495536,"name":"斗六市故事繪本主題圖書館","decorType":"library"},{"id":"node-2499265820","lat":23.7040466,"lon":120.5494624,"name":"斗六市立圖書館","decorType":"library"},{"id":"node-2590110884","lat":23.7117765,"lon":120.5419435,"name":"斗六大西洋","decorType":"restaurant"},{"id":"node-2611843401","lat":23.6989574,"lon":120.5250587,"name":"KPC電腦工作室","decorType":"electronics"},{"id":"node-2629372752","lat":23.7093333,"lon":120.5625489,"name":"桃花源餐廳斗六總店","decorType":"restaurant"},{"id":"node-2637918114","lat":23.7029812,"lon":120.5315723,"name":"麥當勞","decorType":"burger"},{"id":"node-268936504","lat":23.7118077,"lon":120.5411553,"name":"斗六","decorType":"station"},{"id":"node-2906874880","lat":23.7078704,"lon":120.6078625,"name":"湖山岩","decorType":"shrine"},{"id":"node-2906874881","lat":23.705751,"lon":120.6082487,"name":"忠烈祠","decorType":"shrine"},{"id":"node-2939071017","lat":23.5672131,"lon":120.6082229,"name":"梨子腳山","decorType":"mountain"},{"id":"node-2939071346","lat":23.584003,"lon":120.6189361,"name":"二尖山","decorType":"mountain"},{"id":"node-3157408928","lat":23.6797962,"lon":120.538305,"name":"7-Eleven","decorType":"convenience"},{"id":"node-3157408929","lat":23.6807457,"lon":120.5381184,"name":"未命名五金行","decorType":"hardware"},{"id":"node-3157408961","lat":23.6800014,"lon":120.5384872,"name":"加減乘廚","decorType":"restaurant"},{"id":"node-3358926593","lat":23.7108581,"lon":120.546952,"name":"北斗肉圓生","decorType":"restaurant"},{"id":"node-3358996694","lat":23.6100965,"lon":120.5695841,"name":"庵古坑咖啡","decorType":"cafe"},{"id":"node-3359539452","lat":23.653761,"lon":120.5916245,"name":"地母廟","decorType":"shrine"},{"id":"node-3359539453","lat":23.653472,"lon":120.5921795,"name":"巴登咖啡","decorType":"cafe"},{"id":"node-3359539454","lat":23.6934718,"lon":120.6233648,"name":"玉當宮","decorType":"shrine"},{"id":"node-3359539677","lat":23.6445509,"lon":120.561974,"name":"古坑郵局","decorType":"post_office"},{"id":"node-3359576739","lat":23.7217503,"lon":120.5890199,"name":"斗六石榴郵局","decorType":"post_office"},{"id":"node-3428601407","lat":23.7050003,"lon":120.5370994,"name":"偶像童裝","decorType":"clothing"},{"id":"node-3428688128","lat":23.7083212,"lon":120.5419019,"name":"斗六福德宮","decorType":"shrine"},{"id":"node-3440272998","lat":23.7108385,"lon":120.5434125,"name":"圓環中式快餐","decorType":"restaurant"},{"id":"node-3444567155","lat":23.7111287,"lon":120.5406308,"name":"真岡大飯店","decorType":"restaurant"},{"id":"node-3803089586","lat":23.7096124,"lon":120.5392138,"name":"斗南米糕","decorType":"restaurant"},{"id":"node-3803089587","lat":23.7106272,"lon":120.5419082,"name":"斗六站","decorType":"station"},{"id":"node-3818729490","lat":23.7196516,"lon":120.5850749,"name":"7-Eleven","decorType":"convenience"},{"id":"node-3953507988","lat":23.578778,"lon":120.5559095,"name":"未命名咖啡廳","decorType":"cafe"},{"id":"node-3953507992","lat":23.5780023,"lon":120.5565864,"name":"未命名咖啡廳","decorType":"cafe"},{"id":"node-4002706162","lat":23.5532851,"lon":120.6063729,"name":"大巃頂","decorType":"mountain"},{"id":"node-4092136062","lat":23.5606649,"lon":120.6035974,"name":"后咖啡","decorType":"restaurant"},{"id":"node-4129372626","lat":23.5638512,"lon":120.6025219,"name":"太平山","decorType":"mountain"},{"id":"node-4133822334","lat":23.600953,"lon":120.6295028,"name":"後棟仔山","decorType":"mountain"},{"id":"node-4144012709","lat":23.5547043,"lon":120.6055339,"name":"大巃頂西北峰","decorType":"mountain"},{"id":"node-4223249982","lat":23.7451431,"lon":120.6409881,"name":"觸口山","decorType":"mountain"},{"id":"node-4233959194","lat":23.6731064,"lon":120.5277262,"name":"未命名飯店","decorType":"hotel"},{"id":"node-4243896812","lat":23.7105316,"lon":120.5430816,"name":"鼎皇臭臭鍋","decorType":"restaurant"},{"id":"node-4262301389","lat":23.7124588,"lon":120.5673064,"name":"摩爾花園","decorType":"restaurant"},{"id":"node-4267596321","lat":23.573342,"lon":120.6159909,"name":"馬鞍山","decorType":"mountain"},{"id":"node-4275385538","lat":23.6917874,"lon":120.5280237,"name":"專電澳客","decorType":"restaurant"},{"id":"node-4305242855","lat":23.5693312,"lon":120.6192149,"name":"碧湖山","decorType":"mountain"},{"id":"node-4322692135","lat":23.6746588,"lon":120.5374136,"name":"顯應祠","decorType":"shrine"},{"id":"node-4325297560","lat":23.6682295,"lon":120.5347551,"name":"雨村生態農場","decorType":"restaurant"},{"id":"node-4332650653","lat":23.5384366,"lon":120.6266,"name":"大坪山","decorType":"mountain"},{"id":"node-4332652405","lat":23.5278429,"lon":120.6199443,"name":"塘湖山","decorType":"mountain"},{"id":"node-4358833892","lat":23.581276,"lon":120.5589293,"name":"7-Eleven","decorType":"convenience"},{"id":"node-4358833893","lat":23.5806415,"lon":120.5589237,"name":"梅山郵局","decorType":"post_office"},{"id":"node-4358833894","lat":23.5857443,"lon":120.5537326,"name":"全聯福利中心","decorType":"supermarket"},{"id":"node-4358833895","lat":23.5848515,"lon":120.5574569,"name":"7-Eleven","decorType":"convenience"},{"id":"node-4431134966","lat":23.7126695,"lon":120.53427,"name":"85度C","decorType":"cafe"},{"id":"node-4431134968","lat":23.7100328,"lon":120.5305959,"name":"未命名餐廳","decorType":"restaurant"},{"id":"node-4431134977","lat":23.7132695,"lon":120.533857,"name":"香串串烤肉店","decorType":"restaurant"},{"id":"node-4431162665","lat":23.7127207,"lon":120.5323376,"name":"霸味薑母鴨","decorType":"restaurant"},{"id":"node-4502748270","lat":23.7077306,"lon":120.6079259,"name":"湖山寺","decorType":"shrine"},{"id":"node-4538629363","lat":23.7040787,"lon":120.5392532,"name":"喜心素食","decorType":"restaurant"},{"id":"node-4607880395","lat":23.7085247,"lon":120.5452206,"name":"大眾鴨肉庚","decorType":"restaurant"},{"id":"node-4634327157","lat":23.67392,"lon":120.5383575,"name":"未命名公園","decorType":"park"},{"id":"node-4667590002","lat":23.7229974,"lon":120.583385,"name":"85度C","decorType":"cafe"},{"id":"node-4667639239","lat":23.7127356,"lon":120.5577281,"name":"7-Eleven","decorType":"convenience"},{"id":"node-4667669848","lat":23.7108948,"lon":120.5444905,"name":"未命名麵包店","decorType":"bakery"},{"id":"node-4667751864","lat":23.7099033,"lon":120.5447524,"name":"未命名美髮院","decorType":"hair_salon"},{"id":"node-4667756585","lat":23.7090703,"lon":120.5447444,"name":"未命名美髮院","decorType":"hair_salon"},{"id":"node-4667798972","lat":23.7084939,"lon":120.5443768,"name":"未命名超市","decorType":"supermarket"},{"id":"node-4667801169","lat":23.7084575,"lon":120.5441708,"name":"OK超商","decorType":"convenience"},{"id":"node-4668747199","lat":23.7076806,"lon":120.5409888,"name":"手剪髮藝","decorType":"hair_salon"},{"id":"node-4668781814","lat":23.703355,"lon":120.5536849,"name":"未命名超市","decorType":"supermarket"},{"id":"node-4668782209","lat":23.707934,"lon":120.5412185,"name":"依林名品","decorType":"clothing"},{"id":"node-4668782210","lat":23.7048665,"lon":120.551484,"name":"7-Eleven","decorType":"convenience"},{"id":"node-4748078221","lat":23.5878899,"lon":120.555325,"name":"梅山肉圓","decorType":"restaurant"},{"id":"node-4783310924","lat":23.7123836,"lon":120.5474732,"name":"斗六真一寺","decorType":"shrine"},{"id":"node-4826504583","lat":23.7246036,"lon":120.576761,"name":"長和宮","decorType":"shrine"},{"id":"node-4891526634","lat":23.7094632,"lon":120.5487093,"name":"福德宮","decorType":"shrine"},{"id":"node-4899678567","lat":23.6920748,"lon":120.6219655,"name":"保坑大將軍","decorType":"shrine"},{"id":"node-4935454623","lat":23.7099448,"lon":120.5421017,"name":"日本•大創百貨","decorType":"cosmetics"},{"id":"node-4982078163","lat":23.59736,"lon":120.53636,"name":"崎頂靶場","decorType":"bus_stop"},{"id":"node-4982078164","lat":23.659443,"lon":120.540975,"name":"綠色隧道","decorType":"bus_stop"},{"id":"node-4982078165","lat":23.65062,"lon":120.54554,"name":"湳仔","decorType":"bus_stop"},{"id":"node-4982078166","lat":23.61626,"lon":120.54189,"name":"南昌(中華科技大學)","decorType":"bus_stop"},{"id":"node-4982078167","lat":23.583245,"lon":120.558286,"name":"梅山市場","decorType":"bus_stop"},{"id":"node-4982078168","lat":23.58077,"lon":120.55905,"name":"梅山郵局","decorType":"bus_stop"},{"id":"node-4982078169","lat":23.67343,"lon":120.5372,"name":"溝壩","decorType":"bus_stop"},{"id":"node-4982078170","lat":23.6369613,"lon":120.5584069,"name":"永久巷","decorType":"bus_stop"},{"id":"node-4982078171","lat":23.62641,"lon":120.55236,"name":"永光","decorType":"bus_stop"},{"id":"node-4982078172","lat":23.5864961,"lon":120.5519051,"name":"電信局","decorType":"bus_stop"},{"id":"node-4982078173","lat":23.6946082,"lon":120.5382014,"name":"大潭","decorType":"bus_stop"},{"id":"node-4982078174","lat":23.6453878,"lon":120.5619036,"name":"古坑","decorType":"bus_stop"},{"id":"node-4982078175","lat":23.6428749,"lon":120.5619671,"name":"古坑鄉公所","decorType":"bus_stop"},{"id":"node-4982078176","lat":23.5901813,"lon":120.5414559,"name":"梅山工業區","decorType":"bus_stop"},{"id":"node-4982078177","lat":23.7077,"lon":120.53954,"name":"鎮西國小","decorType":"bus_stop"},{"id":"node-4982078178","lat":23.64742,"lon":120.55795,"name":"西平村","decorType":"bus_stop"},{"id":"node-4982078179","lat":23.61123,"lon":120.53757,"name":"興昌國小","decorType":"bus_stop"},{"id":"node-4982078180","lat":23.60254,"lon":120.53309,"name":"崁腳","decorType":"bus_stop"},{"id":"node-4982078182","lat":23.66298,"lon":120.53959,"name":"柴裡","decorType":"bus_stop"},{"id":"node-4982078183","lat":23.6284239,"lon":120.5517327,"name":"永昌","decorType":"bus_stop"},{"id":"node-4982078184","lat":23.62069,"lon":120.54603,"name":"永興","decorType":"bus_stop"},{"id":"node-4982078185","lat":23.5849589,"lon":120.5556167,"name":"梅山鄉公所","decorType":"bus_stop"},{"id":"node-4982078186","lat":23.690955,"lon":120.538398,"name":"國立雲林科技大學（南側門）","decorType":"bus_stop"},{"id":"node-4982078187","lat":23.68008,"lon":120.53842,"name":"崙峰","decorType":"bus_stop"},{"id":"node-4982078188","lat":23.6392021,"lon":120.559864,"name":"新興","decorType":"bus_stop"},{"id":"node-4982078189","lat":23.589375,"lon":120.545977,"name":"尾庄","decorType":"bus_stop"},{"id":"node-4982078190","lat":23.5875076,"lon":120.5495194,"name":"梅山新社區","decorType":"bus_stop"},{"id":"node-4982078191","lat":23.69921,"lon":120.53816,"name":"社口","decorType":"bus_stop"},{"id":"node-4982078192","lat":23.64697,"lon":120.56052,"name":"古坑圓環","decorType":"bus_stop"},{"id":"node-4982078194","lat":23.5810575,"lon":120.5590624,"name":"梅山郵局","decorType":"bus_stop"},{"id":"node-4982078195","lat":23.5831997,"lon":120.5581544,"name":"梅山市場","decorType":"bus_stop"},{"id":"node-4982078196","lat":23.584934,"lon":120.5552773,"name":"梅山鄉公所","decorType":"bus_stop"},{"id":"node-4982078197","lat":23.58634,"lon":120.55187,"name":"電信局","decorType":"bus_stop"},{"id":"node-4982078198","lat":23.5875202,"lon":120.5498582,"name":"梅山新社區","decorType":"bus_stop"},{"id":"node-4982078199","lat":23.589185,"lon":120.546116,"name":"尾庄","decorType":"bus_stop"},{"id":"node-4982078200","lat":23.5900263,"lon":120.5414418,"name":"梅山工業區","decorType":"bus_stop"},{"id":"node-4982078201","lat":23.59704,"lon":120.53648,"name":"崎頂靶場","decorType":"bus_stop"},{"id":"node-4982078202","lat":23.60265,"lon":120.53293,"name":"崁腳","decorType":"bus_stop"},{"id":"node-4982078203","lat":23.61131,"lon":120.53746,"name":"興昌國小","decorType":"bus_stop"},{"id":"node-4982078204","lat":23.61632,"lon":120.54183,"name":"南昌(中華科技大學)","decorType":"bus_stop"},{"id":"node-4982078205","lat":23.62068,"lon":120.54594,"name":"永興","decorType":"bus_stop"},{"id":"node-4982078206","lat":23.62636,"lon":120.55236,"name":"永光","decorType":"bus_stop"},{"id":"node-4982078207","lat":23.6287185,"lon":120.5515731,"name":"永昌","decorType":"bus_stop"},{"id":"node-4982078208","lat":23.6371952,"lon":120.5583923,"name":"永久巷","decorType":"bus_stop"},{"id":"node-4982078209","lat":23.6390314,"lon":120.559604,"name":"新興","decorType":"bus_stop"},{"id":"node-4982078210","lat":23.6426667,"lon":120.5617017,"name":"古坑鄉公所","decorType":"bus_stop"},{"id":"node-4982078211","lat":23.6454997,"lon":120.5620058,"name":"古坑","decorType":"bus_stop"},{"id":"node-4982078212","lat":23.64694,"lon":120.56038,"name":"古坑圓環","decorType":"bus_stop"},{"id":"node-4982078213","lat":23.6473,"lon":120.55792,"name":"西平村","decorType":"bus_stop"},{"id":"node-4982078214","lat":23.65064,"lon":120.54533,"name":"湳仔","decorType":"bus_stop"},{"id":"node-4982078215","lat":23.65943,"lon":120.54092,"name":"綠色隧道","decorType":"bus_stop"},{"id":"node-4982078216","lat":23.66331,"lon":120.53925,"name":"柴裡","decorType":"bus_stop"},{"id":"node-4982078217","lat":23.67364,"lon":120.53716,"name":"溝壩","decorType":"bus_stop"},{"id":"node-4982078218","lat":23.68011,"lon":120.53835,"name":"崙峰","decorType":"bus_stop"},{"id":"node-4982078219","lat":23.690912,"lon":120.538319,"name":"國立雲林科技大學（南側門）","decorType":"bus_stop"},{"id":"node-4982078220","lat":23.69452,"lon":120.53809,"name":"大潭","decorType":"bus_stop"},{"id":"node-4982078921","lat":23.69908,"lon":120.53798,"name":"社口","decorType":"bus_stop"},{"id":"node-4982078922","lat":23.7078298,"lon":120.5393569,"name":"鎮西國小","decorType":"bus_stop"},{"id":"node-5160639735","lat":23.6916845,"lon":120.5286927,"name":"嘉義火雞肉飯","decorType":"restaurant"},{"id":"node-5160663138","lat":23.6909115,"lon":120.5348726,"name":"雲院","decorType":"library"},{"id":"node-5300340932","lat":23.709584,"lon":120.5414578,"name":"斗六登邑肉圓","decorType":"restaurant"},{"id":"node-5302938521","lat":23.7094547,"lon":120.5469656,"name":"Liu Pickled White Meat Pot","decorType":"restaurant"},{"id":"node-5353929139","lat":23.6829147,"lon":120.569737,"name":"7-Eleven","decorType":"convenience"},{"id":"node-5353947767","lat":23.6263743,"lon":120.5529535,"name":"永光","decorType":"bus_stop"},{"id":"node-5353947768","lat":23.6265253,"lon":120.5528796,"name":"永光","decorType":"bus_stop"},{"id":"node-5353947772","lat":23.6469788,"lon":120.5611512,"name":"古坑圓環","decorType":"bus_stop"},{"id":"node-5353947773","lat":23.6476166,"lon":120.5609178,"name":"古坑圓環","decorType":"bus_stop"},{"id":"node-5353947774","lat":23.6495586,"lon":120.5608964,"name":"頂好購物超市","decorType":"supermarket"},{"id":"node-5353947776","lat":23.6537817,"lon":120.5601819,"name":"古坑鄉衛生所","decorType":"bus_stop"},{"id":"node-5353947777","lat":23.6540928,"lon":120.560004,"name":"古坑鄉衛生所","decorType":"bus_stop"},{"id":"node-5353947778","lat":23.6639062,"lon":120.5606723,"name":"水碓","decorType":"bus_stop"},{"id":"node-5353947779","lat":23.663755,"lon":120.5604977,"name":"水碓","decorType":"bus_stop"},{"id":"node-5353954446","lat":23.5950259,"lon":120.596151,"name":"華山","decorType":"bus_stop"},{"id":"node-5353954447","lat":23.5951283,"lon":120.5959062,"name":"華山","decorType":"bus_stop"},{"id":"node-5353954448","lat":23.596033,"lon":120.5922087,"name":"山腳","decorType":"bus_stop"},{"id":"node-5353954449","lat":23.5959246,"lon":120.592118,"name":"山腳","decorType":"bus_stop"},{"id":"node-5353954450","lat":23.5987654,"lon":120.5864806,"name":"埔尾1","decorType":"bus_stop"},{"id":"node-5353954451","lat":23.5989802,"lon":120.5862944,"name":"埔尾1","decorType":"bus_stop"},{"id":"node-5353954452","lat":23.6003237,"lon":120.5846483,"name":"埔尾","decorType":"bus_stop"},{"id":"node-5353954453","lat":23.6004832,"lon":120.5845236,"name":"埔尾","decorType":"bus_stop"},{"id":"node-5353954468","lat":23.6020545,"lon":120.5806277,"name":"下埔尾","decorType":"bus_stop"},{"id":"node-5353954469","lat":23.6019388,"lon":120.5807591,"name":"下埔尾","decorType":"bus_stop"},{"id":"node-5353954470","lat":23.6051639,"lon":120.5744271,"name":"華南路口","decorType":"bus_stop"},{"id":"node-5353954471","lat":23.6067245,"lon":120.5717218,"name":"大湖口","decorType":"bus_stop"},{"id":"node-5353954472","lat":23.606942,"lon":120.5716091,"name":"大湖口","decorType":"bus_stop"},{"id":"node-5353954473","lat":23.6093248,"lon":120.5701339,"name":"百姓公","decorType":"bus_stop"},{"id":"node-5353954474","lat":23.609519,"lon":120.5697611,"name":"百姓公","decorType":"bus_stop"},{"id":"node-5353954475","lat":23.6203828,"lon":120.5578843,"name":"光州食品","decorType":"bus_stop"},{"id":"node-5353954476","lat":23.6230086,"lon":120.5553576,"name":"全家便利商店","decorType":"convenience"},{"id":"node-5353954477","lat":23.6235931,"lon":120.5553199,"name":"永光農會","decorType":"bus_stop"},{"id":"node-5353954478","lat":23.6235903,"lon":120.5554212,"name":"永光農會","decorType":"bus_stop"},{"id":"node-5353954479","lat":23.595266,"lon":120.5990159,"name":"福華宮","decorType":"shrine"},{"id":"node-5358840359","lat":23.6252596,"lon":120.5508918,"name":"頂好購物超市","decorType":"supermarket"},{"id":"node-5358840360","lat":23.6238392,"lon":120.5498645,"name":"7-Eleven","decorType":"convenience"},{"id":"node-5374506342","lat":23.6569857,"lon":120.542585,"name":"綠色隧道","decorType":"bus_stop"},{"id":"node-5374506343","lat":23.657084,"lon":120.5428103,"name":"綠色隧道","decorType":"bus_stop"},{"id":"node-5389934164","lat":23.7011596,"lon":120.532199,"name":"斗六真武宮","decorType":"shrine"},{"id":"node-5420105517","lat":23.5598321,"lon":120.5991554,"name":"太平","decorType":"bus_stop"},{"id":"node-5420105518","lat":23.5602587,"lon":120.6018377,"name":"下坑仔","decorType":"bus_stop"},{"id":"node-5420105519","lat":23.5603509,"lon":120.6017424,"name":"下坑仔","decorType":"bus_stop"},{"id":"node-5426165272","lat":23.5787782,"lon":120.5593957,"name":"梅山","decorType":"bus_stop"},{"id":"node-5426165273","lat":23.5815929,"lon":120.5626499,"name":"太平路口","decorType":"bus_stop"},{"id":"node-5426165286","lat":23.568233,"lon":120.5677267,"name":"永興村","decorType":"bus_stop"},{"id":"node-5426165287","lat":23.5669509,"lon":120.5719055,"name":"頭前溪","decorType":"bus_stop"},{"id":"node-5426165288","lat":23.5670185,"lon":120.571868,"name":"頭前溪","decorType":"bus_stop"},{"id":"node-5426165289","lat":23.5646878,"lon":120.5747192,"name":"下半天","decorType":"bus_stop"},{"id":"node-5426165290","lat":23.5647186,"lon":120.5747942,"name":"下半天","decorType":"bus_stop"},{"id":"node-5426165291","lat":23.5605107,"lon":120.5770621,"name":"下庄","decorType":"bus_stop"},{"id":"node-5426165292","lat":23.5590256,"lon":120.578894,"name":"二坪子","decorType":"bus_stop"},{"id":"node-5426165293","lat":23.5590896,"lon":120.5789061,"name":"二坪子","decorType":"bus_stop"},{"id":"node-5426165294","lat":23.5596065,"lon":120.5857833,"name":"半天村","decorType":"bus_stop"},{"id":"node-5426165295","lat":23.5644186,"lon":120.592352,"name":"群彎","decorType":"bus_stop"},{"id":"node-5426165296","lat":23.5642133,"lon":120.5917512,"name":"群彎","decorType":"bus_stop"},{"id":"node-5426165297","lat":23.5617252,"lon":120.593622,"name":"平路","decorType":"bus_stop"},{"id":"node-5426165298","lat":23.561804,"lon":120.5937347,"name":"平路","decorType":"bus_stop"},{"id":"node-5426165299","lat":23.5623669,"lon":120.5969399,"name":"雲海飯店","decorType":"bus_stop"},{"id":"node-5429335919","lat":23.5759032,"lon":120.5558096,"name":"梅山公園前","decorType":"bus_stop"},{"id":"node-5429335920","lat":23.5759505,"lon":120.5555964,"name":"梅山公園前","decorType":"bus_stop"},{"id":"node-5429339221","lat":23.5775699,"lon":120.5583537,"name":"梅山果菜市場","decorType":"bus_stop"},{"id":"node-5429339222","lat":23.5777666,"lon":120.5584113,"name":"梅山果菜市場","decorType":"bus_stop"},{"id":"node-5429350141","lat":23.5528555,"lon":120.5513089,"name":"南勢坑","decorType":"bus_stop"},{"id":"node-5429350142","lat":23.5599649,"lon":120.5560033,"name":"大草埔","decorType":"bus_stop"},{"id":"node-5429350143","lat":23.5600847,"lon":120.5559095,"name":"大草埔","decorType":"bus_stop"},{"id":"node-5429350144","lat":23.5638322,"lon":120.5581968,"name":"隘寮","decorType":"bus_stop"},{"id":"node-5429350145","lat":23.56389,"lon":120.5580318,"name":"隘寮","decorType":"bus_stop"},{"id":"node-5429350146","lat":23.5689631,"lon":120.5568302,"name":"九芎坑","decorType":"bus_stop"},{"id":"node-5429350147","lat":23.5691819,"lon":120.5565217,"name":"九芎坑","decorType":"bus_stop"},{"id":"node-5429350148","lat":23.5740471,"lon":120.5536464,"name":"南梅山","decorType":"bus_stop"},{"id":"node-5429350149","lat":23.5737915,"lon":120.5534559,"name":"南梅山","decorType":"bus_stop"},{"id":"node-5429373919","lat":23.5268738,"lon":120.5455025,"name":"溪湖","decorType":"bus_stop"},{"id":"node-5429373920","lat":23.5267846,"lon":120.5456903,"name":"溪湖","decorType":"bus_stop"},{"id":"node-5429374121","lat":23.5318352,"lon":120.5508957,"name":"鐵山","decorType":"bus_stop"},{"id":"node-5429374122","lat":23.5319089,"lon":120.5507496,"name":"鐵山","decorType":"bus_stop"},{"id":"node-5429374123","lat":23.5364756,"lon":120.5515636,"name":"順平厝","decorType":"bus_stop"},{"id":"node-5429374124","lat":23.5366944,"lon":120.5515462,"name":"順平厝","decorType":"bus_stop"},{"id":"node-5429374125","lat":23.5386235,"lon":120.5514483,"name":"芹蕉湖","decorType":"bus_stop"},{"id":"node-5429374126","lat":23.5413874,"lon":120.550649,"name":"坑頭","decorType":"bus_stop"},{"id":"node-5429374127","lat":23.5414194,"lon":120.5508408,"name":"坑頭","decorType":"bus_stop"},{"id":"node-5586149672","lat":23.6305291,"lon":120.5763939,"name":"崁等山","decorType":"mountain"},{"id":"node-5634174524","lat":23.5913053,"lon":120.5436514,"name":"鎮安宮","decorType":"shrine"},{"id":"node-5653464617","lat":23.728452,"lon":120.589867,"name":"超聯五金食品百貨大賣場","decorType":"hardware"},{"id":"node-5706067321","lat":23.6274496,"lon":120.5507475,"name":"驛站民宿","decorType":"hotel"},{"id":"node-5715012890","lat":23.7458701,"lon":120.6390657,"name":"未命名餐廳","decorType":"restaurant"},{"id":"node-5715012960","lat":23.6809942,"lon":120.5383152,"name":"未命名餐廳","decorType":"restaurant"},{"id":"node-5793451912","lat":23.707233,"lon":120.5413361,"name":"行啟紀念館","decorType":"bus_stop"},{"id":"node-5793451915","lat":23.70754,"lon":120.53786,"name":"鎮西國小","decorType":"bus_stop"},{"id":"node-5793451917","lat":23.697128,"lon":120.527954,"name":"稅務局(雲林縣政府)","decorType":"bus_stop"},{"id":"node-5793451919","lat":23.696417,"lon":120.527817,"name":"稅務局(雲林縣政府)","decorType":"bus_stop"},{"id":"node-5793451921","lat":23.7071722,"lon":120.5485199,"name":"斗六家商","decorType":"bus_stop"},{"id":"node-5793451931","lat":23.69602,"lon":120.533793,"name":"雲林科技大學","decorType":"bus_stop"},{"id":"node-5793451933","lat":23.712058,"lon":120.535231,"name":"台電大樓","decorType":"bus_stop"},{"id":"node-5793451939","lat":23.7171,"lon":120.5513,"name":"育英北街路口","decorType":"bus_stop"},{"id":"node-5793451942","lat":23.7118183,"lon":120.5403861,"name":"斗六火車站","decorType":"bus_stop"},{"id":"node-5793451948","lat":23.7058248,"lon":120.535473,"name":"雲林溪(環球中華影城)","decorType":"bus_stop"},{"id":"node-5793451952","lat":23.712,"lon":120.53551,"name":"電力公司","decorType":"bus_stop"},{"id":"node-5793452555","lat":23.7115919,"lon":120.5519322,"name":"鎮東國小","decorType":"bus_stop"},{"id":"node-5793452557","lat":23.725,"lon":120.5383,"name":"鎮北路","decorType":"bus_stop"},{"id":"node-5793452562","lat":23.7021675,"lon":120.5299607,"name":"慈濟斗六分院","decorType":"bus_stop"},{"id":"node-5793452563","lat":23.705935,"lon":120.5354,"name":"雲林溪(環球中華影城)","decorType":"bus_stop"},{"id":"node-5793452565","lat":23.7121899,"lon":120.5353032,"name":"台電大樓","decorType":"bus_stop"},{"id":"node-5793452566","lat":23.7157161,"lon":120.5299865,"name":"正心中學","decorType":"bus_stop"},{"id":"node-5793452568","lat":23.71038,"lon":120.54799,"name":"永安路口","decorType":"bus_stop"},{"id":"node-5793452571","lat":23.718186,"lon":120.543095,"name":"明德北路一段路口","decorType":"bus_stop"},{"id":"node-5793452574","lat":23.717716,"lon":120.528352,"name":"正心中學","decorType":"bus_stop"},{"id":"node-5793452576","lat":23.7010607,"lon":120.5282175,"name":"雲林監理站","decorType":"bus_stop"},{"id":"node-5793452578","lat":23.715656,"lon":120.530739,"name":"正心中學","decorType":"bus_stop"},{"id":"node-5793452580","lat":23.696283,"lon":120.533386,"name":"雲林科技大學","decorType":"bus_stop"},{"id":"node-5793452585","lat":23.7049067,"lon":120.5518063,"name":"二吉軒","decorType":"bus_stop"},{"id":"node-5801635455","lat":23.653353,"lon":120.560287,"name":"未命名郵局","decorType":"post_office"},{"id":"node-5801635470","lat":23.693479,"lon":120.566191,"name":"未命名郵局","decorType":"post_office"},{"id":"node-5801635474","lat":23.645878,"lon":120.567553,"name":"未命名郵局","decorType":"post_office"},{"id":"node-5801635480","lat":23.694967,"lon":120.534865,"name":"未命名郵局","decorType":"post_office"},{"id":"node-5801635494","lat":23.642666,"lon":120.561984,"name":"未命名郵局","decorType":"post_office"},{"id":"node-5801635498","lat":23.745833,"lon":120.565555,"name":"未命名郵局","decorType":"post_office"},{"id":"node-5801635501","lat":23.7353,"lon":120.560745,"name":"未命名郵局","decorType":"post_office"},{"id":"node-5801635504","lat":23.702559,"lon":120.57865,"name":"未命名郵局","decorType":"post_office"},{"id":"node-5801635507","lat":23.719154,"lon":120.558601,"name":"未命名郵局","decorType":"post_office"},{"id":"node-5801635509","lat":23.715136,"lon":120.528464,"name":"未命名郵局","decorType":"post_office"},{"id":"node-5801635522","lat":23.679036,"lon":120.538485,"name":"未命名郵局","decorType":"post_office"},{"id":"node-5801635542","lat":23.670707,"lon":120.608134,"name":"未命名郵局","decorType":"post_office"},{"id":"node-5801635544","lat":23.699637,"lon":120.526604,"name":"未命名郵局","decorType":"post_office"},{"id":"node-5801635545","lat":23.725785,"lon":120.577026,"name":"未命名郵局","decorType":"post_office"},{"id":"node-5801635548","lat":23.679597,"lon":120.553234,"name":"未命名郵局","decorType":"post_office"},{"id":"node-5801635862","lat":23.713417,"lon":120.545202,"name":"未命名郵局","decorType":"post_office"},{"id":"node-5801635864","lat":23.7129831,"lon":120.5397036,"name":"斗六鎮北郵局","decorType":"post_office"},{"id":"node-5801635869","lat":23.609895,"lon":120.638199,"name":"未命名郵局","decorType":"post_office"},{"id":"node-5801635874","lat":23.644569,"lon":120.561997,"name":"未命名郵局","decorType":"post_office"},{"id":"node-5801635886","lat":23.710702,"lon":120.536985,"name":"未命名郵局","decorType":"post_office"},{"id":"node-5801635896","lat":23.7106446,"lon":120.5478179,"name":"未命名郵局","decorType":"post_office"},{"id":"node-5801635904","lat":23.664448,"lon":120.546474,"name":"未命名郵局","decorType":"post_office"},{"id":"node-5801635906","lat":23.642686,"lon":120.562022,"name":"未命名郵局","decorType":"post_office"},{"id":"node-5801635909","lat":23.696596,"lon":120.527818,"name":"未命名郵局","decorType":"post_office"},{"id":"node-5801635910","lat":23.709456,"lon":120.542471,"name":"未命名郵局","decorType":"post_office"},{"id":"node-5801635913","lat":23.624947,"lon":120.553326,"name":"未命名郵局","decorType":"post_office"},{"id":"node-5801635918","lat":23.703603,"lon":120.544637,"name":"未命名郵局","decorType":"post_office"},{"id":"node-5801635919","lat":23.706674,"lon":120.539739,"name":"未命名郵局","decorType":"post_office"},{"id":"node-5801635926","lat":23.647852,"lon":120.601888,"name":"未命名郵局","decorType":"post_office"},{"id":"node-5801635929","lat":23.683663,"lon":120.5690885,"name":"未命名郵局","decorType":"post_office"},{"id":"node-5801635941","lat":23.607112,"lon":120.571876,"name":"未命名郵局","decorType":"post_office"},{"id":"node-5801636158","lat":23.686344,"lon":120.602994,"name":"未命名郵局","decorType":"post_office"},{"id":"node-5801636168","lat":23.618186,"lon":120.535482,"name":"未命名郵局","decorType":"post_office"},{"id":"node-5801636172","lat":23.743237,"lon":120.556925,"name":"未命名郵局","decorType":"post_office"},{"id":"node-5801636182","lat":23.707494,"lon":120.54696,"name":"未命名郵局","decorType":"post_office"},{"id":"node-5801636186","lat":23.603147,"lon":120.533035,"name":"未命名郵局","decorType":"post_office"},{"id":"node-5801636195","lat":23.688524,"lon":120.608796,"name":"未命名郵局","decorType":"post_office"},{"id":"node-5801636200","lat":23.615486,"lon":120.575462,"name":"未命名郵局","decorType":"post_office"},{"id":"node-5801636201","lat":23.704221,"lon":120.557492,"name":"未命名郵局","decorType":"post_office"},{"id":"node-5801636202","lat":23.703024,"lon":120.598739,"name":"未命名郵局","decorType":"post_office"},{"id":"node-5801636205","lat":23.722834,"lon":120.545174,"name":"未命名郵局","decorType":"post_office"},{"id":"node-5801636217","lat":23.630986,"lon":120.615302,"name":"未命名郵局","decorType":"post_office"},{"id":"node-5801636229","lat":23.593886,"lon":120.5988,"name":"未命名郵局","decorType":"post_office"},{"id":"node-5801636230","lat":23.72173,"lon":120.589033,"name":"未命名郵局","decorType":"post_office"},{"id":"node-5801636239","lat":23.726634,"lon":120.587849,"name":"未命名郵局","decorType":"post_office"},{"id":"node-5840047858","lat":23.5884743,"lon":120.5967052,"name":"華山觀止虫二行館民宿","decorType":"hotel"},{"id":"node-5846462497","lat":23.7341926,"lon":120.5965081,"name":"大埔社區","decorType":"bus_stop"},{"id":"node-5846462498","lat":23.7341386,"lon":120.5961648,"name":"大埔社區","decorType":"bus_stop"},{"id":"node-5846462519","lat":23.7376227,"lon":120.5992225,"name":"營盤園","decorType":"bus_stop"},{"id":"node-5846462520","lat":23.7372741,"lon":120.5986163,"name":"營盤園","decorType":"bus_stop"},{"id":"node-5846462523","lat":23.7395771,"lon":120.6013012,"name":"天元庄","decorType":"bus_stop"},{"id":"node-5846463149","lat":23.7427726,"lon":120.6050724,"name":"九芎","decorType":"bus_stop"},{"id":"node-5846463150","lat":23.7429739,"lon":120.6050295,"name":"九芎","decorType":"bus_stop"},{"id":"node-5846463151","lat":23.7430828,"lon":120.6050249,"name":"7-Eleven","decorType":"convenience"},{"id":"node-5846484348","lat":23.7257509,"lon":120.587233,"name":"7-Eleven","decorType":"convenience"},{"id":"node-5846484496","lat":23.7270032,"lon":120.5886653,"name":"大埔","decorType":"bus_stop"},{"id":"node-5846484497","lat":23.7277202,"lon":120.5891293,"name":"大埔","decorType":"bus_stop"},{"id":"node-5846484498","lat":23.7313174,"lon":120.5933189,"name":"斗六交流道","decorType":"bus_stop"},{"id":"node-5846506994","lat":23.713954,"lon":120.5605155,"name":"八德","decorType":"bus_stop"},{"id":"node-5846506995","lat":23.7142217,"lon":120.5605236,"name":"八德","decorType":"bus_stop"},{"id":"node-5846507025","lat":23.7198538,"lon":120.5769441,"name":"斗六工業區","decorType":"bus_stop"},{"id":"node-5846507026","lat":23.7223389,"lon":120.5828838,"name":"石榴","decorType":"bus_stop"},{"id":"node-5846507027","lat":23.722151,"lon":120.5828905,"name":"石榴","decorType":"bus_stop"},{"id":"node-5846517777","lat":23.7112109,"lon":120.5496713,"name":"洪揚醫院","decorType":"bus_stop"},{"id":"node-5846517778","lat":23.7110243,"lon":120.5498376,"name":"洪揚醫院","decorType":"bus_stop"},{"id":"node-5846517779","lat":23.7114123,"lon":120.5519673,"name":"鎮東國小","decorType":"bus_stop"},{"id":"node-5846517780","lat":23.7115204,"lon":120.5525628,"name":"7-Eleven","decorType":"convenience"},{"id":"node-5984390985","lat":23.7125756,"lon":120.5433159,"name":"甲意滷肉飯","decorType":"restaurant"},{"id":"node-6140119655","lat":23.7114185,"lon":120.5417513,"name":"麥當勞","decorType":"burger"},{"id":"node-6140119656","lat":23.7102722,"lon":120.5421138,"name":"7-Eleven","decorType":"convenience"},{"id":"node-6140119657","lat":23.7117335,"lon":120.5421929,"name":"7-Eleven","decorType":"convenience"},{"id":"node-6150713090","lat":23.6023537,"lon":120.5795346,"name":"福德宮","decorType":"shrine"},{"id":"node-6150716785","lat":23.5693692,"lon":120.5810128,"name":"大豐玉龍宮","decorType":"shrine"},{"id":"node-6150716786","lat":23.5741651,"lon":120.5784038,"name":"慈雲岩","decorType":"shrine"},{"id":"node-6150716985","lat":23.5758072,"lon":120.5925219,"name":"紫雲岩觀世音普薩廟","decorType":"shrine"},{"id":"node-6167279686","lat":23.5830511,"lon":120.5587378,"name":"金福源花店(玄靈壇收驚)","decorType":"shrine"},{"id":"node-6176417758","lat":23.5600696,"lon":120.6018372,"name":"7-Eleven","decorType":"convenience"},{"id":"node-6255341486","lat":23.645069,"lon":120.5636502,"name":"花開市場甜點工作室","decorType":"cafe"},{"id":"node-6265185845","lat":23.6611058,"lon":120.5913518,"name":"未命名神社","decorType":"shrine"},{"id":"node-6282107186","lat":23.71307,"lon":120.55571,"name":"櫻日本料理","decorType":"restaurant"},{"id":"node-6322671205","lat":23.7105024,"lon":120.5426961,"name":"斗六美而美","decorType":"restaurant"},{"id":"node-6449366146","lat":23.7170973,"lon":120.5683932,"name":"大竹圍","decorType":"bus_stop"},{"id":"node-6449366147","lat":23.720049,"lon":120.5767509,"name":"斗六工業區","decorType":"bus_stop"},{"id":"node-6450927995","lat":23.7174878,"lon":120.5511653,"name":"7-Eleven","decorType":"convenience"},{"id":"node-6450927996","lat":23.7180231,"lon":120.5425179,"name":"7-Eleven","decorType":"convenience"},{"id":"node-6450947262","lat":23.7053096,"lon":120.529021,"name":"全家便利商店","decorType":"convenience"},{"id":"node-6450947265","lat":23.7090621,"lon":120.5306116,"name":"7-Eleven","decorType":"convenience"},{"id":"node-6450954337","lat":23.6988872,"lon":120.525054,"name":"縣政府","decorType":"bus_stop"},{"id":"node-6470878133","lat":23.7115814,"lon":120.5397102,"name":"未命名餐廳","decorType":"restaurant"},{"id":"node-6470878345","lat":23.702706,"lon":120.5291346,"name":"未命名公園","decorType":"park"},{"id":"node-6608850085","lat":23.7133583,"lon":120.5425788,"name":"日沐美式早午餐Smooth B’fast","decorType":"restaurant"},{"id":"node-6608865785","lat":23.7090151,"lon":120.5444262,"name":"魷魚興嘴吃嘴魷魚嘴羹","decorType":"restaurant"},{"id":"node-6743674429","lat":23.5531977,"lon":120.6388388,"name":"農興宮","decorType":"shrine"},{"id":"node-6747364085","lat":23.5522597,"lon":120.6321178,"name":"草本傳奇","decorType":"restaurant"},{"id":"node-6747365086","lat":23.5499161,"lon":120.6322808,"name":"華姐野菜舖子","decorType":"restaurant"},{"id":"node-7006076209","lat":23.7096392,"lon":120.5461389,"name":"統一小吃部","decorType":"restaurant"},{"id":"node-7006076214","lat":23.7092934,"lon":120.5453218,"name":"捷捷寶寶粥","decorType":"restaurant"},{"id":"node-7006076215","lat":23.7088003,"lon":120.5453683,"name":"東市魯品","decorType":"restaurant"},{"id":"node-7006076216","lat":23.7085068,"lon":120.5453379,"name":"香龍","decorType":"restaurant"},{"id":"node-7006076217","lat":23.7085114,"lon":120.5451297,"name":"肉羮張","decorType":"restaurant"},{"id":"node-7006076222","lat":23.7077016,"lon":120.5446422,"name":"喬園小館","decorType":"restaurant"},{"id":"node-7006076223","lat":23.707731,"lon":120.5444209,"name":"大娘羹","decorType":"restaurant"},{"id":"node-7006076224","lat":23.7081645,"lon":120.5446677,"name":"番薯仔炊飯","decorType":"restaurant"},{"id":"node-7006076225","lat":23.7083094,"lon":120.5446771,"name":"港口土魠魚焿","decorType":"restaurant"},{"id":"node-7006076226","lat":23.7084764,"lon":120.5447857,"name":"六六大順","decorType":"restaurant"},{"id":"node-7006076227","lat":23.7086999,"lon":120.5448394,"name":"東市擔仔麵","decorType":"restaurant"},{"id":"node-7006076228","lat":23.708706,"lon":120.5449654,"name":"東市羊肉","decorType":"restaurant"},{"id":"node-7006076229","lat":23.7087072,"lon":120.5447924,"name":"永記肉圓","decorType":"restaurant"},{"id":"node-7006076230","lat":23.7087183,"lon":120.5446556,"name":"台北排骨","decorType":"restaurant"},{"id":"node-7006076231","lat":23.7111534,"lon":120.5423689,"name":"圓環魯肉飯","decorType":"restaurant"},{"id":"node-7006076232","lat":23.7111747,"lon":120.5414852,"name":"咕咕清粥小菜","decorType":"restaurant"},{"id":"node-7006076234","lat":23.7138165,"lon":120.5408402,"name":"莫森洋廚","decorType":"restaurant"},{"id":"node-7006076235","lat":23.7143433,"lon":120.5412278,"name":"甜甜屋素食簡餐","decorType":"restaurant"},{"id":"node-7006076244","lat":23.7135488,"lon":120.5415456,"name":"阿基寒舍","decorType":"restaurant"},{"id":"node-7006076245","lat":23.7130153,"lon":120.5410018,"name":"初八拉麵","decorType":"restaurant"},{"id":"node-7006076246","lat":23.7131028,"lon":120.5411791,"name":"魚二爺","decorType":"restaurant"},{"id":"node-7006076247","lat":23.7134672,"lon":120.5408663,"name":"巾秋","decorType":"restaurant"},{"id":"node-7006076248","lat":23.7134414,"lon":120.5406611,"name":"一魂拉麵","decorType":"restaurant"},{"id":"node-7006076249","lat":23.7135875,"lon":120.5405076,"name":"肉多多","decorType":"restaurant"},{"id":"node-7006076251","lat":23.7137495,"lon":120.540306,"name":"艋舺發","decorType":"restaurant"},{"id":"node-7006076252","lat":23.7128344,"lon":120.5393978,"name":"微笑風味","decorType":"restaurant"},{"id":"node-7006076253","lat":23.7126586,"lon":120.5389908,"name":"喜得","decorType":"restaurant"},{"id":"node-7006076254","lat":23.7123027,"lon":120.538405,"name":"隐の咖喱丼","decorType":"restaurant"},{"id":"node-7006076257","lat":23.7124425,"lon":120.5396922,"name":"花心餐廳","decorType":"restaurant"},{"id":"node-7006076259","lat":23.7123989,"lon":120.5405111,"name":"奇香妙草","decorType":"restaurant"},{"id":"node-7006076260","lat":23.7128207,"lon":120.5407262,"name":"鈴蘭美食","decorType":"restaurant"},{"id":"node-7006076261","lat":23.7130503,"lon":120.5420458,"name":"深海深土魠魚羹","decorType":"restaurant"},{"id":"node-7006076262","lat":23.7132038,"lon":120.5422564,"name":"松竹屋","decorType":"restaurant"},{"id":"node-7095470212","lat":23.6992341,"lon":120.5446397,"name":"星巴克","decorType":"cafe"},{"id":"node-7095470213","lat":23.6990383,"lon":120.5440642,"name":"Uniqlo","decorType":"clothing"},{"id":"node-7158038561","lat":23.582041,"lon":120.5607783,"name":"徐徐品創","decorType":"cafe"},{"id":"node-7197244676","lat":23.7128797,"lon":120.5401634,"name":"未命名藥局","decorType":"pharmacy"},{"id":"node-7246764958","lat":23.560578,"lon":120.6018797,"name":"和平","decorType":"restaurant"},{"id":"node-7246987232","lat":23.5606842,"lon":120.6032863,"name":"太平","decorType":"bus_stop"},{"id":"node-7246994029","lat":23.5604201,"lon":120.6018104,"name":"空氣圖書館","decorType":"restaurant"},{"id":"node-7246994313","lat":23.5608751,"lon":120.6023512,"name":"西門大將軍廟","decorType":"shrine"},{"id":"node-7284338585","lat":23.56079,"lon":120.60336,"name":"大坪牛肉麵","decorType":"restaurant"},{"id":"node-7324604697","lat":23.6999953,"lon":120.5379655,"name":"福德宮","decorType":"shrine"},{"id":"node-7403558634","lat":23.5474281,"lon":120.5947169,"name":"觀音石山","decorType":"mountain"},{"id":"node-7501713997","lat":23.5786356,"lon":120.5595995,"name":"梅山","decorType":"bus_stop"},{"id":"node-7501713998","lat":23.5817244,"lon":120.5589491,"name":"玉虛宮","decorType":"bus_stop"},{"id":"node-7501713999","lat":23.5817711,"lon":120.5587788,"name":"玉虛宮","decorType":"bus_stop"},{"id":"node-7501714000","lat":23.5840511,"lon":120.5571333,"name":"梅北","decorType":"bus_stop"},{"id":"node-7501714001","lat":23.5841494,"lon":120.5571896,"name":"梅北","decorType":"bus_stop"},{"id":"node-7501714003","lat":23.5871569,"lon":120.5503151,"name":"梅山新社區","decorType":"bus_stop"},{"id":"node-7501714004","lat":23.5872602,"lon":120.5503875,"name":"梅山新社區","decorType":"bus_stop"},{"id":"node-7501714005","lat":23.5905737,"lon":120.5373439,"name":"過山村","decorType":"bus_stop"},{"id":"node-7501714006","lat":23.5907261,"lon":120.5374163,"name":"過山村","decorType":"bus_stop"},{"id":"node-7501714008","lat":23.5928006,"lon":120.5316355,"name":"崎頂","decorType":"bus_stop"},{"id":"node-7501714009","lat":23.5929586,"lon":120.5316999,"name":"崎頂","decorType":"bus_stop"},{"id":"node-7501714010","lat":23.5927367,"lon":120.5300885,"name":"新崎頂","decorType":"bus_stop"},{"id":"node-7501714011","lat":23.5929002,"lon":120.530106,"name":"新崎頂","decorType":"bus_stop"},{"id":"node-7501714012","lat":23.5940051,"lon":120.5264327,"name":"崎頂營區","decorType":"bus_stop"},{"id":"node-7501728329","lat":23.5941403,"lon":120.526548,"name":"崎頂營區","decorType":"bus_stop"},{"id":"node-7503776366","lat":23.5523196,"lon":120.5264796,"name":"芹蕉山","decorType":"bus_stop"},{"id":"node-7503776367","lat":23.5524745,"lon":120.5264179,"name":"芹蕉山","decorType":"bus_stop"},{"id":"node-7503776368","lat":23.5522187,"lon":120.5326326,"name":"崎頂","decorType":"bus_stop"},{"id":"node-7503776369","lat":23.5521474,"lon":120.5326796,"name":"崎頂","decorType":"bus_stop"},{"id":"node-7503776370","lat":23.5551877,"lon":120.5352156,"name":"雙溪","decorType":"bus_stop"},{"id":"node-7503776371","lat":23.5550967,"lon":120.5352411,"name":"雙溪","decorType":"bus_stop"},{"id":"node-7503776372","lat":23.5568252,"lon":120.5364373,"name":"梅山正武宮","decorType":"bus_stop"},{"id":"node-7503776373","lat":23.5567613,"lon":120.536499,"name":"梅山正武宮","decorType":"bus_stop"},{"id":"node-7503776374","lat":23.5574325,"lon":120.5371428,"name":"頂雙溪","decorType":"bus_stop"},{"id":"node-7503776375","lat":23.5575923,"lon":120.5373225,"name":"頂雙溪","decorType":"bus_stop"},{"id":"node-7503776376","lat":23.5610024,"lon":120.5400637,"name":"外湖","decorType":"bus_stop"},{"id":"node-7503776377","lat":23.5610295,"lon":120.5402072,"name":"外湖","decorType":"bus_stop"},{"id":"node-7503776378","lat":23.5608094,"lon":120.5428773,"name":"頂外湖","decorType":"bus_stop"},{"id":"node-7503776379","lat":23.5609483,"lon":120.5426775,"name":"頂外湖","decorType":"bus_stop"},{"id":"node-7503776380","lat":23.5594707,"lon":120.5512834,"name":"玉繩宮","decorType":"bus_stop"},{"id":"node-7503776381","lat":23.5596084,"lon":120.5513316,"name":"玉繩宮","decorType":"bus_stop"},{"id":"node-7503776382","lat":23.5713159,"lon":120.5549204,"name":"下坑","decorType":"bus_stop"},{"id":"node-7503776383","lat":23.571223,"lon":120.5548433,"name":"下坑","decorType":"bus_stop"},{"id":"node-7530636263","lat":23.7151685,"lon":120.5424885,"name":"振宇五金","decorType":"hardware"},{"id":"node-7530636264","lat":23.714972,"lon":120.542054,"name":"全聯福利中心","decorType":"supermarket"},{"id":"node-7530636265","lat":23.7153895,"lon":120.5430679,"name":"全家便利商店","decorType":"convenience"},{"id":"node-7530636266","lat":23.7116224,"lon":120.5354558,"name":"小北百貨","decorType":"hardware"},{"id":"node-7549867763","lat":23.53556,"lon":120.5255,"name":"水坑","decorType":"bus_stop"},{"id":"node-7549867764","lat":23.5370486,"lon":120.5304022,"name":"檳榔宅","decorType":"bus_stop"},{"id":"node-7549867765","lat":23.53763,"lon":120.53938,"name":"復原莊","decorType":"bus_stop"},{"id":"node-7549867766","lat":23.5370279,"lon":120.5301964,"name":"檳榔宅","decorType":"bus_stop"},{"id":"node-7549867767","lat":23.53546,"lon":120.52534,"name":"水坑","decorType":"bus_stop"},{"id":"node-7555606888","lat":23.5261471,"lon":120.5699967,"name":"覆金","decorType":"bus_stop"},{"id":"node-7555606889","lat":23.5260465,"lon":120.5724648,"name":"東覆金","decorType":"bus_stop"},{"id":"node-7555606892","lat":23.5274645,"lon":120.559747,"name":"上白樹腳","decorType":"bus_stop"},{"id":"node-7555606895","lat":23.527563,"lon":120.5599092,"name":"上白樹腳","decorType":"bus_stop"},{"id":"node-7555606898","lat":23.5261455,"lon":120.5724006,"name":"東覆金","decorType":"bus_stop"},{"id":"node-7555606899","lat":23.526072,"lon":120.5698744,"name":"覆金","decorType":"bus_stop"},{"id":"node-7555606902","lat":23.5271069,"lon":120.5665805,"name":"南覆金","decorType":"bus_stop"},{"id":"node-7555606906","lat":23.5274507,"lon":120.5579741,"name":"白樹腳","decorType":"bus_stop"},{"id":"node-7555606907","lat":23.5275061,"lon":120.5579517,"name":"白樹腳","decorType":"bus_stop"},{"id":"node-7555606909","lat":23.5271501,"lon":120.5667338,"name":"南覆金","decorType":"bus_stop"},{"id":"node-7555606910","lat":23.5261913,"lon":120.5532883,"name":"竹崎火車站","decorType":"bus_stop"},{"id":"node-7555606911","lat":23.5262466,"lon":120.5536571,"name":"竹崎火車站","decorType":"bus_stop"},{"id":"node-7555606914","lat":23.5386985,"lon":120.5516347,"name":"芹蕉湖","decorType":"bus_stop"},{"id":"node-7555606915","lat":23.5528224,"lon":120.5514711,"name":"南勢坑","decorType":"bus_stop"},{"id":"node-7600327679","lat":23.5646829,"lon":120.6247142,"name":"堀尺嶺","decorType":"bus_stop"},{"id":"node-7600327959","lat":23.555307,"lon":120.6198205,"name":"茅仔埔","decorType":"bus_stop"},{"id":"node-7600327961","lat":23.5609503,"lon":120.6051261,"name":"東太平","decorType":"bus_stop"},{"id":"node-7600327962","lat":23.5352155,"lon":120.6370323,"name":"石鼓坪","decorType":"bus_stop"},{"id":"node-7600327963","lat":23.54013,"lon":120.6255,"name":"科仔腳","decorType":"bus_stop"},{"id":"node-7600327965","lat":23.5603228,"lon":120.5816983,"name":"社區中心","decorType":"bus_stop"},{"id":"node-7600327966","lat":23.5553023,"lon":120.6197187,"name":"茅仔埔","decorType":"bus_stop"},{"id":"node-7600327969","lat":23.5600157,"lon":120.5839691,"name":"頂半天","decorType":"bus_stop"},{"id":"node-7600327970","lat":23.5443129,"lon":120.6266493,"name":"下寮","decorType":"bus_stop"},{"id":"node-7600327973","lat":23.5640372,"lon":120.618299,"name":"碧湖崗哨","decorType":"bus_stop"},{"id":"node-7600327974","lat":23.5607642,"lon":120.6032179,"name":"太平","decorType":"bus_stop"},{"id":"node-7600327976","lat":23.56229,"lon":120.6116,"name":"仙人堀","decorType":"bus_stop"},{"id":"node-7600327978","lat":23.5609469,"lon":120.616444,"name":"大籠頂","decorType":"bus_stop"},{"id":"node-7600327981","lat":23.5365708,"lon":120.6313288,"name":"枝村","decorType":"bus_stop"},{"id":"node-7600327983","lat":23.5385743,"lon":120.6286397,"name":"青園","decorType":"bus_stop"},{"id":"node-7600327986","lat":23.5425965,"lon":120.6303163,"name":"後嶺","decorType":"bus_stop"},{"id":"node-7600327987","lat":23.5469777,"lon":120.6259557,"name":"東橫山","decorType":"bus_stop"},{"id":"node-7600327990","lat":23.5420961,"lon":120.634678,"name":"太興國小","decorType":"bus_stop"},{"id":"node-7600327992","lat":23.5324594,"lon":120.6444687,"name":"交力坪","decorType":"bus_stop"},{"id":"node-7600327993","lat":23.5599943,"lon":120.5999845,"name":"望風台","decorType":"bus_stop"},{"id":"node-7600327995","lat":23.5595952,"lon":120.5855433,"name":"半天村","decorType":"bus_stop"},{"id":"node-7600327996","lat":23.5578666,"lon":120.6205868,"name":"北茅仔埔","decorType":"bus_stop"},{"id":"node-7600327998","lat":23.5641282,"lon":120.6182829,"name":"碧湖崗哨","decorType":"bus_stop"},{"id":"node-7600327999","lat":23.58148,"lon":120.56268,"name":"太平路口","decorType":"bus_stop"},{"id":"node-7600328001","lat":23.5325627,"lon":120.6444982,"name":"交力坪","decorType":"bus_stop"},{"id":"node-7600328003","lat":23.5421754,"lon":120.6345167,"name":"太興國小","decorType":"bus_stop"},{"id":"node-7600328004","lat":23.5599338,"lon":120.583841,"name":"頂半天","decorType":"bus_stop"},{"id":"node-7600328007","lat":23.5468671,"lon":120.6260482,"name":"東橫山","decorType":"bus_stop"},{"id":"node-7600328008","lat":23.5605998,"lon":120.5817895,"name":"社區中心","decorType":"bus_stop"},{"id":"node-7600328009","lat":23.54259,"lon":120.6302,"name":"後嶺","decorType":"bus_stop"},{"id":"node-7600328012","lat":23.5610179,"lon":120.6050912,"name":"東太平","decorType":"bus_stop"},{"id":"node-7600328014","lat":23.5608953,"lon":120.6163904,"name":"大籠頂","decorType":"bus_stop"},{"id":"node-7600328016","lat":23.5647665,"lon":120.624649,"name":"堀尺嶺","decorType":"bus_stop"},{"id":"node-7600328019","lat":23.5602712,"lon":120.6079887,"name":"碧湖路口","decorType":"bus_stop"},{"id":"node-7600328022","lat":23.5442403,"lon":120.6266519,"name":"下寮","decorType":"bus_stop"},{"id":"node-7600328023","lat":23.5578897,"lon":120.6204521,"name":"北茅仔埔","decorType":"bus_stop"},{"id":"node-7600328026","lat":23.54006,"lon":120.6252,"name":"科仔腳","decorType":"bus_stop"},{"id":"node-7600328028","lat":23.5351331,"lon":120.6371503,"name":"石鼓坪","decorType":"bus_stop"},{"id":"node-7600328029","lat":23.5622482,"lon":120.6116659,"name":"仙人堀","decorType":"bus_stop"},{"id":"node-7600328031","lat":23.5587211,"lon":120.5863205,"name":"半路店","decorType":"bus_stop"},{"id":"node-7600328032","lat":23.5586502,"lon":120.5863734,"name":"半路店","decorType":"bus_stop"},{"id":"node-7600328034","lat":23.5622684,"lon":120.5968753,"name":"雲海飯店","decorType":"bus_stop"},{"id":"node-7600328035","lat":23.5681654,"lon":120.5676698,"name":"永興村","decorType":"bus_stop"},{"id":"node-7600328037","lat":23.5384821,"lon":120.6285373,"name":"青園","decorType":"bus_stop"},{"id":"node-7600328039","lat":23.53663,"lon":120.63119,"name":"枝村","decorType":"bus_stop"},{"id":"node-7600328040","lat":23.5604597,"lon":120.5769841,"name":"下庄","decorType":"bus_stop"},{"id":"node-7600328043","lat":23.5507203,"lon":120.6272344,"name":"橫山","decorType":"bus_stop"},{"id":"node-7600328044","lat":23.55084,"lon":120.62714,"name":"橫山","decorType":"bus_stop"},{"id":"node-7600328047","lat":23.56014,"lon":120.60793,"name":"碧湖路口","decorType":"bus_stop"},{"id":"node-7708853165","lat":23.7207391,"lon":120.5265105,"name":"虎尾溪里","decorType":"bus_stop"},{"id":"node-7708853166","lat":23.7206899,"lon":120.5263388,"name":"虎尾溪里","decorType":"bus_stop"},{"id":"node-7708853171","lat":23.7215911,"lon":120.5257635,"name":"7-Eleven","decorType":"convenience"},{"id":"node-7708853172","lat":23.7217913,"lon":120.5257407,"name":"虎尾溪里","decorType":"bus_stop"},{"id":"node-7708853173","lat":23.7221142,"lon":120.5258091,"name":"虎尾溪里","decorType":"bus_stop"},{"id":"node-7709325976","lat":23.7159432,"lon":120.5369362,"name":"斗六棒球場","decorType":"bus_stop"},{"id":"node-7709337490","lat":23.7159333,"lon":120.5303943,"name":"7-Eleven","decorType":"convenience"},{"id":"node-7711015412","lat":23.7310122,"lon":120.5524957,"name":"7-Eleven","decorType":"convenience"},{"id":"node-7711015417","lat":23.7297778,"lon":120.5516803,"name":"萬年庄","decorType":"bus_stop"},{"id":"node-7711135660","lat":23.6942106,"lon":120.5608719,"name":"菜公庄","decorType":"bus_stop"},{"id":"node-7711135661","lat":23.6940284,"lon":120.5608559,"name":"菜公庄","decorType":"bus_stop"},{"id":"node-7711148330","lat":23.7002212,"lon":120.5559231,"name":"番子溝","decorType":"bus_stop"},{"id":"node-7711148331","lat":23.7009024,"lon":120.5555937,"name":"全家便利商店","decorType":"convenience"},{"id":"node-7711148354","lat":23.7048613,"lon":120.5545677,"name":"全家便利商店","decorType":"convenience"},{"id":"node-7711148356","lat":23.7117021,"lon":120.5570313,"name":"歐悅汽車旅館","decorType":"hotel"},{"id":"node-7711193531","lat":23.6843701,"lon":120.568011,"name":"省錢超市","decorType":"supermarket"},{"id":"node-7711193549","lat":23.6851217,"lon":120.5673283,"name":"7-Eleven","decorType":"convenience"},{"id":"node-7711214834","lat":23.6833546,"lon":120.5692605,"name":"東和","decorType":"bus_stop"},{"id":"node-7711236237","lat":23.6641103,"lon":120.5866644,"name":"荷苞山桐花公園","decorType":"bus_stop"},{"id":"node-7711236238","lat":23.6642048,"lon":120.5866871,"name":"荷苞山桐花公園","decorType":"bus_stop"},{"id":"node-7711236239","lat":23.6679377,"lon":120.5802016,"name":"荷苞厝","decorType":"bus_stop"},{"id":"node-7711254014","lat":23.6786726,"lon":120.5741519,"name":"天浩宮","decorType":"shrine"},{"id":"node-7712403943","lat":23.6555387,"lon":120.5951482,"name":"早寮","decorType":"bus_stop"},{"id":"node-7712403944","lat":23.6555436,"lon":120.5949631,"name":"早寮","decorType":"bus_stop"},{"id":"node-7712419964","lat":23.6458707,"lon":120.6477034,"name":"天心宮","decorType":"shrine"},{"id":"node-7712424910","lat":23.6481249,"lon":120.6120166,"name":"二坪仔","decorType":"bus_stop"},{"id":"node-7712424911","lat":23.6480955,"lon":120.6118637,"name":"二坪仔","decorType":"bus_stop"},{"id":"node-7779293397","lat":23.6152552,"lon":120.5767799,"name":"禪園中餐廳","decorType":"restaurant"},{"id":"node-7779293398","lat":23.6190717,"lon":120.5778211,"name":"航海餐館","decorType":"restaurant"},{"id":"node-7779293399","lat":23.6153215,"lon":120.5768234,"name":"蔚藍西餐廳","decorType":"restaurant"},{"id":"node-7779293400","lat":23.6174202,"lon":120.578033,"name":"景園和風","decorType":"restaurant"},{"id":"node-7779293401","lat":23.6191712,"lon":120.5775945,"name":"海盜餐廳","decorType":"restaurant"},{"id":"node-7779293402","lat":23.6158707,"lon":120.5795136,"name":"劍湖樓餐廳","decorType":"restaurant"},{"id":"node-7779293403","lat":23.6179781,"lon":120.5775596,"name":"簡單食草","decorType":"restaurant"},{"id":"node-7779293404","lat":23.6192529,"lon":120.5765134,"name":"魷魚燒烤","decorType":"restaurant"},{"id":"node-7779293405","lat":23.6195644,"lon":120.577793,"name":"Turkish Food","decorType":"restaurant"},{"id":"node-7779293406","lat":23.6208325,"lon":120.5784963,"name":"京丼屋","decorType":"restaurant"},{"id":"node-7860502742","lat":23.6214217,"lon":120.5525135,"name":"古坑浤園餐廳","decorType":"restaurant"},{"id":"node-7970037741","lat":23.7120771,"lon":120.541082,"name":"全家便利商店","decorType":"convenience"},{"id":"node-7972658950","lat":23.6261225,"lon":120.6551566,"name":"小旗仔","decorType":"bus_stop"},{"id":"node-7972658951","lat":23.626175,"lon":120.6557313,"name":"小旗仔","decorType":"bus_stop"},{"id":"node-7972700856","lat":23.6058025,"lon":120.6284556,"name":"後棟路口","decorType":"bus_stop"},{"id":"node-7972700857","lat":23.6058012,"lon":120.628548,"name":"後棟路口","decorType":"bus_stop"},{"id":"node-7972700858","lat":23.6076258,"lon":120.6308619,"name":"五個學","decorType":"bus_stop"},{"id":"node-7972700859","lat":23.6072131,"lon":120.6307812,"name":"五個學","decorType":"bus_stop"},{"id":"node-7972700860","lat":23.6068549,"lon":120.63685,"name":"十字關","decorType":"bus_stop"},{"id":"node-7972700861","lat":23.6068031,"lon":120.6367021,"name":"十字關","decorType":"bus_stop"},{"id":"node-7972700862","lat":23.6035062,"lon":120.6397265,"name":"靈隱寺","decorType":"bus_stop"},{"id":"node-7972700863","lat":23.6032741,"lon":120.6399056,"name":"靈隱寺","decorType":"bus_stop"},{"id":"node-7972700864","lat":23.6098249,"lon":120.6387785,"name":"石橋","decorType":"bus_stop"},{"id":"node-7972700865","lat":23.6097155,"lon":120.638812,"name":"石橋","decorType":"bus_stop"},{"id":"node-7972700866","lat":23.6186253,"lon":120.6423572,"name":"樟湖","decorType":"bus_stop"},{"id":"node-7972700867","lat":23.6212635,"lon":120.6392268,"name":"過寮","decorType":"bus_stop"},{"id":"node-7972700868","lat":23.5955302,"lon":120.5988925,"name":"華山咖啡大街","decorType":"bus_stop"},{"id":"node-7972700869","lat":23.6011477,"lon":120.5948154,"name":"桃源","decorType":"bus_stop"},{"id":"node-7972700870","lat":23.6014894,"lon":120.5952997,"name":"桃源","decorType":"bus_stop"},{"id":"node-7972700871","lat":23.5976902,"lon":120.6033338,"name":"長源","decorType":"bus_stop"},{"id":"node-7972700872","lat":23.5988557,"lon":120.6054974,"name":"下蜈蜞坪","decorType":"bus_stop"},{"id":"node-7972700873","lat":23.5987232,"lon":120.6055482,"name":"下蜈蜞坪","decorType":"bus_stop"},{"id":"node-7972700874","lat":23.5979004,"lon":120.6124004,"name":"蜈蜞坪","decorType":"bus_stop"},{"id":"node-7972700879","lat":23.5999802,"lon":120.6210308,"name":"仙地咖啡","decorType":"bus_stop"},{"id":"node-7972721082","lat":23.6540793,"lon":120.54369,"name":"萊爾富","decorType":"convenience"},{"id":"node-7972724920","lat":23.624762,"lon":120.5543451,"name":"永光故事屋","decorType":"bus_stop"},{"id":"node-7972724921","lat":23.6248713,"lon":120.5543491,"name":"永光故事屋","decorType":"bus_stop"},{"id":"node-7972724922","lat":23.6205609,"lon":120.5579406,"name":"光州食品","decorType":"bus_stop"},{"id":"node-7972724923","lat":23.6051853,"lon":120.5747,"name":"華南路口","decorType":"bus_stop"},{"id":"node-7975170526","lat":23.7432901,"lon":120.5569895,"name":"全家便利商店","decorType":"convenience"},{"id":"node-8118239101","lat":23.5781673,"lon":120.559287,"name":"全家便利商店","decorType":"convenience"},{"id":"node-8118239102","lat":23.7013776,"lon":120.5386555,"name":"全家便利商店","decorType":"convenience"},{"id":"node-8118239104","lat":23.6946155,"lon":120.5383413,"name":"全家便利商店","decorType":"convenience"},{"id":"node-8118239105","lat":23.7218342,"lon":120.5405277,"name":"全家便利商店","decorType":"convenience"},{"id":"node-8385304893","lat":23.69965,"lon":120.53807,"name":"八方雲集","decorType":"burger"},{"id":"node-8385313553","lat":23.715014,"lon":120.542877,"name":"八方雲集","decorType":"burger"},{"id":"node-8385313577","lat":23.708352,"lon":120.539283,"name":"八方雲集","decorType":"burger"},{"id":"node-8385313744","lat":23.710878,"lon":120.548406,"name":"八方雲集","decorType":"burger"},{"id":"node-8385313758","lat":23.584085,"lon":120.556997,"name":"八方雲集","decorType":"burger"},{"id":"node-8393832996","lat":23.6987787,"lon":120.5420668,"name":"全國電子","decorType":"electronics"},{"id":"node-8394064066","lat":23.6989085,"lon":120.5348811,"name":"萊爾富","decorType":"convenience"},{"id":"node-8394077428","lat":23.7105677,"lon":120.5419529,"name":"康是美","decorType":"pharmacy"},{"id":"node-8395696671","lat":23.7125941,"lon":120.5403539,"name":"7-Eleven","decorType":"convenience"},{"id":"node-8399222908","lat":23.7177171,"lon":120.5391055,"name":"7-Eleven","decorType":"convenience"},{"id":"node-8399401420","lat":23.7144042,"lon":120.5399013,"name":"OK超商","decorType":"convenience"},{"id":"node-8430786850","lat":23.7382876,"lon":120.5634303,"name":"寶安府","decorType":"shrine"},{"id":"node-8430786852","lat":23.7383751,"lon":120.5635075,"name":"未命名公園","decorType":"park"},{"id":"node-8432154885","lat":23.7356111,"lon":120.560327,"name":"7-Eleven","decorType":"convenience"},{"id":"node-8432154886","lat":23.7351592,"lon":120.5604409,"name":"天天來商店","decorType":"supermarket"},{"id":"node-8432154887","lat":23.7317149,"lon":120.552839,"name":"萊爾富","decorType":"convenience"},{"id":"node-8515772217","lat":23.5778202,"lon":120.5610446,"name":"梅山天主堂","decorType":"shrine"},{"id":"node-8604913039","lat":23.6183676,"lon":120.5599319,"name":"八斗子海鮮餐廳","decorType":"restaurant"},{"id":"node-879629978","lat":23.7317382,"lon":120.5797964,"name":"石榴","decorType":"station"},{"id":"node-8871073619","lat":23.7126134,"lon":120.5399798,"name":"康是美","decorType":"pharmacy"},{"id":"node-8913280182","lat":23.714801,"lon":120.5391022,"name":"天上人間","decorType":"hotel"},{"id":"node-9097956297","lat":23.5270712,"lon":120.6284174,"name":"福德宮","decorType":"shrine"},{"id":"node-9221844927","lat":23.7081106,"lon":120.5406521,"name":"未命名圖書館／書店","decorType":"library"},{"id":"node-9221851865","lat":23.7097635,"lon":120.5437521,"name":"全聯福利中心","decorType":"supermarket"},{"id":"node-9221856313","lat":23.7064981,"lon":120.5368661,"name":"未命名圖書館／書店","decorType":"library"},{"id":"node-9407363664","lat":23.7131955,"lon":120.5393134,"name":"北極殿","decorType":"shrine"},{"id":"node-9473036404","lat":23.5924671,"lon":120.6275548,"name":"龍德宮","decorType":"shrine"},{"id":"node-9499929817","lat":23.5309877,"lon":120.6341517,"name":"交力坪山","decorType":"mountain"},{"id":"node-9507109805","lat":23.6962675,"lon":120.5451521,"name":"太子宮","decorType":"shrine"},{"id":"node-9610354149","lat":23.5886841,"lon":120.5299429,"name":"開元後山","decorType":"mountain"},{"id":"node-9610424282","lat":23.7092014,"lon":120.5352354,"name":"玉鳳宮","decorType":"shrine"},{"id":"node-9610462089","lat":23.7082123,"lon":120.5345125,"name":"行義宮","decorType":"shrine"},{"id":"node-9623593330","lat":23.7165548,"lon":120.5429857,"name":"未命名神社","decorType":"shrine"},{"id":"node-9692189717","lat":23.7091257,"lon":120.5433449,"name":"阿賜豬腳飯","decorType":"restaurant"},{"id":"node-9692205217","lat":23.710277,"lon":120.541438,"name":"吳記肉圓","decorType":"restaurant"},{"id":"node-9692228017","lat":23.7085252,"lon":120.5451701,"name":"長興圓仔冰","decorType":"restaurant"},{"id":"node-9692237417","lat":23.692025,"lon":120.5285,"name":"烹小鮮","decorType":"restaurant"},{"id":"node-9692250217","lat":23.70257,"lon":120.539906,"name":"青食","decorType":"restaurant"},{"id":"node-9728594295","lat":23.5569872,"lon":120.5987809,"name":"龜山","decorType":"mountain"},{"id":"node-9776244058","lat":23.5957871,"lon":120.5289595,"name":"萊爾富","decorType":"convenience"},{"id":"node-9826787822","lat":23.5494491,"lon":120.6025579,"name":"紅南坑山","decorType":"mountain"},{"id":"node-9826787840","lat":23.5635513,"lon":120.5988831,"name":"太平山西峰","decorType":"mountain"},{"id":"node-9868450836","lat":23.694915,"lon":120.5276119,"name":"萊爾富","decorType":"convenience"},{"id":"node-9982147917","lat":23.7093766,"lon":120.5434848,"name":"魷魚興魷魚嘴羹","decorType":"restaurant"},{"id":"way-1000847306","lat":23.6304822,"lon":120.617768,"name":"未命名橋樑","decorType":"bridge"},{"id":"way-1000847308","lat":23.6357983,"lon":120.6096869,"name":"未命名橋樑","decorType":"bridge"},{"id":"way-1003554771","lat":23.5670058,"lon":120.64985,"name":"蝦仔坑","decorType":"waterside"},{"id":"way-1007062525","lat":23.7150147,"lon":120.5986288,"name":"斗工九路","decorType":"bridge"},{"id":"way-1007062527","lat":23.7145461,"lon":120.5923015,"name":"斗工一路","decorType":"bridge"},{"id":"way-1007062529","lat":23.7146138,"lon":120.5921804,"name":"未命名橋樑","decorType":"bridge"},{"id":"way-1007062531","lat":23.7141978,"lon":120.5921272,"name":"未命名公園","decorType":"park"},{"id":"way-1007062532","lat":23.7140484,"lon":120.5910296,"name":"榴南公園","decorType":"park"},{"id":"way-1015754578","lat":23.6788474,"lon":120.5365853,"name":"中山路","decorType":"bridge"},{"id":"way-1020146082","lat":23.7031297,"lon":120.54647,"name":"7-Eleven","decorType":"convenience"},{"id":"way-1022441255","lat":23.7237863,"lon":120.5855603,"name":"未命名水邊","decorType":"waterside"},{"id":"way-1022441256","lat":23.7235502,"lon":120.5854056,"name":"未命名水邊","decorType":"waterside"},{"id":"way-1026338424","lat":23.5334212,"lon":120.5848066,"name":"水底寮溪","decorType":"waterside"},{"id":"way-1034331471","lat":23.5318317,"lon":120.6438943,"name":"未命名神社","decorType":"shrine"},{"id":"way-1044419190","lat":23.5961318,"lon":120.5326904,"name":"未命名神社","decorType":"shrine"},{"id":"way-1044419195","lat":23.5938815,"lon":120.5330014,"name":"未命名森林","decorType":"forest"},{"id":"way-1044419196","lat":23.5951673,"lon":120.5331332,"name":"未命名森林","decorType":"forest"},{"id":"way-1044419197","lat":23.5963252,"lon":120.5304993,"name":"未命名森林","decorType":"forest"},{"id":"way-1044419200","lat":23.5960266,"lon":120.5323508,"name":"未命名橋樑","decorType":"bridge"},{"id":"way-1044421410","lat":23.5851031,"lon":120.5366443,"name":"未命名水邊","decorType":"waterside"},{"id":"way-1044421415","lat":23.5849701,"lon":120.5369377,"name":"未命名橋樑","decorType":"bridge"},{"id":"way-1044423612","lat":23.6021534,"lon":120.5366717,"name":"未命名水邊","decorType":"waterside"},{"id":"way-1044431742","lat":23.582526,"lon":120.5434971,"name":"未命名水邊","decorType":"waterside"},{"id":"way-1044431743","lat":23.5802742,"lon":120.5443214,"name":"未命名水邊","decorType":"waterside"},{"id":"way-1044431744","lat":23.5839788,"lon":120.5453043,"name":"未命名水邊","decorType":"waterside"},{"id":"way-1044431747","lat":23.5951238,"lon":120.5359201,"name":"未命名橋樑","decorType":"bridge"},{"id":"way-1044431749","lat":23.5964627,"lon":120.5328613,"name":"未命名橋樑","decorType":"bridge"},{"id":"way-1044431751","lat":23.5871971,"lon":120.5423161,"name":"未命名橋樑","decorType":"bridge"},{"id":"way-1044431753","lat":23.5889553,"lon":120.5458645,"name":"未命名橋樑","decorType":"bridge"},{"id":"way-1044431755","lat":23.5941348,"lon":120.5357906,"name":"未命名橋樑","decorType":"bridge"},{"id":"way-1044431757","lat":23.5962079,"lon":120.532562,"name":"未命名橋樑","decorType":"bridge"},{"id":"way-1044488845","lat":23.5891264,"lon":120.5329455,"name":"未命名橋樑","decorType":"bridge"},{"id":"way-1044488847","lat":23.588278,"lon":120.5338799,"name":"未命名橋樑","decorType":"bridge"},{"id":"way-1044488850","lat":23.5885514,"lon":120.5287794,"name":"未命名森林","decorType":"forest"},{"id":"way-1044489884","lat":23.5860999,"lon":120.5256059,"name":"未命名橋樑","decorType":"bridge"},{"id":"way-1044489886","lat":23.5862974,"lon":120.5260034,"name":"明原禪寺","decorType":"shrine"},{"id":"way-1046435635","lat":23.7452119,"lon":120.6259432,"name":"未命名橋樑","decorType":"bridge"},{"id":"way-1061049267","lat":23.7097586,"lon":120.5379434,"name":"縱貫線","decorType":"bridge"},{"id":"way-1061049268","lat":23.7098461,"lon":120.5379105,"name":"縱貫線","decorType":"bridge"},{"id":"way-1073236278","lat":23.5494958,"lon":120.6341896,"name":"太興飛瀑步道","decorType":"bridge"},{"id":"way-1076100117","lat":23.6950636,"lon":120.5287943,"name":"龍潭鄰里公園","decorType":"park"},{"id":"way-1084173372","lat":23.5901765,"lon":120.5272835,"name":"未命名公園","decorType":"park"},{"id":"way-1084173416","lat":23.5927235,"lon":120.5287767,"name":"未命名水邊","decorType":"waterside"},{"id":"way-1095441673","lat":23.5893571,"lon":120.5676476,"name":"未命名橋樑","decorType":"bridge"},{"id":"way-1095447433","lat":23.5802517,"lon":120.6061255,"name":"未命名水邊","decorType":"waterside"},{"id":"way-1095447437","lat":23.5713147,"lon":120.5811793,"name":"磨力溪","decorType":"waterside"},{"id":"way-1095447439","lat":23.5734714,"lon":120.5765356,"name":"未命名橋樑","decorType":"bridge"},{"id":"way-1095447441","lat":23.5767549,"lon":120.5888495,"name":"未命名橋樑","decorType":"bridge"},{"id":"way-1097251982","lat":23.7034549,"lon":120.5419816,"name":"莊敬橋","decorType":"bridge"},{"id":"way-1097251984","lat":23.7068423,"lon":120.541286,"name":"府前街","decorType":"bridge"},{"id":"way-1097251986","lat":23.7045745,"lon":120.5432558,"name":"中正橋","decorType":"bridge"},{"id":"way-1097251987","lat":23.7126235,"lon":120.529205,"name":"未命名水邊","decorType":"waterside"},{"id":"way-1097251988","lat":23.712277,"lon":120.5291846,"name":"未命名水邊","decorType":"waterside"},{"id":"way-1097251990","lat":23.709373,"lon":120.5334642,"name":"南京西路","decorType":"bridge"},{"id":"way-1097251991","lat":23.7028594,"lon":120.5414903,"name":"凱旋街","decorType":"bridge"},{"id":"way-1098297776","lat":23.7013745,"lon":120.5446096,"name":"中正路","decorType":"bridge"},{"id":"way-110253711","lat":23.7141008,"lon":120.5467673,"name":"內環路","decorType":"bridge"},{"id":"way-1104082503","lat":23.6355863,"lon":120.6108062,"name":"未命名橋樑","decorType":"bridge"},{"id":"way-111378303","lat":23.7327267,"lon":120.5956008,"name":"福爾摩沙高速公路","decorType":"bridge"},{"id":"way-111378317","lat":23.732644,"lon":120.5954788,"name":"福爾摩沙高速公路","decorType":"bridge"},{"id":"way-1115460099","lat":23.7143053,"lon":120.572734,"name":"未命名橋樑","decorType":"bridge"},{"id":"way-1115460101","lat":23.7142683,"lon":120.5741524,"name":"河南街","decorType":"bridge"},{"id":"way-1115460105","lat":23.71344,"lon":120.5803047,"name":"未命名橋樑","decorType":"bridge"},{"id":"way-1117111435","lat":23.6569278,"lon":120.6536934,"name":"清水溪","decorType":"waterside"},{"id":"way-1117736333","lat":23.5873931,"lon":120.6072556,"name":"山知湖橋","decorType":"bridge"},{"id":"way-1117797501","lat":23.6370539,"lon":120.600825,"name":"未命名橋樑","decorType":"bridge"},{"id":"way-1117797504","lat":23.6381796,"lon":120.5991133,"name":"未命名橋樑","decorType":"bridge"},{"id":"way-1118027406","lat":23.6854516,"lon":120.6296071,"name":"申坑溪","decorType":"waterside"},{"id":"way-1118027407","lat":23.6860409,"lon":120.6311449,"name":"申坑溪","decorType":"waterside"},{"id":"way-1124890126","lat":23.6039451,"lon":120.5769585,"name":"大崎橋","decorType":"bridge"},{"id":"way-1131870508","lat":23.690733,"lon":120.6063866,"name":"未命名森林","decorType":"forest"},{"id":"way-1136510213","lat":23.6832495,"lon":120.5670525,"name":"未命名水邊","decorType":"waterside"},{"id":"way-1136510216","lat":23.689014,"lon":120.5295731,"name":"未命名橋樑","decorType":"bridge"},{"id":"way-1136510221","lat":23.6897584,"lon":120.5333342,"name":"未命名橋樑","decorType":"bridge"},{"id":"way-1139732486","lat":23.6905548,"lon":120.5337406,"name":"未來學院","decorType":"university"},{"id":"way-1139732487","lat":23.6900983,"lon":120.5374364,"name":"產學研大樓(北棟)","decorType":"university"},{"id":"way-1139732488","lat":23.689984,"lon":120.5377938,"name":"產學研大樓(南棟)","decorType":"university"},{"id":"way-1139732492","lat":23.6907276,"lon":120.5362406,"name":"未命名橋樑","decorType":"bridge"},{"id":"way-1139732495","lat":23.6938938,"lon":120.5378459,"name":"未命名大學&學院","decorType":"university"},{"id":"way-1147359361","lat":23.7405945,"lon":120.5306795,"name":"長安西路","decorType":"bridge"},{"id":"way-1147359365","lat":23.7409095,"lon":120.5337139,"name":"福興公園","decorType":"park"},{"id":"way-1147359366","lat":23.7403136,"lon":120.5372756,"name":"長治公園","decorType":"park"},{"id":"way-1147359367","lat":23.7401739,"lon":120.5362959,"name":"久安公園","decorType":"park"},{"id":"way-1155790214","lat":23.6530914,"lon":120.5913471,"name":"小坑仔溪","decorType":"waterside"},{"id":"way-1155790219","lat":23.6522689,"lon":120.5923102,"name":"未命名水邊","decorType":"waterside"},{"id":"way-1158978581","lat":23.7295182,"lon":120.5910686,"name":"全家便利商店","decorType":"convenience"},{"id":"way-1158978584","lat":23.7236349,"lon":120.5844577,"name":"石榴路陸橋","decorType":"bridge"},{"id":"way-1159180580","lat":23.532221,"lon":120.6019903,"name":"福興宮","decorType":"shrine"},{"id":"way-1159186613","lat":23.7133763,"lon":120.5897158,"name":"7-Eleven","decorType":"convenience"},{"id":"way-1159186614","lat":23.7135982,"lon":120.5911332,"name":"全家便利商店","decorType":"convenience"},{"id":"way-1159186615","lat":23.7023235,"lon":120.5774291,"name":"埤仔頭公園","decorType":"park"},{"id":"way-1159287144","lat":23.7224058,"lon":120.5447566,"name":"萬年路","decorType":"bridge"},{"id":"way-1159287152","lat":23.729121,"lon":120.5571485,"name":"仁盛橋","decorType":"bridge"},{"id":"way-1159287158","lat":23.7414188,"lon":120.5582296,"name":"中興路","decorType":"bridge"},{"id":"way-1159287160","lat":23.734755,"lon":120.5663871,"name":"竹圍子二號橋","decorType":"bridge"},{"id":"way-116599295","lat":23.6694397,"lon":120.5370229,"name":"古坑交流道","decorType":"bridge"},{"id":"way-1171070872","lat":23.6432545,"lon":120.5588684,"name":"未命名公園","decorType":"park"},{"id":"way-1174694739","lat":23.7107935,"lon":120.5493676,"name":"內環路","decorType":"bridge"},{"id":"way-1174694741","lat":23.7101677,"lon":120.5510491,"name":"大同路279巷10弄","decorType":"bridge"},{"id":"way-1174694743","lat":23.7100624,"lon":120.5512277,"name":"文德街","decorType":"bridge"},{"id":"way-1174694745","lat":23.7095901,"lon":120.5514524,"name":"大同路","decorType":"bridge"},{"id":"way-1174694747","lat":23.7090148,"lon":120.5523103,"name":"鎮東路","decorType":"bridge"},{"id":"way-1174694749","lat":23.7089123,"lon":120.5524839,"name":"鎮東路","decorType":"bridge"},{"id":"way-1174694753","lat":23.7092707,"lon":120.5536443,"name":"大同路","decorType":"bridge"},{"id":"way-1174694754","lat":23.7105853,"lon":120.5507403,"name":"未命名公園","decorType":"park"},{"id":"way-1174694756","lat":23.7140945,"lon":120.5557462,"name":"鎮東公園","decorType":"park"},{"id":"way-1174694775","lat":23.7055431,"lon":120.553669,"name":"未命名橋樑","decorType":"bridge"},{"id":"way-1174694777","lat":23.7054963,"lon":120.5537156,"name":"五權街","decorType":"bridge"},{"id":"way-1174694779","lat":23.706448,"lon":120.5518818,"name":"鎮東路","decorType":"bridge"},{"id":"way-1174694781","lat":23.7073285,"lon":120.5512713,"name":"復國街","decorType":"bridge"},{"id":"way-1174694783","lat":23.7079874,"lon":120.550787,"name":"富強街","decorType":"bridge"},{"id":"way-1174694785","lat":23.7085344,"lon":120.550483,"name":"中華路","decorType":"bridge"},{"id":"way-1174694787","lat":23.709606,"lon":120.5497898,"name":"大同路","decorType":"bridge"},