{"bbox":{"south":24.9607,"north":24.976306,"west":121.470031,"east":121.483062},"pois":[{"id":"node-1870220626","lat":24.970324,"lon":121.471016,"name":"清水大尖山","decorType":"mountain"},{"id":"node-1870220630","lat":24.967605,"lon":121.479534,"name":"牛埔頭山","decorType":"mountain"},{"id":"node-2277136067","lat":24.964583,"lon":121.479917,"name":"五尖山","decorType":"mountain"},{"id":"node-2465740938","lat":24.962104,"lon":121.478811,"name":"伴吾別墅","decorType":"bus_stop"},{"id":"node-2465740939","lat":24.962131,"lon":121.479338,"name":"伴吾別墅","decorType":"bus_stop"},{"id":"node-2465740962","lat":24.962262,"lon":121.482489,"name":"彩蝶別墅","decorType":"bus_stop"},{"id":"node-2465740963","lat":24.962616,"lon":121.481914,"name":"彩蝶別墅","decorType":"bus_stop"},{"id":"node-2668935831","lat":24.962286,"lon":121.479402,"name":"全家便利商店","decorType":"convenience"},{"id":"node-2668935835","lat":24.962119,"lon":121.480053,"name":"家樂福超市","decorType":"supermarket"},{"id":"node-2668935837","lat":24.96234,"lon":121.479667,"name":"小紅莓涮涮鍋","decorType":"restaurant"},{"id":"node-2668935838","lat":24.962318,"lon":121.479536,"name":"未命名餐廳","decorType":"restaurant"},{"id":"node-3104846449","lat":24.962146,"lon":121.480143,"name":"O2","decorType":"restaurant"},{"id":"node-3104850036","lat":24.962372,"lon":121.479805,"name":"nook coffee","decorType":"cafe"},{"id":"node-3104850329","lat":24.962074,"lon":121.479567,"name":"八方雲集","decorType":"burger"},{"id":"node-3588042996","lat":24.96212,"lon":121.479387,"name":"未命名郵局","decorType":"post_office"},{"id":"node-8432401496","lat":24.974825,"lon":121.474349,"name":"華克山莊","decorType":"bus_stop"},{"id":"node-8477689082","lat":24.964986,"lon":121.481072,"name":"三清宮","decorType":"shrine"},{"id":"node-10823001124","lat":24.962462,"lon":121.479972,"name":"美廉社","decorType":"supermarket"},{"id":"node-10823284529","lat":24.969372,"lon":121.482133,"name":"百年土地公","decorType":"shrine"},{"id":"way-231847627","lat":24.964391,"lon":121.472415,"name":"未命名橋樑","decorType":"bridge"},{"id":"way-231847654","lat":24.963375,"lon":121.472107,"name":"福山天惠堂（天華山）","decorType":"shrine"},{"id":"way-326372191","lat":24.964575,"lon":121.471748,"name":"未命名森林","decorType":"forest"},{"id":"way-334005606","lat":24.969161,"lon":121.471587,"name":"慈聖宮","decorType":"shrine"},{"id":"way-689716027","lat":24.975447,"lon":121.473513,"name":"未命名水邊","decorType":"waterside"}]}