{"bbox":{"south":24.9607,"north":24.97630625,"west":121.47003124999999,"east":121.48306249999999},"pois":[{"id":"node-1870220626","lat":24.9703241,"lon":121.471016,"name":"清水大尖山","decorType":"mountain"},{"id":"node-1870220630","lat":24.967605,"lon":121.479534,"name":"牛埔頭山","decorType":"mountain"},{"id":"node-2277136067","lat":24.964583,"lon":121.4799171,"name":"五尖山","decorType":"mountain"},{"id":"node-2465740938","lat":24.962104,"lon":121.4788112,"name":"伴吾別墅","decorType":"bus_stop"},{"id":"node-2465740939","lat":24.9621308,"lon":121.4793376,"name":"伴吾別墅","decorType":"bus_stop"},{"id":"node-2465740962","lat":24.9622615,"lon":121.4824887,"name":"彩蝶別墅","decorType":"bus_stop"},{"id":"node-2465740963","lat":24.962616,"lon":121.4819136,"name":"彩蝶別墅","decorType":"bus_stop"},{"id":"node-2668935831","lat":24.9622858,"lon":121.4794015,"name":"全家便利商店","decorType":"convenience"},{"id":"node-2668935835","lat":24.9621186,"lon":121.4800532,"name":"家樂福超市","decorType":"supermarket"},{"id":"node-2668935837","lat":24.9623403,"lon":121.479667,"name":"小紅莓涮涮鍋","decorType":"restaurant"},{"id":"node-2668935838","lat":24.9623178,"lon":121.479536,"name":"未命名餐廳","decorType":"restaurant"},{"id":"node-3104846449","lat":24.9621462,"lon":121.4801433,"name":"O2","decorType":"restaurant"},{"id":"node-3104850036","lat":24.9623724,"lon":121.479805,"name":"nook coffee","decorType":"cafe"},{"id":"node-3104850329","lat":24.9620742,"lon":121.4795665,"name":"八方雲集","decorType":"burger"},{"id":"node-3588042996","lat":24.9621203,"lon":121.4793874,"name":"未命名郵局","decorType":"post_office"},{"id":"node-8432401496","lat":24.974825,"lon":121.474349,"name":"華克山莊","decorType":"bus_stop"},{"id":"node-8477689082","lat":24.9649857,"lon":121.4810716,"name":"三清宮","decorType":"shrine"},{"id":"node-10823001124","lat":24.962462,"lon":121.4799722,"name":"美廉社","decorType":"supermarket"},{"id":"node-10823284529","lat":24.9693721,"lon":121.482133,"name":"百年土地公","decorType":"shrine"},{"id":"way-231847627","lat":24.964391,"lon":121.4724145,"name":"未命名橋樑","decorType":"bridge"},{"id":"way-231847654","lat":24.9633749,"lon":121.4721071,"name":"福山天惠堂（天華山）","decorType":"shrine"},{"id":"way-326372191","lat":24.964575,"lon":121.4717476,"name":"未命名森林","decorType":"forest"},{"id":"way-334005606","lat":24.9691614,"lon":121.4715871,"name":"慈聖宮","decorType":"shrine"},{"id":"way-689716027","lat":24.9754467,"lon":121.4735127,"name":"未命名水邊","decorType":"waterside"}]}