{"bbox":{"south":25.1167625,"north":25.13236875,"west":121.52215625,"east":121.53518749999999},"pois":[{"id":"node-2459681634","lat":25.1182315,"lon":121.531049,"name":"ä¸‰ç‰å®®","decorType":"bus_stop","decorName":"å…¬è»Šç«™","decorIcon":"ğŸšŒ"},{"id":"node-2459681636","lat":25.117252,"lon":121.5346766,"name":"å•Ÿæ™ºå­¸æ ¡","decorType":"bus_stop","decorName":"å…¬è»Šç«™","decorIcon":"ğŸšŒ"},{"id":"node-2459681637","lat":25.1185945,"lon":121.5264005,"name":"å¤©æ¯åœ‹å°","decorType":"bus_stop","decorName":"å…¬è»Šç«™","decorIcon":"ğŸšŒ"},{"id":"node-2459681644","lat":25.1184728,"lon":121.5276786,"name":"é½Šç¦è¯å»ˆ","decorType":"bus_stop","decorName":"å…¬è»Šç«™","decorIcon":"ğŸšŒ"},{"id":"node-2459681645","lat":25.118673,"lon":121.5235949,"name":"æŒ¯èˆˆå…¬åœ’","decorType":"bus_stop","decorName":"å…¬è»Šç«™","decorIcon":"ğŸšŒ"},{"id":"node-2460552078","lat":25.1180469,"lon":121.5310317,"name":"ä¸‰ç‰å®®","decorType":"bus_stop","decorName":"å…¬è»Šç«™","decorIcon":"ğŸšŒ"},{"id":"node-2460552097","lat":25.1172611,"lon":121.5342664,"name":"å•Ÿæ™ºå­¸æ ¡","decorType":"bus_stop","decorName":"å…¬è»Šç«™","decorIcon":"ğŸšŒ"},{"id":"node-2460552133","lat":25.118364,"lon":121.5275859,"name":"é½Šç¦è¯å»ˆ","decorType":"bus_stop","decorName":"å…¬è»Šç«™","decorIcon":"ğŸšŒ"},{"id":"node-2460552134","lat":25.1184218,"lon":121.5252575,"name":"é½Šè³¢è¯å»ˆ","decorType":"bus_stop","decorName":"å…¬è»Šç«™","decorIcon":"ğŸšŒ"},{"id":"node-2460552135","lat":25.1185219,"lon":121.5254877,"name":"é½Šè³¢è¯å»ˆ","decorType":"bus_stop","decorName":"å…¬è»Šç«™","decorIcon":"ğŸšŒ"},{"id":"node-2482647114","lat":25.1294037,"lon":121.523621,"name":"ç£ºæºªå±±å—å³°","decorType":"mountain","decorName":"å±±ä¸˜","decorIcon":"â›°ï¸"},{"id":"node-2622759177","lat":25.1287739,"lon":121.5286932,"name":"æ˜å±±å®®ä¸€","decorType":"bus_stop","decorName":"å…¬è»Šç«™","decorIcon":"ğŸšŒ"},{"id":"node-2622759178","lat":25.1278942,"lon":121.5290998,"name":"æ˜å±±å®®","decorType":"bus_stop","decorName":"å…¬è»Šç«™","decorIcon":"ğŸšŒ"},{"id":"node-2622759315","lat":25.1279475,"lon":121.5292502,"name":"æ˜å±±å®®","decorType":"bus_stop","decorName":"å…¬è»Šç«™","decorIcon":"ğŸšŒ"},{"id":"node-2622761241","lat":25.1259031,"lon":121.5276226,"name":"ç£ºæºª","decorType":"bus_stop","decorName":"å…¬è»Šç«™","decorIcon":"ğŸšŒ"},{"id":"node-2622761325","lat":25.126264,"lon":121.528183,"name":"ç£ºæºª","decorType":"bus_stop","decorName":"å…¬è»Šç«™","decorIcon":"ğŸšŒ"},{"id":"node-2622762478","lat":25.1247619,"lon":121.5263873,"name":"ç¦å¾·å»Ÿ(è¡Œç¾©)","decorType":"bus_stop","decorName":"å…¬è»Šç«™","decorIcon":"ğŸšŒ"},{"id":"node-2622762481","lat":25.1248513,"lon":121.5262736,"name":"ç¦å¾·å»Ÿ(è¡Œç¾©)","decorType":"bus_stop","decorName":"å…¬è»Šç«™","decorIcon":"ğŸšŒ"},{"id":"node-2622762946","lat":25.1236131,"lon":121.5253285,"name":"ç¦å¾·å»Ÿ (çŸ³ç‰Œ)","decorType":"bus_stop","decorName":"å…¬è»Šç«™","decorIcon":"ğŸšŒ"},{"id":"node-2622762949","lat":25.1236701,"lon":121.525738,"name":"ç¦å¾·å»Ÿ (çŸ³ç‰Œ)","decorType":"bus_stop","decorName":"å…¬è»Šç«™","decorIcon":"ğŸšŒ"},{"id":"node-2651775309","lat":25.119599,"lon":121.5297737,"name":"æ˜Ÿå·´å…‹","decorType":"cafe","decorName":"å’–å•¡å»³","decorIcon":"â˜•"},{"id":"node-2651775311","lat":25.1197461,"lon":121.52963,"name":"å¥½ä¸˜","decorType":"restaurant","decorName":"é¤å»³","decorIcon":"ğŸ½ï¸"},{"id":"node-2660830752","lat":25.1176365,"lon":121.5326415,"name":"å…¨å®¶ä¾¿åˆ©å•†åº—","decorType":"convenience","decorName":"ä¾¿åˆ©å•†åº—","decorIcon":"ğŸª"},{"id":"node-2660830754","lat":25.1197879,"lon":121.5334461,"name":"å…¨å®¶ä¾¿åˆ©å•†åº—","decorType":"convenience","decorName":"ä¾¿åˆ©å•†åº—","decorIcon":"ğŸª"},{"id":"node-2691398078","lat":25.1223698,"lon":121.526934,"name":"MOS","decorType":"burger","decorName":"æ¼¢å ¡åº—","decorIcon":"ğŸ”"},{"id":"node-2702070836","lat":25.1211732,"lon":121.5267644,"name":"å¤©ç‰é‡Œ","decorType":"bus_stop","decorName":"å…¬è»Šç«™","decorIcon":"ğŸšŒ"},{"id":"node-2702083847","lat":25.1230237,"lon":121.5291462,"name":"åˆåº«è¨“ç·´ä¸­å¿ƒ","decorType":"bus_stop","decorName":"å…¬è»Šç«™","decorIcon":"ğŸšŒ"},{"id":"node-2702084242","lat":25.1247357,"lon":121.5305651,"name":"å¤©æ¯å…¬åœ’","decorType":"bus_stop","decorName":"å…¬è»Šç«™","decorIcon":"ğŸšŒ"},{"id":"node-2702086523","lat":25.1249883,"lon":121.5323837,"name":"å¤©æ¯åœ“ç’°","decorType":"bus_stop","decorName":"å…¬è»Šç«™","decorIcon":"ğŸšŒ"},{"id":"node-2702086825","lat":25.126863,"lon":121.5329818,"name":"ä¸­éŠ€å±±èŠ","decorType":"bus_stop","decorName":"å…¬è»Šç«™","decorIcon":"ğŸšŒ"},{"id":"node-2702087640","lat":25.1268017,"lon":121.5341475,"name":"æ°´ç®¡è·¯","decorType":"bus_stop","decorName":"å…¬è»Šç«™","decorIcon":"ğŸšŒ"},{"id":"node-2702089063","lat":25.1256846,"lon":121.5341971,"name":"å¤©å’Œé‡Œ","decorType":"bus_stop","decorName":"å…¬è»Šç«™","decorIcon":"ğŸšŒ"},{"id":"node-2702089948","lat":25.1237449,"lon":121.5332302,"name":"å¤©æ¯åœ–æ›¸é¤¨","decorType":"bus_stop","decorName":"å…¬è»Šç«™","decorIcon":"ğŸšŒ"},{"id":"node-2702091733","lat":25.1214566,"lon":121.5330139,"name":"æ±å’Œå…¬åœ’","decorType":"bus_stop","decorName":"å…¬è»Šç«™","decorIcon":"ğŸšŒ"},{"id":"node-2702095515","lat":25.1198273,"lon":121.5333793,"name":"å¤©å’Œå…¬åœ’","decorType":"bus_stop","decorName":"å…¬è»Šç«™","decorIcon":"ğŸšŒ"},{"id":"node-2702144854","lat":25.1192753,"lon":121.5307955,"name":"å¤©æ¯å»£å ´","decorType":"bus_stop","decorName":"å…¬è»Šç«™","decorIcon":"ğŸšŒ"},{"id":"node-2702144855","lat":25.1192137,"lon":121.5305363,"name":"å¤©æ¯å»£å ´","decorType":"bus_stop","decorName":"å…¬è»Šç«™","decorIcon":"ğŸšŒ"},{"id":"node-2702145604","lat":25.1212974,"lon":121.5315671,"name":"å¤©æ¯æ–°æ‘","decorType":"bus_stop","decorName":"å…¬è»Šç«™","decorIcon":"ğŸšŒ"},{"id":"node-2702145605","lat":25.1212712,"lon":121.5313439,"name":"å¤©æ¯æ–°æ‘","decorType":"bus_stop","decorName":"å…¬è»Šç«™","decorIcon":"ğŸšŒ"},{"id":"node-2702146323","lat":25.1243563,"lon":121.5327402,"name":"å¤©æ¯","decorType":"bus_stop","decorName":"å…¬è»Šç«™","decorIcon":"ğŸšŒ"},{"id":"node-2702146324","lat":25.1243759,"lon":121.5325222,"name":"å¤©æ¯","decorType":"bus_stop","decorName":"å…¬è»Šç«™","decorIcon":"ğŸšŒ"},{"id":"node-2702147441","lat":25.1226565,"lon":121.5318167,"name":"è¾²è¨“å”æœƒ","decorType":"bus_stop","decorName":"å…¬è»Šç«™","decorIcon":"ğŸšŒ"},{"id":"node-2705368409","lat":25.1205266,"lon":121.5228073,"name":"æ¦®å…‰æ–°æ‘(æ¦®ç¸½æ±é™¢)","decorType":"bus_stop","decorName":"å…¬è»Šç«™","decorIcon":"ğŸšŒ"},{"id":"node-2705368410","lat":25.1207018,"lon":121.5227339,"name":"æ¦®å…‰æ–°æ‘(æ¦®ç¸½æ±é™¢)","decorType":"bus_stop","decorName":"å…¬è»Šç«™","decorIcon":"ğŸšŒ"},{"id":"node-2705372588","lat":25.1222264,"lon":121.5239938,"name":"æ°¸æ¬£é‡Œ","decorType":"bus_stop","decorName":"å…¬è»Šç«™","decorIcon":"ğŸšŒ"},{"id":"node-2705372589","lat":25.121844,"lon":121.5237254,"name":"æ°¸æ¬£é‡Œ","decorType":"bus_stop","decorName":"å…¬è»Šç«™","decorIcon":"ğŸšŒ"},{"id":"node-2705382903","lat":25.1228889,"lon":121.5265517,"name":"å¤©åŒ—ç«™","decorType":"bus_stop","decorName":"å…¬è»Šç«™","decorIcon":"ğŸšŒ"},{"id":"node-2705382904","lat":25.1229363,"lon":121.5266402,"name":"å¤©åŒ—ç«™","decorType":"bus_stop","decorName":"å…¬è»Šç«™","decorIcon":"ğŸšŒ"},{"id":"node-2705382905","lat":25.1210736,"lon":121.5265866,"name":"å¤©ç‰é‡Œ","decorType":"bus_stop","decorName":"å…¬è»Šç«™","decorIcon":"ğŸšŒ"},{"id":"node-2705382906","lat":25.119089,"lon":121.5261935,"name":"å¤©æ¯åœ‹å°","decorType":"bus_stop","decorName":"å…¬è»Šç«™","decorIcon":"ğŸšŒ"},{"id":"node-2705382907","lat":25.1189523,"lon":121.5263075,"name":"å¤©æ¯åœ‹å°","decorType":"bus_stop","decorName":"å…¬è»Šç«™","decorIcon":"ğŸšŒ"},{"id":"node-2713490191","lat":25.1304449,"lon":121.5280997,"name":"è¡Œç¾©è·¯","decorType":"bus_stop","decorName":"å…¬è»Šç«™","decorIcon":"ğŸšŒ"},{"id":"node-2713490192","lat":25.1306455,"lon":121.5279432,"name":"è¡Œç¾©è·¯","decorType":"bus_stop","decorName":"å…¬è»Šç«™","decorIcon":"ğŸšŒ"},{"id":"node-2714941493","lat":25.1179268,"lon":121.5222743,"name":"æŒ¯èˆˆé†«é™¢","decorType":"bus_stop","decorName":"å…¬è»Šç«™","decorIcon":"ğŸšŒ"},{"id":"node-2918517186","lat":25.1181333,"lon":121.5262175,"name":"åŒ—å¹³é‡‘å»šæ–°è”¬é£Ÿæ–™ç†","decorType":"restaurant","decorName":"é¤å»³","decorIcon":"ğŸ½ï¸"},{"id":"node-3369451080","lat":25.1173364,"lon":121.5322766,"name":"é˜¿è²¡æ°´é¤ƒ","decorType":"restaurant","decorName":"é¤å»³","decorIcon":"ğŸ½ï¸"},{"id":"node-3661063905","lat":25.1174112,"lon":121.5224098,"name":"è˜‡æ­é¤å»³","decorType":"restaurant","decorName":"é¤å»³","decorIcon":"ğŸ½ï¸"},{"id":"node-3661063906","lat":25.1173173,"lon":121.5224197,"name":"åœ“åœ“æ–¹æ–¹å’–å•¡","decorType":"cafe","decorName":"å’–å•¡å»³","decorIcon":"â˜•"},{"id":"node-3661063907","lat":25.1174295,"lon":121.5224956,"name":"æŒ¯èˆˆé†«é™¢åœ–æ›¸é¤¨","decorType":"library","decorName":"åœ–æ›¸é¤¨ï¼æ›¸åº—","decorIcon":"ğŸ“š"},{"id":"node-3661070225","lat":25.1176987,"lon":121.5224067,"name":"æ˜Ÿå·´å…‹","decorType":"cafe","decorName":"å’–å•¡å»³","decorIcon":"â˜•"},{"id":"node-3670571766","lat":25.118458,"lon":121.5242749,"name":"äº”èŠ±é¦¬","decorType":"restaurant","decorName":"é¤å»³","decorIcon":"ğŸ½ï¸"},{"id":"node-3757986701","lat":25.1186924,"lon":121.5259332,"name":"å®‹æ±Ÿé¤¡é¤…ç²¥","decorType":"restaurant","decorName":"é¤å»³","decorIcon":"ğŸ½ï¸"},{"id":"node-3851686356","lat":25.1179855,"lon":121.5222664,"name":"7-Eleven","decorType":"convenience","decorName":"ä¾¿åˆ©å•†åº—","decorIcon":"ğŸª"},{"id":"node-3851686561","lat":25.130027,"lon":121.528207,"name":"èŠçˆ¾å¯Œ","decorType":"convenience","decorName":"ä¾¿åˆ©å•†åº—","decorIcon":"ğŸª"},{"id":"node-3908775426","lat":25.1192709,"lon":121.5277525,"name":"å¤©æ¯æ›¸å»¬","decorType":"library","decorName":"åœ–æ›¸é¤¨ï¼æ›¸åº—","decorIcon":"ğŸ“š"},{"id":"node-3908779057","lat":25.1183425,"lon":121.5258833,"name":"å…¨å®¶ä¾¿åˆ©å•†åº—","decorType":"convenience","decorName":"ä¾¿åˆ©å•†åº—","decorIcon":"ğŸª"},{"id":"node-3908779058","lat":25.1186017,"lon":121.5274276,"name":"7-Eleven","decorType":"convenience","decorName":"ä¾¿åˆ©å•†åº—","decorIcon":"ğŸª"},{"id":"node-3926526891","lat":25.123467,"lon":121.5331562,"name":"å¤©æ¯åœ–æ›¸é¤¨","decorType":"library","decorName":"åœ–æ›¸é¤¨ï¼æ›¸åº—","decorIcon":"ğŸ“š"},{"id":"node-4018210289","lat":25.1258892,"lon":121.5329946,"name":"å¤©æ¯ç¦®æ‹œå ‚","decorType":"shrine","decorName":"ç¥ç¤¾","decorIcon":"â›©ï¸"},{"id":"node-4118984889","lat":25.1232416,"lon":121.5325699,"name":"å‹å£å‘³å¤§è…¸èšµä»”éºµç·š","decorType":"restaurant","decorName":"é¤å»³","decorIcon":"ğŸ½ï¸"},{"id":"node-4244705725","lat":25.1279028,"lon":121.5312153,"name":"æœªå‘½åéƒµå±€","decorType":"post_office","decorName":"éƒµå±€","decorIcon":"âœ‰ï¸"},{"id":"node-4244705837","lat":25.1242686,"lon":121.5263471,"name":"å…¨è¯ç¦åˆ©ä¸­å¿ƒ","decorType":"supermarket","decorName":"è¶…å¸‚","decorIcon":"ğŸ›’"},{"id":"node-4307554237","lat":25.1208588,"lon":121.5228872,"name":"æœªå‘½åéƒµå±€","decorType":"post_office","decorName":"éƒµå±€","decorIcon":"âœ‰ï¸"},{"id":"node-4510193157","lat":25.1199433,"lon":121.5292495,"name":"èŒ‰è‰æ¼¢å ¡","decorType":"burger","decorName":"æ¼¢å ¡åº—","decorIcon":"ğŸ”"},{"id":"node-4516500729","lat":25.1246824,"lon":121.5330168,"name":"èŠçˆ¾å¯Œ","decorType":"convenience","decorName":"ä¾¿åˆ©å•†åº—","decorIcon":"ğŸª"},{"id":"node-4516500732","lat":25.1185353,"lon":121.528883,"name":"éº¥ç•¶å‹","decorType":"burger","decorName":"æ¼¢å ¡åº—","decorIcon":"ğŸ”"},{"id":"node-4778898022","lat":25.1249292,"lon":121.5327934,"name":"å¤©æ¯åœ“ç’°","decorType":"bus_stop","decorName":"å…¬è»Šç«™","decorIcon":"ğŸšŒ"},{"id":"node-4784226433","lat":25.118253,"lon":121.5344981,"name":"æ˜Ÿå·´å…‹","decorType":"cafe","decorName":"å’–å•¡å»³","decorIcon":"â˜•"},{"id":"node-4822637821","lat":25.1177885,"lon":121.5331405,"name":"ç•ªç´…èŠ±å°åº¦ç¾é¥Œ","decorType":"restaurant","decorName":"é¤å»³","decorIcon":"ğŸ½ï¸"},{"id":"node-4836653407","lat":25.1280325,"lon":121.5289813,"name":"æ˜å±±å®®","decorType":"shrine","decorName":"ç¥ç¤¾","decorIcon":"â›©ï¸"},{"id":"node-4934656532","lat":25.124842,"lon":121.5325129,"name":"å…‰è¯å·´å£«å¤©è¥¿èª¿åº¦ç«™","decorType":"bus_stop","decorName":"å…¬è»Šç«™","decorIcon":"ğŸšŒ"},{"id":"node-5110501363","lat":25.1280297,"lon":121.5290355,"name":"æ˜å±±å®®","decorType":"shrine","decorName":"ç¥ç¤¾","decorIcon":"â›©ï¸"},{"id":"node-5110501365","lat":25.1227274,"lon":121.5268038,"name":"OKè¶…å•†","decorType":"convenience","decorName":"ä¾¿åˆ©å•†åº—","decorIcon":"ğŸª"},{"id":"node-5110501366","lat":25.1181496,"lon":121.525914,"name":"çŸ³äºŒé‹","decorType":"restaurant","decorName":"é¤å»³","decorIcon":"ğŸ½ï¸"},{"id":"node-5172407622","lat":25.118328,"lon":121.5261918,"name":"Mr. Brown","decorType":"cafe","decorName":"å’–å•¡å»³","decorIcon":"â˜•"},{"id":"node-5172437521","lat":25.1189983,"lon":121.5250667,"name":"å‘³è¦ºæœ¬å®¶","decorType":"restaurant","decorName":"é¤å»³","decorIcon":"ğŸ½ï¸"},{"id":"node-5172444921","lat":25.1187096,"lon":121.5259976,"name":"å…¨çµ±è¥¿é»éºµåŒ…","decorType":"bakery","decorName":"éºµåŒ…åº—","decorIcon":"ğŸ¥"},{"id":"node-5174028733","lat":25.1185179,"lon":121.5287843,"name":"Dayunds Drink shop","decorType":"cafe","decorName":"å’–å•¡å»³","decorIcon":"â˜•"},{"id":"node-5185289722","lat":25.1194205,"lon":121.5262331,"name":"OKè¶…å•†","decorType":"convenience","decorName":"ä¾¿åˆ©å•†åº—","decorIcon":"ğŸª"},{"id":"node-5185293321","lat":25.1190736,"lon":121.5261226,"name":"å‘³è¦ºç¾©å»š","decorType":"restaurant","decorName":"é¤å»³","decorIcon":"ğŸ½ï¸"},{"id":"node-5185299921","lat":25.1191114,"lon":121.5261415,"name":"å±ˆè‡£æ°","decorType":"pharmacy","decorName":"è—¥å±€","decorIcon":"ğŸ’Š"},{"id":"node-5185300621","lat":25.1192192,"lon":121.52618,"name":"å€é©å¾—é›»å™¨","decorType":"electronics","decorName":"é›»å™¨è¡Œ","decorIcon":"ğŸ”Œ"},{"id":"node-5185300623","lat":25.119352,"lon":121.5262048,"name":"å°è è˜¿è¤‡åˆå¼é¤é£²","decorType":"restaurant","decorName":"é¤å»³","decorIcon":"ğŸ½ï¸"},{"id":"node-5185305522","lat":25.1195902,"lon":121.526267,"name":"é³³åŸç‡’è‡˜ç²µèœ","decorType":"restaurant","decorName":"é¤å»³","decorIcon":"ğŸ½ï¸"},{"id":"node-5185316221","lat":25.1194871,"lon":121.5262431,"name":"å…¨åœ‹é›»å­","decorType":"electronics","decorName":"é›»å™¨è¡Œ","decorIcon":"ğŸ”Œ"},{"id":"node-5185326021","lat":25.1197242,"lon":121.5263066,"name":"å¤©æ™´éºµé¤¨","decorType":"restaurant","decorName":"é¤å»³","decorIcon":"ğŸ½ï¸"},{"id":"node-5185337421","lat":25.1200658,"lon":121.5263464,"name":"ç‡¦å¤","decorType":"electronics","decorName":"é›»å™¨è¡Œ","decorIcon":"ğŸ”Œ"},{"id":"node-5185337423","lat":25.1203093,"lon":121.5264099,"name":"æ¾å²¡æ›¸åº—","decorType":"library","decorName":"åœ–æ›¸é¤¨ï¼æ›¸åº—","decorIcon":"ğŸ“š"},{"id":"node-5189696121","lat":25.1180445,"lon":121.5261834,"name":"å›æ‚…æ’éª¨","decorType":"restaurant","decorName":"é¤å»³","decorIcon":"ğŸ½ï¸"},{"id":"node-5189696122","lat":25.1190127,"lon":121.5263757,"name":"äº¬äº¬å¥åº·æ—©é¤åº—","decorType":"burger","decorName":"æ¼¢å ¡åº—","decorIcon":"ğŸ”"},{"id":"node-5189706422","lat":25.1188761,"lon":121.5263411,"name":"æå ¯æ£‰è¡£åº—","decorType":"clothing","decorName":"æœé£¾åº—","decorIcon":"ğŸ‘”"},{"id":"node-5189706723","lat":25.1189142,"lon":121.5263526,"name":"50åµ","decorType":"cafe","decorName":"å’–å•¡å»³","decorIcon":"â˜•"},{"id":"node-5189722421","lat":25.1193724,"lon":121.5262159,"name":"è‚²å§¿ç¾å®¹","decorType":"cosmetics","decorName":"åŒ–å¦å“å•†åº—","decorIcon":"ğŸ’„"},{"id":"node-5189722422","lat":25.1193376,"lon":121.5264218,"name":"Amy sun","decorType":"clothing","decorName":"æœé£¾åº—","decorIcon":"ğŸ‘”"},{"id":"node-5189723723","lat":25.1193837,"lon":121.5264243,"name":"å¤æ—©å‘³æ’éª¨é…¥éºµ","decorType":"restaurant","decorName":"é¤å»³","decorIcon":"ğŸ½ï¸"},{"id":"node-5189728523","lat":25.1197918,"lon":121.5265499,"name":"èƒ–é˜¿å§¨å»£æ±ç²¥","decorType":"restaurant","decorName":"é¤å»³","decorIcon":"ğŸ½ï¸"},{"id":"node-5189728524","lat":25.1200477,"lon":121.5266175,"name":"è—ç™½å°é®","decorType":"cafe","decorName":"å’–å•¡å»³","decorIcon":"â˜•"},{"id":"node-5189728526","lat":25.1200141,"lon":121.5266673,"name":"ä¸€å“å±±è¥¿åˆ€å‰Šéºµ","decorType":"restaurant","decorName":"é¤å»³","decorIcon":"ğŸ½ï¸"},{"id":"node-5189737222","lat":25.1199765,"lon":121.5268232,"name":"å¤§æ©‹é ­ç­’ä»”ç±³ç³•","decorType":"restaurant","decorName":"é¤å»³","decorIcon":"ğŸ½ï¸"},{"id":"node-5189737321","lat":25.1195996,"lon":121.5265112,"name":"GTZ fashion outlet","decorType":"clothing","decorName":"æœé£¾åº—","decorIcon":"ğŸ‘”"},{"id":"node-5189737323","lat":25.1197813,"lon":121.526762,"name":"æ½˜èœœæ‹‰ç¾©éºµèˆ–","decorType":"restaurant","decorName":"é¤å»³","decorIcon":"ğŸ½ï¸"},{"id":"node-5189737324","lat":25.120333,"lon":121.5266458,"name":"å¤©æ£§é‹ç‰©","decorType":"restaurant","decorName":"é¤å»³","decorIcon":"ğŸ½ï¸"},{"id":"node-5189741821","lat":25.1198502,"lon":121.5265513,"name":"cafe in","decorType":"cafe","decorName":"å’–å•¡å»³","decorIcon":"â˜•"},{"id":"node-5189745724","lat":25.1197264,"lon":121.5270269,"name":"å—ç¾å’–å•¡","decorType":"cafe","decorName":"å’–å•¡å»³","decorIcon":"â˜•"},{"id":"node-5189756722","lat":25.1197573,"lon":121.5268781,"name":"7-Eleven","decorType":"convenience","decorName":"ä¾¿åˆ©å•†åº—","decorIcon":"ğŸª"},{"id":"node-5189756726","lat":25.1205788,"lon":121.5266983,"name":"è’œé¦™å»šæˆ¿","decorType":"restaurant","decorName":"é¤å»³","decorIcon":"ğŸ½ï¸"},{"id":"node-5189758921","lat":25.1197438,"lon":121.5269685,"name":"è²»æ€ç‰¹","decorType":"cosmetics","decorName":"åŒ–å¦å“å•†åº—","decorIcon":"ğŸ’„"},{"id":"node-5189781421","lat":25.1205056,"lon":121.5267022,"name":"é¦™æ¸¯èŒ¶é¤å»³","decorType":"restaurant","decorName":"é¤å»³","decorIcon":"ğŸ½ï¸"},{"id":"node-5189793321","lat":25.1208441,"lon":121.5267375,"name":"happy hair","decorType":"hair_salon","decorName":"ç¾é«®é™¢","decorIcon":"ğŸ’‡"},{"id":"node-5189796421","lat":25.1209657,"lon":121.5267892,"name":"ç¾éº—é”äºº","decorType":"cosmetics","decorName":"åŒ–å¦å“å•†åº—","decorIcon":"ğŸ’„"},{"id":"node-5189799223","lat":25.1193104,"lon":121.5273489,"name":"æ—©é¤å„ªé¸","decorType":"burger","decorName":"æ¼¢å ¡åº—","decorIcon":"ğŸ”"},{"id":"node-5189801222","lat":25.1216454,"lon":121.5266326,"name":"SNAILè¸ç‰›æ­ç¾©æ–™ç†","decorType":"restaurant","decorName":"é¤å»³","decorIcon":"ğŸ½ï¸"},{"id":"node-5189801223","lat":25.1195345,"lon":121.5273707,"name":"å¤©æ¯å°šäº•","decorType":"restaurant","decorName":"é¤å»³","decorIcon":"ğŸ½ï¸"},{"id":"node-5189810121","lat":25.1196076,"lon":121.5272733,"name":"æˆ‘å®¶ç‰›æ’","decorType":"restaurant","decorName":"é¤å»³","decorIcon":"ğŸ½ï¸"},{"id":"node-5189814421","lat":25.1194318,"lon":121.527361,"name":"ä»Šæ¬£è—¥å±€","decorType":"pharmacy","decorName":"è—¥å±€","decorIcon":"ğŸ’Š"},{"id":"node-5189814422","lat":25.1192983,"lon":121.527482,"name":"æº«å·å¤§é¤›é£©","decorType":"restaurant","decorName":"é¤å»³","decorIcon":"ğŸ½ï¸"},{"id":"node-5189814423","lat":25.119062,"lon":121.5274903,"name":"ç«¹ä¹‹å±‹","decorType":"restaurant","decorName":"é¤å»³","decorIcon":"ğŸ½ï¸"},{"id":"node-5189814621","lat":25.1195167,"lon":121.5273978,"name":"é–±å–œç¾ä»£å¤ç¾è¡“","decorType":"art_gallery","decorName":"ç¾è¡“é¤¨","decorIcon":"ğŸ¨"},{"id":"node-5189823021","lat":25.1190135,"lon":121.5274948,"name":"å˜‰ç¾ä¹¾æ´—åº—","decorType":"laundry","decorName":"è‡ªä¸»æ´—è¡£åº—&ä¹¾æ´—åº—","decorIcon":"ğŸ§º"},{"id":"node-5189829121","lat":25.1191377,"lon":121.5275038,"name":"éº¥é¦™ç¾æ—©é¤åº—","decorType":"burger","decorName":"æ¼¢å ¡åº—","decorIcon":"ğŸ”"},{"id":"node-5189829221","lat":25.1192073,"lon":121.5275193,"name":"å¦‚è§€é¡¯å¯†ä½›å­¸ä¸­å¿ƒ","decorType":"shrine","decorName":"ç¥ç¤¾","decorIcon":"â›©ï¸"},{"id":"node-5189832621","lat":25.118885,"lon":121.5272189,"name":"å…«è—¤å®¶","decorType":"restaurant","decorName":"é¤å»³","decorIcon":"ğŸ½ï¸"},{"id":"node-5189833121","lat":25.11869,"lon":121.5274917,"name":"å››ä¸€ç”ºé‹ç‰©","decorType":"restaurant","decorName":"é¤å»³","decorIcon":"ğŸ½ï¸"},{"id":"node-5189837321","lat":25.1188245,"lon":121.5274741,"name":"æ±Ÿå®¶ç‰›è‚‰éºµ","decorType":"restaurant","decorName":"é¤å»³","decorIcon":"ğŸ½ï¸"},{"id":"node-5197890324","lat":25.1185264,"lon":121.5283312,"name":"Smile","decorType":"clothing","decorName":"æœé£¾åº—","decorIcon":"ğŸ‘”"},{"id":"node-5197890423","lat":25.1185186,"lon":121.528925,"name":"å¤§è‹‘å­","decorType":"cafe","decorName":"å’–å•¡å»³","decorIcon":"â˜•"},{"id":"node-5197897042","lat":25.1185185,"lon":121.5287225,"name":"Cross's Shoes","decorType":"clothing","decorName":"æœé£¾åº—","decorIcon":"ğŸ‘”"},{"id":"node-5197926723","lat":25.118563,"lon":121.528894,"name":"æ¾ äº•å· æ—¥æ°ä¸²ç‡’å±…é…’å±‹","decorType":"restaurant","decorName":"é¤å»³","decorIcon":"ğŸ½ï¸"},{"id":"node-5197947430","lat":25.1185289,"lon":121.5294367,"name":"æ±æµ·èŠå§†åœ’organic lime","decorType":"supermarket","decorName":"è¶…å¸‚","decorIcon":"ğŸ›’"},{"id":"node-5197948121","lat":25.1185775,"lon":121.5289678,"name":"smile","decorType":"clothing","decorName":"æœé£¾åº—","decorIcon":"ğŸ‘”"},{"id":"node-5197948124","lat":25.1182741,"lon":121.5289875,"name":"å…¨è¯ç¦åˆ©ä¸­å¿ƒ","decorType":"supermarket","decorName":"è¶…å¸‚","decorIcon":"ğŸ›’"},{"id":"node-5197961927","lat":25.1193725,"lon":121.5298545,"name":"Jason's Market (Front)","decorType":"supermarket","decorName":"è¶…å¸‚","decorIcon":"ğŸ›’"},{"id":"node-5197970921","lat":25.1184985,"lon":121.5293652,"name":"Jason's market place","decorType":"supermarket","decorName":"è¶…å¸‚","decorIcon":"ğŸ›’"},{"id":"node-5197970924","lat":25.1185811,"lon":121.5294482,"name":"Comebuy","decorType":"cafe","decorName":"å’–å•¡å»³","decorIcon":"â˜•"},{"id":"node-5198011427","lat":25.1192482,"lon":121.5287292,"name":"OD Flower and Food","decorType":"cafe","decorName":"å’–å•¡å»³","decorIcon":"â˜•"},{"id":"node-5205427527","lat":25.1183255,"lon":121.5262858,"name":"å…¨åœ‹å¥åº·ç´ é£Ÿç²¾ç·»å…¨è‡ªåŠ©é¤å»³","decorType":"restaurant","decorName":"é¤å»³","decorIcon":"ğŸ½ï¸"},{"id":"node-5205439621","lat":25.1183335,"lon":121.5263329,"name":"CHER'S boutique","decorType":"clothing","decorName":"æœé£¾åº—","decorIcon":"ğŸ‘”"},{"id":"node-5205447521","lat":25.1183346,"lon":121.5266356,"name":"è–å¾·ç§‘æ–¯ç”Ÿæ©Ÿé£Ÿå“","decorType":"supermarket","decorName":"è¶…å¸‚","decorIcon":"ğŸ›’"},{"id":"node-5205450121","lat":25.1183203,"lon":121.5266122,"name":"ç¾è¡£æ—¥éŸ“ç²¾å“","decorType":"clothing","decorName":"æœé£¾åº—","decorIcon":"ğŸ‘”"},{"id":"node-5205450122","lat":25.1182837,"lon":121.5281981,"name":"miss sixty","decorType":"clothing","decorName":"æœé£¾åº—","decorIcon":"ğŸ‘”"},{"id":"node-5205450123","lat":25.1185268,"lon":121.5278473,"name":"LiLO","decorType":"clothing","decorName":"æœé£¾åº—","decorIcon":"ğŸ‘”"},{"id":"node-5205454026","lat":25.1185175,"lon":121.5281465,"name":"Espaceè¡£é£¾ç©ºé–“","decorType":"clothing","decorName":"æœé£¾åº—","decorIcon":"ğŸ‘”"},{"id":"node-5205454028","lat":25.1185121,"lon":121.5282224,"name":"Vivo","decorType":"cosmetics","decorName":"åŒ–å¦å“å•†åº—","decorIcon":"ğŸ’„"},{"id":"node-5205454122","lat":25.1182955,"lon":121.5275667,"name":"æ²™å…‹æ€è¥ªé¡å°ˆè³£åº—","decorType":"clothing","decorName":"æœé£¾åº—","decorIcon":"ğŸ‘”"},{"id":"node-5205457022","lat":25.1182973,"lon":121.5276605,"name":"èŠ™æ´›åŠæ³•åœ‹ç¾å®¹ç¾é«”","decorType":"cosmetics","decorName":"åŒ–å¦å“å•†åº—","decorIcon":"ğŸ’„"},{"id":"node-5205457027","lat":25.1185197,"lon":121.5278929,"name":"Phiten éŠ€è°·","decorType":"clothing","decorName":"æœé£¾åº—","decorIcon":"ğŸ‘”"},{"id":"node-5205457028","lat":25.118522,"lon":121.527871,"name":"æº«æ•…çŸ¥æ–°","decorType":"clothing","decorName":"æœé£¾åº—","decorIcon":"ğŸ‘”"},{"id":"node-5205458421","lat":25.118131,"lon":121.5273091,"name":"ç´«å±‹ä¹‹æˆ€","decorType":"clothing","decorName":"æœé£¾åº—","decorIcon":"ğŸ‘”"},{"id":"node-5205477526","lat":25.1185764,"lon":121.526578,"name":"ç‹æœæ»·å‘³","decorType":"restaurant","decorName":"é¤å»³","decorIcon":"ğŸ½ï¸"},{"id":"node-5205479223","lat":25.1185372,"lon":121.5271194,"name":"è¥¿é›…åœ–æ¥µå“å’–å•¡","decorType":"cafe","decorName":"å’–å•¡å»³","decorIcon":"â˜•"},{"id":"node-5205490723","lat":25.1185359,"lon":121.5272165,"name":"å¥½é‹","decorType":"restaurant","decorName":"é¤å»³","decorIcon":"ğŸ½ï¸"},{"id":"node-5205492922","lat":25.1185095,"lon":121.5275121,"name":"NET","decorType":"clothing","decorName":"æœé£¾åº—","decorIcon":"ğŸ‘”"},{"id":"node-5205492927","lat":25.1185558,"lon":121.5266138,"name":"ç™¾é®®è”¬æœæ¨‚åœ’","decorType":"supermarket","decorName":"è¶…å¸‚","decorIcon":"ğŸ›’"},{"id":"node-5205494422","lat":25.1185487,"lon":121.5269853,"name":"è‘³è¨Šæ•¸ä½ç”Ÿæ´»é¤¨","decorType":"electronics","decorName":"é›»å™¨è¡Œ","decorIcon":"ğŸ”Œ"},{"id":"node-5205498824","lat":25.1185282,"lon":121.5266583,"name":"æ£ è‘³","decorType":"clothing","decorName":"æœé£¾åº—","decorIcon":"ğŸ‘”"},{"id":"node-5205500221","lat":25.1185385,"lon":121.5268804,"name":"ä¾å…’æœé£¾","decorType":"clothing","decorName":"æœé£¾åº—","decorIcon":"ğŸ‘”"},{"id":"node-5205509022","lat":25.1183355,"lon":121.5257253,"name":"ç¾©ç¾é£Ÿå“","decorType":"convenience","decorName":"ä¾¿åˆ©å•†åº—","decorIcon":"ğŸª"},{"id":"node-5205509221","lat":25.1186334,"lon":121.5264947,"name":"ORDITO","decorType":"clothing","decorName":"æœé£¾åº—","decorIcon":"ğŸ‘”"},{"id":"node-5205509224","lat":25.1185639,"lon":121.5254138,"name":"åª½å’ªå’–å•¡é¤¨","decorType":"cafe","decorName":"å’–å•¡å»³","decorIcon":"â˜•"},{"id":"node-5205520723","lat":25.1185702,"lon":121.525202,"name":"ç´…è‘‰è›‹ç³•","decorType":"bakery","decorName":"éºµåŒ…åº—","decorIcon":"ğŸ¥"},{"id":"node-5205526422","lat":25.1185614,"lon":121.5255501,"name":"æ–°è±æ°´æœ","decorType":"supermarket","decorName":"è¶…å¸‚","decorIcon":"ğŸ›’"},{"id":"node-5205526423","lat":25.118327,"lon":121.5254727,"name":"kibo Hair Salon","decorType":"hair_salon","decorName":"ç¾é«®é™¢","decorIcon":"ğŸ’‡"},{"id":"node-5205526424","lat":25.1185693,"lon":121.5252709,"name":"Motorola","decorType":"electronics","decorName":"é›»å™¨è¡Œ","decorIcon":"ğŸ”Œ"},{"id":"node-5205539021","lat":25.118344,"lon":121.5256166,"name":"æ¸…å¿ƒç¦å…¨","decorType":"cafe","decorName":"å’–å•¡å»³","decorIcon":"â˜•"},{"id":"node-5205539421","lat":25.1183592,"lon":121.5256462,"name":"å…«æ–¹é›²é›†","decorType":"burger","decorName":"æ¼¢å ¡åº—","decorIcon":"ğŸ”"},{"id":"node-5205539424","lat":25.1183764,"lon":121.5250828,"name":"å°è±ªåŒ…è†œ","decorType":"electronics","decorName":"é›»å™¨è¡Œ","decorIcon":"ğŸ”Œ"},{"id":"node-5205543122","lat":25.1183935,"lon":121.5246049,"name":"è±é–£ç²¾å“æœé£¾","decorType":"clothing","decorName":"æœé£¾åº—","decorIcon":"ğŸ‘”"},{"id":"node-5205558321","lat":25.1185813,"lon":121.5251605,"name":"Birkenstock","decorType":"clothing","decorName":"æœé£¾åº—","decorIcon":"ğŸ‘”"},{"id":"node-5205558622","lat":25.1185744,"lon":121.5249209,"name":"éº—å¬°æˆ¿","decorType":"clothing","decorName":"æœé£¾åº—","decorIcon":"ğŸ‘”"},{"id":"node-5205559422","lat":25.1185851,"lon":121.5248367,"name":"é»‘é›¨ååº—","decorType":"clothing","decorName":"æœé£¾åº—","decorIcon":"ğŸ‘”"},{"id":"node-5205559621","lat":25.1185762,"lon":121.5247997,"name":"å¯é‚å¥åº·é‹","decorType":"clothing","decorName":"æœé£¾åº—","decorIcon":"ğŸ‘”"},{"id":"node-5205915222","lat":25.1185175,"lon":121.5286037,"name":"Ita","decorType":"clothing","decorName":"æœé£¾åº—","decorIcon":"ğŸ‘”"},{"id":"node-5205926035","lat":25.1182947,"lon":121.5289263,"name":"é’æŸ³å®¶","decorType":"restaurant","decorName":"é¤å»³","decorIcon":"ğŸ½ï¸"},{"id":"node-5206048123","lat":25.1186514,"lon":121.5294963,"name":"Present","decorType":"clothing","decorName":"æœé£¾åº—","decorIcon":"ğŸ‘”"},{"id":"node-5206079324","lat":25.1187702,"lon":121.5295323,"name":"ä¾éŒ¸ç«¥è£ç²¾å“å±‹","decorType":"clothing","decorName":"æœé£¾åº—","decorIcon":"ğŸ‘”"},{"id":"node-5206109621","lat":25.1188197,"lon":121.5295037,"name":"è™¹å±‹","decorType":"clothing","decorName":"æœé£¾åº—","decorIcon":"ğŸ‘”"},{"id":"node-5206127522","lat":25.1187417,"lon":121.5295442,"name":"Rose House è–”èˆ","decorType":"clothing","decorName":"æœé£¾åº—","decorIcon":"ğŸ‘”"},{"id":"node-5206158121","lat":25.118906,"lon":121.5295614,"name":"Belle","decorType":"clothing","decorName":"æœé£¾åº—","decorIcon":"ğŸ‘”"},{"id":"node-5206173021","lat":25.11892,"lon":121.5295814,"name":"Mini Cut è¿·ä½ å‰ª","decorType":"hair_salon","decorName":"ç¾é«®é™¢","decorIcon":"ğŸ’‡"},{"id":"node-5206180222","lat":25.1190753,"lon":121.5296159,"name":"åˆ‡ä»”éºµé”äºº","decorType":"restaurant","decorName":"é¤å»³","decorIcon":"ğŸ½ï¸"},{"id":"node-5206205221","lat":25.11962,"lon":121.529366,"name":"å¤©åˆ©ä¹¾æ´—åº—","decorType":"laundry","decorName":"è‡ªä¸»æ´—è¡£åº—&ä¹¾æ´—åº—","decorIcon":"ğŸ§º"},{"id":"node-5206247421","lat":25.118713,"lon":121.528424,"name":"è–©è‰äºç¾©å¼æ–™ç†é¤å»³","decorType":"restaurant","decorName":"é¤å»³","decorIcon":"ğŸ½ï¸"},{"id":"node-5211903228","lat":25.1187244,"lon":121.5294922,"name":"åˆ©è±æœ¬é‹ª","decorType":"restaurant","decorName":"é¤å»³","decorIcon":"ğŸ½ï¸"},{"id":"node-5211904321","lat":25.1183034,"lon":121.5283451,"name":"Joan The Shop","decorType":"clothing","decorName":"æœé£¾åº—","decorIcon":"ğŸ‘”"},{"id":"node-5211934730","lat":25.118583,"lon":121.529333,"name":"ä¿®æ”¹è¡£æœ æ­æ´²ï¼Œæœé£¾ç²¾å“","decorType":"clothing","decorName":"æœé£¾åº—","decorIcon":"ğŸ‘”"},{"id":"node-5211934825","lat":25.1187408,"lon":121.5295234,"name":"Package Outlet","decorType":"clothing","decorName":"æœé£¾åº—","decorIcon":"ğŸ‘”"},{"id":"node-5211941621","lat":25.1187125,"lon":121.5289417,"name":"æ›¼éƒ½é«®å‹","decorType":"hair_salon","decorName":"ç¾é«®é™¢","decorIcon":"ğŸ’‡"},{"id":"node-5211945230","lat":25.118538,"lon":121.529338,"name":"ãŠé£Ÿäº‹é®®","decorType":"restaurant","decorName":"é¤å»³","decorIcon":"ğŸ½ï¸"},{"id":"node-5211972140","lat":25.118924,"lon":121.529648,"name":"å¼µå®¶é£¯å°é¤¨","decorType":"restaurant","decorName":"é¤å»³","decorIcon":"ğŸ½ï¸"},{"id":"node-5212001322","lat":25.118711,"lon":121.529529,"name":"éºµéºµ","decorType":"restaurant","decorName":"é¤å»³","decorIcon":"ğŸ½ï¸"},{"id":"node-5212001324","lat":25.1185356,"lon":121.5293199,"name":"Collection","decorType":"clothing","decorName":"æœé£¾åº—","decorIcon":"ğŸ‘”"},{"id":"node-5212001525","lat":25.119045,"lon":121.529651,"name":"Just cut 68å‰ªé«®é‹ª","decorType":"hair_salon","decorName":"ç¾é«®é™¢","decorIcon":"ğŸ’‡"},{"id":"node-5212043223","lat":25.118791,"lon":121.529584,"name":"åŠ‰åª½åª½æŠ„æ‰‹","decorType":"restaurant","decorName":"é¤å»³","decorIcon":"ğŸ½ï¸"},{"id":"node-5212075125","lat":25.118812,"lon":121.529584,"name":"é‡‘çŸ³å ‚","decorType":"library","decorName":"åœ–æ›¸é¤¨ï¼æ›¸åº—","decorIcon":"ğŸ“š"},{"id":"node-5212168622","lat":25.119124,"lon":121.528835,"name":"ä¸ƒå‘³å±‹","decorType":"restaurant","decorName":"é¤å»³","decorIcon":"ğŸ½ï¸"},{"id":"node-5263221221","lat":25.1245648,"lon":121.5326202,"name":"Zabu","decorType":"cafe","decorName":"å’–å•¡å»³","decorIcon":"â˜•"},{"id":"node-5263221421","lat":25.1246736,"lon":121.5325528,"name":"å…«æ–¹é›²é›†","decorType":"burger","decorName":"æ¼¢å ¡åº—","decorIcon":"ğŸ”"},{"id":"node-5363411158","lat":25.1239358,"lon":121.5330985,"name":"å…¨è¯ç¦åˆ©ä¸­å¿ƒ","decorType":"supermarket","decorName":"è¶…å¸‚","decorIcon":"ğŸ›’"},{"id":"node-5363425592","lat":25.1257335,"lon":121.534673,"name":"7-Eleven","decorType":"convenience","decorName":"ä¾¿åˆ©å•†åº—","decorIcon":"ğŸª"},{"id":"node-5366399529","lat":25.1223563,"lon":121.5267115,"name":"Wood Pot","decorType":"restaurant","decorName":"é¤å»³","decorIcon":"ğŸ½ï¸"},{"id":"node-5467695066","lat":25.1186111,"lon":121.5310313,"name":"7-Eleven","decorType":"convenience","decorName":"ä¾¿åˆ©å•†åº—","decorIcon":"ğŸª"},{"id":"node-5891986485","lat":25.1169167,"lon":121.5318644,"name":"Louisa cafÃ©","decorType":"cafe","decorName":"å’–å•¡å»³","decorIcon":"â˜•"},{"id":"node-5940233906","lat":25.1230844,"lon":121.5267035,"name":"æœªå‘½åéºµåŒ…åº—","decorType":"bakery","decorName":"éºµåŒ…åº—","decorIcon":"ğŸ¥"},{"id":"node-6026828411","lat":25.128533,"lon":121.5308016,"name":"å…¨å®¶ä¾¿åˆ©å•†åº—","decorType":"convenience","decorName":"ä¾¿åˆ©å•†åº—","decorIcon":"ğŸª"},{"id":"node-6191479260","lat":25.1294079,"lon":121.527841,"name":"å¯Ÿçˆ¾æ–¯å»šæˆ¿","decorType":"restaurant","decorName":"é¤å»³","decorIcon":"ğŸ½ï¸"},{"id":"node-6726425485","lat":25.1231615,"lon":121.5323314,"name":"PS Bubu","decorType":"cafe","decorName":"å’–å•¡å»³","decorIcon":"â˜•"},{"id":"node-6961391729","lat":25.1201423,"lon":121.5314685,"name":"BANG","decorType":"clothing","decorName":"æœé£¾åº—","decorIcon":"ğŸ‘”"},{"id":"node-6961391730","lat":25.1186608,"lon":121.5282552,"name":"é¤ƒã€‚éºµ","decorType":"restaurant","decorName":"é¤å»³","decorIcon":"ğŸ½ï¸"},{"id":"node-7175334766","lat":25.1228415,"lon":121.5244385,"name":"ç«é‹ä¸–å®¶","decorType":"restaurant","decorName":"é¤å»³","decorIcon":"ğŸ½ï¸"},{"id":"node-7175334772","lat":25.1229118,"lon":121.5267421,"name":"é»ƒç‰›å±‹ç‰›è‚‰éºµé¤¨","decorType":"restaurant","decorName":"é¤å»³","decorIcon":"ğŸ½ï¸"},{"id":"node-7175344496","lat":25.1189112,"lon":121.5234211,"name":"ç“¦åŸæ³°åœ‹æ–™ç†","decorType":"restaurant","decorName":"é¤å»³","decorIcon":"ğŸ½ï¸"},{"id":"node-7175344539","lat":25.1226396,"lon":121.5246284,"name":"èšé¤å…‰é›•å»šæˆ¿","decorType":"restaurant","decorName":"é¤å»³","decorIcon":"ğŸ½ï¸"},{"id":"node-7175344572","lat":25.1189088,"lon":121.5235386,"name":"æ‹¿å¡é‡ŒæŠ«è–©","decorType":"restaurant","decorName":"é¤å»³","decorIcon":"ğŸ½ï¸"},{"id":"node-7175344578","lat":25.1223736,"lon":121.5242925,"name":"332è‚‰ç¾¹","decorType":"restaurant","decorName":"é¤å»³","decorIcon":"ğŸ½ï¸"},{"id":"node-7175344615","lat":25.1227046,"lon":121.5243639,"name":"éº¥å‘³ç™»","decorType":"restaurant","decorName":"é¤å»³","decorIcon":"ğŸ½ï¸"},{"id":"node-7175344622","lat":25.1233867,"lon":121.5250292,"name":"ä½¶åœ’æ’éª¨é£¯","decorType":"restaurant","decorName":"é¤å»³","decorIcon":"ğŸ½ï¸"},{"id":"node-7175344652","lat":25.1225924,"lon":121.5245244,"name":"å¤§ç©å¶ç¾å¼é¤…è„†ç‚¸é›","decorType":"restaurant","decorName":"é¤å»³","decorIcon":"ğŸ½ï¸"},{"id":"node-7175344673","lat":25.1224188,"lon":121.5266363,"name":"Wood Pot","decorType":"restaurant","decorName":"é¤å»³","decorIcon":"ğŸ½ï¸"},{"id":"node-7175344698","lat":25.1234313,"lon":121.5254132,"name":"ç£ºæºªå°é®","decorType":"restaurant","decorName":"é¤å»³","decorIcon":"ğŸ½ï¸"},{"id":"node-7175344703","lat":25.1222735,"lon":121.5266583,"name":"å¤©é‹å®´å¤©æ¯åº—","decorType":"restaurant","decorName":"é¤å»³","decorIcon":"ğŸ½ï¸"},{"id":"node-7175344721","lat":25.118599,"lon":121.5222959,"name":"misoä¸²ç‡’å±…é…’å±‹","decorType":"restaurant","decorName":"é¤å»³","decorIcon":"ğŸ½ï¸"},{"id":"node-7175344727","lat":25.1188173,"lon":121.5237166,"name":"èè«¾è¥¿é¤","decorType":"restaurant","decorName":"é¤å»³","decorIcon":"ğŸ½ï¸"},{"id":"node-7175344767","lat":25.1229335,"lon":121.5245821,"name":"å¼˜çˆºæ¼¢å ¡","decorType":"restaurant","decorName":"é¤å»³","decorIcon":"ğŸ½ï¸"},{"id":"node-7175344775","lat":25.1216076,"lon":121.5266906,"name":"Snailè¸ç‰›é¤å»³","decorType":"restaurant","decorName":"é¤å»³","decorIcon":"ğŸ½ï¸"},{"id":"node-7175344798","lat":25.1220902,"lon":121.5241498,"name":"æ‰¾é¤ ä¸­è¥¿å¼æ—©åˆé¤","decorType":"restaurant","decorName":"é¤å»³","decorIcon":"ğŸ½ï¸"},{"id":"node-7213752461","lat":25.1177963,"lon":121.5340474,"name":"ç“¦åŸ","decorType":"restaurant","decorName":"é¤å»³","decorIcon":"ğŸ½ï¸"},{"id":"node-7216240733","lat":25.1172596,"lon":121.5339307,"name":"å¤§å¿ƒ","decorType":"restaurant","decorName":"é¤å»³","decorIcon":"ğŸ½ï¸"},{"id":"node-7614240685","lat":25.1191209,"lon":121.5295481,"name":"æ˜Ÿå·´å…‹","decorType":"cafe","decorName":"å’–å•¡å»³","decorIcon":"â˜•"},{"id":"node-7747652921","lat":25.1260938,"lon":121.5280359,"name":"åŠ‰å®¶æ—©å ‚","decorType":"restaurant","decorName":"é¤å»³","decorIcon":"ğŸ½ï¸"},{"id":"node-7747652925","lat":25.1213225,"lon":121.5317777,"name":"å½¥å›å°æ–™ç†","decorType":"restaurant","decorName":"é¤å»³","decorIcon":"ğŸ½ï¸"},{"id":"node-7747652931","lat":25.1261236,"lon":121.5280735,"name":"é˜¿ä¼¯è‡­è±†è…/è±†èŠ±","decorType":"restaurant","decorName":"é¤å»³","decorIcon":"ğŸ½ï¸"},{"id":"node-7747652939","lat":25.1225467,"lon":121.5320581,"name":"ä¸ƒæµ·é£Ÿå ‚","decorType":"restaurant","decorName":"é¤å»³","decorIcon":"ğŸ½ï¸"},{"id":"node-7747652946","lat":25.1259961,"lon":121.5278522,"name":"è‡­è±†è… è±†èŠ± é¤è»Š","decorType":"restaurant","decorName":"é¤å»³","decorIcon":"ğŸ½ï¸"},{"id":"node-7747652949","lat":25.1227786,"lon":121.5321708,"name":"ç¶­å°¼æ©æ—©åˆé¤","decorType":"restaurant","decorName":"é¤å»³","decorIcon":"ğŸ½ï¸"},{"id":"node-7747652952","lat":25.1216573,"lon":121.5317711,"name":"Hello!Jazz! æ–™ç†é£Ÿé©—å®¤","decorType":"restaurant","decorName":"é¤å»³","decorIcon":"ğŸ½ï¸"},{"id":"node-7747683202","lat":25.124267,"lon":121.5331201,"name":"é˜¿ç”˜å°é¤¨","decorType":"restaurant","decorName":"é¤å»³","decorIcon":"ğŸ½ï¸"},{"id":"node-7747683203","lat":25.1244528,"lon":121.5328458,"name":"æ—¥ä¹…é˜¿å›‰å“ˆæ¼¢å ¡","decorType":"restaurant","decorName":"é¤å»³","decorIcon":"ğŸ½ï¸"},{"id":"node-7747683204","lat":25.1201684,"lon":121.5314806,"name":"æ‹“æ¨¸æœ¬ç„¶","decorType":"restaurant","decorName":"é¤å»³","decorIcon":"ğŸ½ï¸"},{"id":"node-7747683205","lat":25.1241486,"lon":121.5329806,"name":"ç¾¤é¹½é…¥é›","decorType":"restaurant","decorName":"é¤å»³","decorIcon":"ğŸ½ï¸"},{"id":"node-7747683207","lat":25.1206431,"lon":121.531042,"name":"å¥‡è«¾ç¾©å¤§åˆ©æŠ«è–©å±‹","decorType":"restaurant","decorName":"é¤å»³","decorIcon":"ğŸ½ï¸"},{"id":"node-7747683212","lat":25.1303107,"lon":121.5292436,"name":"sweet kingdom","decorType":"restaurant","decorName":"é¤å»³","decorIcon":"ğŸ½ï¸"},{"id":"node-7747683215","lat":25.1201338,"lon":121.5311982,"name":"äº¨å¯¶å’–å•¡","decorType":"cafe","decorName":"å’–å•¡å»³","decorIcon":"â˜•"},{"id":"node-7747683220","lat":25.1205035,"lon":121.5313632,"name":"èŠ±é˜¿å¬¤ ç´ é£Ÿ","decorType":"restaurant","decorName":"é¤å»³","decorIcon":"ğŸ½ï¸"},{"id":"node-7747683224","lat":25.1247697,"lon":121.5325058,"name":"å‹å£å‘³å¤§è…¸èšµä»”éºµç·š","decorType":"restaurant","decorName":"é¤å»³","decorIcon":"ğŸ½ï¸"},{"id":"node-7747683232","lat":25.1204513,"lon":121.5309374,"name":"èˆˆè“¬èŠå°èœæµ·é®®é¤å»³","decorType":"restaurant","decorName":"é¤å»³","decorIcon":"ğŸ½ï¸"},{"id":"node-7747683241","lat":25.1241092,"lon":121.5329289,"name":"å¿«æ‰‹æ»·å‘³","decorType":"restaurant","decorName":"é¤å»³","decorIcon":"ğŸ½ï¸"},{"id":"node-7747683244","lat":25.1231266,"lon":121.5323467,"name":"é‡‘å±‹è—è»Šé£Ÿå ‚","decorType":"restaurant","decorName":"é¤å»³","decorIcon":"ğŸ½ï¸"},{"id":"node-7749822704","lat":25.1206844,"lon":121.5314236,"name":"äº”äºŒBar&Bistro é¤é…’é¤¨","decorType":"restaurant","decorName":"é¤å»³","decorIcon":"ğŸ½ï¸"},{"id":"node-7749822713","lat":25.1200542,"lon":121.5311822,"name":"Burger Oâ€™clock","decorType":"restaurant","decorName":"é¤å»³","decorIcon":"ğŸ½ï¸"},{"id":"node-7749822737","lat":25.1223182,"lon":121.5289485,"name":"å¤§é ­è’œå‘³é¹¹é…¥é›","decorType":"restaurant","decorName":"é¤å»³","decorIcon":"ğŸ½ï¸"},{"id":"node-7756243462","lat":25.1173227,"lon":121.5318549,"name":"è€åœ°æ–¹ç‰›è‚‰éºµ","decorType":"restaurant","decorName":"é¤å»³","decorIcon":"ğŸ½ï¸"},{"id":"node-8049734039","lat":25.1198424,"lon":121.5304556,"name":"Auntie's Barber Shop","decorType":"hair_salon","decorName":"ç¾é«®é™¢","decorIcon":"ğŸ’‡"},{"id":"node-8067306984","lat":25.1175745,"lon":121.5333552,"name":"Ramen Nagi","decorType":"restaurant","decorName":"é¤å»³","decorIcon":"ğŸ½ï¸"},{"id":"node-8118095196","lat":25.1188351,"lon":121.5323916,"name":"7-Eleven","decorType":"convenience","decorName":"ä¾¿åˆ©å•†åº—","decorIcon":"ğŸª"},{"id":"node-8118095197","lat":25.123819,"lon":121.5328216,"name":"7-Eleven","decorType":"convenience","decorName":"ä¾¿åˆ©å•†åº—","decorIcon":"ğŸª"},{"id":"node-8118095198","lat":25.1231638,"lon":121.5314742,"name":"7-Eleven","decorType":"convenience","decorName":"ä¾¿åˆ©å•†åº—","decorIcon":"ğŸª"},{"id":"node-8118095199","lat":25.1229836,"lon":121.525011,"name":"7-Eleven","decorType":"convenience","decorName":"ä¾¿åˆ©å•†åº—","decorIcon":"ğŸª"},{"id":"node-8118095200","lat":25.1212545,"lon":121.5228867,"name":"7-Eleven","decorType":"convenience","decorName":"ä¾¿åˆ©å•†åº—","decorIcon":"ğŸª"},{"id":"node-8118095202","lat":25.1173883,"lon":121.5225434,"name":"7-Eleven","decorType":"convenience","decorName":"ä¾¿åˆ©å•†åº—","decorIcon":"ğŸª"},{"id":"node-8374865972","lat":25.1178198,"lon":121.5338756,"name":"iStore","decorType":"electronics","decorName":"é›»å™¨è¡Œ","decorIcon":"ğŸ”Œ"},{"id":"node-8432400022","lat":25.121666,"lon":121.533227,"name":"æ±å’Œå…¬åœ’","decorType":"bus_stop","decorName":"å…¬è»Šç«™","decorIcon":"ğŸšŒ"},{"id":"node-8432400485","lat":25.12558,"lon":121.53427,"name":"å¤©å’Œé‡Œ","decorType":"bus_stop","decorName":"å…¬è»Šç«™","decorIcon":"ğŸšŒ"},{"id":"node-8432400486","lat":25.12754,"lon":121.53368,"name":"å¤©æ¯å¤é“ç™»å±±å£","decorType":"bus_stop","decorName":"å…¬è»Šç«™","decorIcon":"ğŸšŒ"},{"id":"node-8432400510","lat":25.129093,"lon":121.527864,"name":"æ˜å±±å®®ä¸€","decorType":"bus_stop","decorName":"å…¬è»Šç«™","decorIcon":"ğŸšŒ"},{"id":"node-8432400562","lat":25.126156,"lon":121.534967,"name":"å¤©æ¯é‡Œ","decorType":"bus_stop","decorName":"å…¬è»Šç«™","decorIcon":"ğŸšŒ"},{"id":"node-8432400571","lat":25.123171,"lon":121.529167,"name":"åˆåº«è¨“ç·´ä¸­å¿ƒ","decorType":"bus_stop","decorName":"å…¬è»Šç«™","decorIcon":"ğŸšŒ"},{"id":"node-8432400572","lat":25.124606,"lon":121.530327,"name":"å¤©æ¯å…¬åœ’","decorType":"bus_stop","decorName":"å…¬è»Šç«™","decorIcon":"ğŸšŒ"},{"id":"node-8432400573","lat":25.125651,"lon":121.531411,"name":"å¤©æ¯åœ“ç’°","decorType":"bus_stop","decorName":"å…¬è»Šç«™","decorIcon":"ğŸšŒ"},{"id":"node-9391261126","lat":25.1173234,"lon":121.532625,"name":"è¦çš®åº—åˆ°åº—","decorType":"convenience","decorName":"ä¾¿åˆ©å•†åº—","decorIcon":"ğŸª"},{"id":"node-9588074530","lat":25.1203713,"lon":121.5263483,"name":"è¦çš®åº—åˆ°åº—","decorType":"convenience","decorName":"ä¾¿åˆ©å•†åº—","decorIcon":"ğŸª"},{"id":"node-9630668950","lat":25.1233517,"lon":121.5249599,"name":"è¦çš®åº—åˆ°åº—","decorType":"convenience","decorName":"ä¾¿åˆ©å•†åº—","decorIcon":"ğŸª"},{"id":"node-9742799918","lat":25.1235931,"lon":121.5324483,"name":"è¦çš®åº—åˆ°åº—","decorType":"convenience","decorName":"ä¾¿åˆ©å•†åº—","decorIcon":"ğŸª"},{"id":"node-10053402381","lat":25.1296421,"lon":121.5283244,"name":"ç¾å»‰ç¤¾","decorType":"supermarket","decorName":"è¶…å¸‚","decorIcon":"ğŸ›’"},{"id":"node-10255129310","lat":25.1196307,"lon":121.5306216,"name":"Supranormal Bakery Cafe","decorType":"cafe","decorName":"å’–å•¡å»³","decorIcon":"â˜•"},{"id":"node-11307888019","lat":25.1231656,"lon":121.5319591,"name":"è·¯æ˜“èå’–å•¡","decorType":"cafe","decorName":"å’–å•¡å»³","decorIcon":"â˜•"},{"id":"node-11361163416","lat":25.1240845,"lon":121.5326325,"name":"Roi du pain","decorType":"bakery","decorName":"éºµåŒ…åº—","decorIcon":"ğŸ¥"},{"id":"node-11361169584","lat":25.1239519,"lon":121.5325943,"name":"7-Eleven","decorType":"convenience","decorName":"ä¾¿åˆ©å•†åº—","decorIcon":"ğŸª"},{"id":"node-12797484701","lat":25.1191972,"lon":121.5290752,"name":"å››æ–¹å±…","decorType":"restaurant","decorName":"é¤å»³","decorIcon":"ğŸ½ï¸"},{"id":"node-13413775743","lat":25.1211264,"lon":121.5291235,"name":"èŠçˆ¾å¯Œ","decorType":"convenience","decorName":"ä¾¿åˆ©å•†åº—","decorIcon":"ğŸª"},{"id":"way-35550291","lat":25.1231371,"lon":121.5243586,"name":"ç£ºæºª","decorType":"waterside","decorName":"æ°´é‚Š","decorIcon":"ğŸŒŠ"},{"id":"way-136214400","lat":25.1315151,"lon":121.5338239,"name":"æœªå‘½åæ°´é‚Š","decorType":"waterside","decorName":"æ°´é‚Š","decorIcon":"ğŸŒŠ"},{"id":"way-258262896","lat":25.1177499,"lon":121.5339685,"name":"æ–°å…‰ä¸‰è¶Š","decorType":"cosmetics","decorName":"åŒ–å¦å“å•†åº—","decorIcon":"ğŸ’„"},{"id":"way-258262897","lat":25.117187,"lon":121.5338987,"name":"æ–°å…‰ä¸‰è¶Š","decorType":"cosmetics","decorName":"åŒ–å¦å“å•†åº—","decorIcon":"ğŸ’„"},{"id":"way-258410880","lat":25.1242517,"lon":121.5322926,"name":"Mother of God","decorType":"shrine","decorName":"ç¥ç¤¾","decorIcon":"â›©ï¸"},{"id":"way-258410970","lat":25.1186266,"lon":121.5265447,"name":"Red Apple","decorType":"cosmetics","decorName":"åŒ–å¦å“å•†åº—","decorIcon":"ğŸ’„"},{"id":"way-258626708","lat":25.1203309,"lon":121.5341286,"name":"å¤©å’Œå…¬åœ’","decorType":"park","decorName":"å…¬åœ’","decorIcon":"ğŸ€"},{"id":"way-259714747","lat":25.1263305,"lon":121.5310221,"name":"å¤©æ¯å…¬åœ’","decorType":"park","decorName":"å…¬åœ’","decorIcon":"ğŸ€"},{"id":"way-259911543","lat":25.118646,"lon":121.5346262,"name":"å¤©å’Œä¸€è™Ÿå…¬åœ’","decorType":"park","decorName":"å…¬åœ’","decorIcon":"ğŸ€"},{"id":"way-361491769","lat":25.1177281,"lon":121.5230728,"name":"æŒ¯èˆˆå…¬åœ’","decorType":"park","decorName":"å…¬åœ’","decorIcon":"ğŸ€"},{"id":"way-372253486","lat":25.1184976,"lon":121.5239561,"name":"åŒè¡Œæ©‹","decorType":"bridge","decorName":"æ©‹æ¨‘","decorIcon":"ğŸŒ‰"},{"id":"way-372253490","lat":25.1185894,"lon":121.5262668,"name":"æœªå‘½åå…¬åœ’","decorType":"park","decorName":"å…¬åœ’","decorIcon":"ğŸ€"},{"id":"way-372253491","lat":25.1185991,"lon":121.5260701,"name":"æœªå‘½åå…¬åœ’","decorType":"park","decorName":"å…¬åœ’","decorIcon":"ğŸ€"},{"id":"way-372253585","lat":25.1186457,"lon":121.5240438,"name":"ç£ºæºªæ©‹","decorType":"bridge","decorName":"æ©‹æ¨‘","decorIcon":"ğŸŒ‰"},{"id":"way-372253586","lat":25.1185851,"lon":121.5240101,"name":"æœªå‘½åæ©‹æ¨‘","decorType":"bridge","decorName":"æ©‹æ¨‘","decorIcon":"ğŸŒ‰"},{"id":"way-372270693","lat":25.123368,"lon":121.5263982,"name":"æ°¸å’Œæ©‹","decorType":"bridge","decorName":"æ©‹æ¨‘","decorIcon":"ğŸŒ‰"},{"id":"way-372270696","lat":25.1280024,"lon":121.5315432,"name":"å ‰çªæ©‹","decorType":"bridge","decorName":"æ©‹æ¨‘","decorIcon":"ğŸŒ‰"},{"id":"way-375776545","lat":25.1221066,"lon":121.5252296,"name":"æœªå‘½åå…¬åœ’","decorType":"park","decorName":"å…¬åœ’","decorIcon":"ğŸ€"},{"id":"way-375776566","lat":25.1229698,"lon":121.5226889,"name":"æœªå‘½åæ©‹æ¨‘","decorType":"bridge","decorName":"æ©‹æ¨‘","decorIcon":"ğŸŒ‰"},{"id":"way-375776567","lat":25.1234507,"lon":121.5241475,"name":"æœªå‘½åæ©‹æ¨‘","decorType":"bridge","decorName":"æ©‹æ¨‘","decorIcon":"ğŸŒ‰"},{"id":"way-375776575","lat":25.1256702,"lon":121.5247839,"name":"è¡Œç¾©å…¬åœ’","decorType":"park","decorName":"å…¬åœ’","decorIcon":"ğŸ€"},{"id":"way-375776576","lat":25.1232943,"lon":121.5260313,"name":"æ«»èŠ±å´—å…¬åœ’","decorType":"park","decorName":"å…¬åœ’","decorIcon":"ğŸ€"},{"id":"way-375776579","lat":25.1238139,"lon":121.5260421,"name":"æœªå‘½åå…¬åœ’","decorType":"park","decorName":"å…¬åœ’","decorIcon":"ğŸ€"},{"id":"way-375776580","lat":25.1238417,"lon":121.525801,"name":"æœªå‘½åå…¬åœ’","decorType":"park","decorName":"å…¬åœ’","decorIcon":"ğŸ€"},{"id":"way-375788646","lat":25.123396,"lon":121.5264679,"name":"æœªå‘½åæ©‹æ¨‘","decorType":"bridge","decorName":"æ©‹æ¨‘","decorIcon":"ğŸŒ‰"},{"id":"way-375788648","lat":25.1237839,"lon":121.5266027,"name":"æ°¸æ¬£ç¶ åœ°","decorType":"park","decorName":"å…¬åœ’","decorIcon":"ğŸ€"},{"id":"way-375788662","lat":25.1260677,"lon":121.5299385,"name":"æœªå‘½åæ©‹æ¨‘","decorType":"bridge","decorName":"æ©‹æ¨‘","decorIcon":"ğŸŒ‰"},{"id":"way-375788666","lat":25.1251926,"lon":121.5294908,"name":"åŒå¾·å…¬åœ’","decorType":"park","decorName":"å…¬åœ’","decorIcon":"ğŸ€"},{"id":"way-375788675","lat":25.1260333,"lon":121.5265648,"name":"æœªå‘½åæ©‹æ¨‘","decorType":"bridge","decorName":"æ©‹æ¨‘","decorIcon":"ğŸŒ‰"},{"id":"way-375788687","lat":25.1312614,"lon":121.5277311,"name":"è¡Œç¾©è·¯155å··","decorType":"bridge","decorName":"æ©‹æ¨‘","decorIcon":"ğŸŒ‰"},{"id":"way-375861980","lat":25.1259491,"lon":121.5235357,"name":"æœªå‘½åæ©‹æ¨‘","decorType":"bridge","decorName":"æ©‹æ¨‘","decorIcon":"ğŸŒ‰"},{"id":"way-375861990","lat":25.1231131,"lon":121.5261896,"name":"æœªå‘½åæ°´é‚Š","decorType":"waterside","decorName":"æ°´é‚Š","decorIcon":"ğŸŒŠ"},{"id":"way-377209858","lat":25.1259846,"lon":121.5333761,"name":"è˜­é›…æºª","decorType":"waterside","decorName":"æ°´é‚Š","decorIcon":"ğŸŒŠ"},{"id":"way-389489550","lat":25.1212096,"lon":121.5346723,"name":"ç•ªäº•æ± ","decorType":"waterside","decorName":"æ°´é‚Š","decorIcon":"ğŸŒŠ"},{"id":"way-389489551","lat":25.1209322,"lon":121.5345718,"name":"é­šæ± ","decorType":"waterside","decorName":"æ°´é‚Š","decorIcon":"ğŸŒŠ"},{"id":"way-389489552","lat":25.1207039,"lon":121.5344572,"name":"é­šæ± ","decorType":"waterside","decorName":"æ°´é‚Š","decorIcon":"ğŸŒŠ"},{"id":"way-389489558","lat":25.1200852,"lon":121.5339494,"name":"å…’ç«¥éŠæ¨‚å€","decorType":"park","decorName":"å…¬åœ’","decorIcon":"ğŸ€"},{"id":"way-389489562","lat":25.1213921,"lon":121.5341919,"name":"è˜­é›…æºª","decorType":"waterside","decorName":"æ°´é‚Š","decorIcon":"ğŸŒŠ"},{"id":"way-389528590","lat":25.117952,"lon":121.5307171,"name":"ä¸‰ç‰å®®","decorType":"shrine","decorName":"ç¥ç¤¾","decorIcon":"â›©ï¸"},{"id":"way-389628317","lat":25.1171059,"lon":121.5315808,"name":"å¤©ç¦2è™Ÿå…¬åœ’","decorType":"park","decorName":"å…¬åœ’","decorIcon":"ğŸ€"},{"id":"way-509399453","lat":25.129441,"lon":121.5275916,"name":"æœªå‘½åæ©‹æ¨‘","decorType":"bridge","decorName":"æ©‹æ¨‘","decorIcon":"ğŸŒ‰"},{"id":"way-627045533","lat":25.1233158,"lon":121.52687,"name":"æœªå‘½åç¥ç¤¾","decorType":"shrine","decorName":"ç¥ç¤¾","decorIcon":"â›©ï¸"},{"id":"way-627260667","lat":25.1234175,"lon":121.5261177,"name":"æœªå‘½åå…¬åœ’","decorType":"park","decorName":"å…¬åœ’","decorIcon":"ğŸ€"},{"id":"way-627260669","lat":25.1236179,"lon":121.5257931,"name":"æœªå‘½åæœé£¾åº—","decorType":"clothing","decorName":"æœé£¾åº—","decorIcon":"ğŸ‘”"},{"id":"way-627657205","lat":25.1194191,"lon":121.5248535,"name":"å¤©ç¾ç¶ åœ°","decorType":"park","decorName":"å…¬åœ’","decorIcon":"ğŸ€"},{"id":"way-627834743","lat":25.1190316,"lon":121.5255114,"name":"æœªå‘½åé¤å»³","decorType":"restaurant","decorName":"é¤å»³","decorIcon":"ğŸ½ï¸"},{"id":"way-728834357","lat":25.1240398,"lon":121.5258483,"name":"ç¦å¾·å»Ÿ","decorType":"shrine","decorName":"ç¥ç¤¾","decorIcon":"â›©ï¸"},{"id":"way-797027291","lat":25.1219377,"lon":121.5251284,"name":"æœªå‘½åå…¬åœ’","decorType":"park","decorName":"å…¬åœ’","decorIcon":"ğŸ€"},{"id":"way-797027292","lat":25.118703,"lon":121.5240761,"name":"æœªå‘½åæ©‹æ¨‘","decorType":"bridge","decorName":"æ©‹æ¨‘","decorIcon":"ğŸŒ‰"},{"id":"way-921615926","lat":25.1229412,"lon":121.533434,"name":"æœªå‘½åæ©‹æ¨‘","decorType":"bridge","decorName":"æ©‹æ¨‘","decorIcon":"ğŸŒ‰"},{"id":"way-921615929","lat":25.1221553,"lon":121.5337974,"name":"æœªå‘½åæ©‹æ¨‘","decorType":"bridge","decorName":"æ©‹æ¨‘","decorIcon":"ğŸŒ‰"},{"id":"way-961267374","lat":25.1241828,"lon":121.5237796,"name":"æœªå‘½åæ©‹æ¨‘","decorType":"bridge","decorName":"æ©‹æ¨‘","decorIcon":"ğŸŒ‰"},{"id":"way-961270331","lat":25.1215211,"lon":121.5237954,"name":"æœªå‘½åé«”è‚²é¤¨","decorType":"stadium","decorName":"é«”è‚²é¤¨","decorIcon":"ğŸŸï¸"},{"id":"way-1119416244","lat":25.1233643,"lon":121.5263895,"name":"æ°¸å’Œæ©‹","decorType":"bridge","decorName":"æ©‹æ¨‘","decorIcon":"ğŸŒ‰"},{"id":"way-1134414807","lat":25.1201183,"lon":121.5253302,"name":"æœªå‘½åå…¬åœ’","decorType":"park","decorName":"å…¬åœ’","decorIcon":"ğŸ€"},{"id":"way-1177994468","lat":25.1283958,"lon":121.5340675,"name":"æœªå‘½åæ£®æ—","decorType":"forest","decorName":"æ£®æ—","decorIcon":"ğŸŒ²"},{"id":"way-1348167081","lat":25.1274811,"lon":121.5229983,"name":"æœªå‘½åæ°´é‚Š","decorType":"waterside","decorName":"æ°´é‚Š","decorIcon":"ğŸŒŠ"},{"id":"way-1392173457","lat":25.1304579,"lon":121.5258508,"name":"æœªå‘½åæ°´é‚Š","decorType":"waterside","decorName":"æ°´é‚Š","decorIcon":"ğŸŒŠ"},{"id":"way-1420443912","lat":25.1319343,"lon":121.5274486,"name":"æœªå‘½åæ£®æ—","decorType":"forest","decorName":"æ£®æ—","decorIcon":"ğŸŒ²"},{"id":"way-1420443914","lat":25.1293706,"lon":121.5266422,"name":"æœªå‘½åæ£®æ—","decorType":"forest","decorName":"æ£®æ—","decorIcon":"ğŸŒ²"},{"id":"way-1420661241","lat":25.1322298,"lon":121.5282419,"name":"æœªå‘½åæ£®æ—","decorType":"forest","decorName":"æ£®æ—","decorIcon":"ğŸŒ²"}]}