{"bbox":{"south":25.1167625,"north":25.13236875,"west":121.509125,"east":121.52215625},"pois":[{"id":"way-259860100","lat":25.1171447,"lon":121.5092158,"name":"未命名公園","decorType":"park"},{"id":"way-375338650","lat":25.1176065,"lon":121.5094342,"name":"石牌公園","decorType":"park"},{"id":"way-425273279","lat":25.1251247,"lon":121.5117578,"name":"未命名山丘","decorType":"mountain"},{"id":"node-1832693019","lat":25.1204256,"lon":121.5133461,"name":"陽明大學圖書館1-4F","decorType":"library"},{"id":"node-1832696278","lat":25.1191584,"lon":121.5139533,"name":"郵局","decorType":"post_office"},{"id":"node-1833121273","lat":25.1233733,"lon":121.5130322,"name":"7-Eleven","decorType":"convenience"},{"id":"node-1833133779","lat":25.1217625,"lon":121.514145,"name":"5F布查花園法式餐廳","decorType":"restaurant"},{"id":"node-1833784606","lat":25.1202876,"lon":121.5131441,"name":"陽明大學校門口","decorType":"bus_stop"},{"id":"node-1843810189","lat":25.1168382,"lon":121.51637,"name":"7-Eleven","decorType":"convenience"},{"id":"node-1843811014","lat":25.1178447,"lon":121.5173135,"name":"麥當勞","decorType":"burger"},{"id":"node-1844866487","lat":25.1188847,"lon":121.5128936,"name":"仙客來","decorType":"restaurant"},{"id":"node-2300575305","lat":25.1262021,"lon":121.515612,"name":"唭哩岸山","decorType":"mountain"},{"id":"node-2300575306","lat":25.1243051,"lon":121.5103699,"name":"奇岩山","decorType":"mountain"},{"id":"node-2300575562","lat":25.1273081,"lon":121.5187189,"name":"軍艦岩","decorType":"mountain"},{"id":"node-2300575566","lat":25.1323304,"lon":121.5189949,"name":"二六〇公尺峰","decorType":"mountain"},{"id":"node-2459681635","lat":25.1189207,"lon":121.5172859,"name":"保一總隊","decorType":"bus_stop"},{"id":"node-2459681639","lat":25.118628,"lon":121.5196538,"name":"榮總","decorType":"bus_stop"},{"id":"node-2459681640","lat":25.1188202,"lon":121.5206434,"name":"榮總一","decorType":"bus_stop"},{"id":"node-2459681641","lat":25.1191702,"lon":121.5215562,"name":"榮總一","decorType":"bus_stop"},{"id":"node-2705314770","lat":25.118425,"lon":121.5179364,"name":"榮總","decorType":"bus_stop"},{"id":"node-2705316086","lat":25.1173803,"lon":121.5165863,"name":"永明派出所","decorType":"bus_stop"},{"id":"node-2705316087","lat":25.1172842,"lon":121.5163788,"name":"永明派出所","decorType":"bus_stop"},{"id":"node-2711809315","lat":25.1196679,"lon":121.5119851,"name":"陽明大學(東華)","decorType":"bus_stop"},{"id":"node-2711809316","lat":25.1190884,"lon":121.5117839,"name":"陽明大學(西安)","decorType":"bus_stop"},{"id":"node-2711812475","lat":25.1205289,"lon":121.5091681,"name":"健行新村(東華)","decorType":"bus_stop"},{"id":"node-2714941498","lat":25.1175809,"lon":121.5219385,"name":"振興醫院","decorType":"bus_stop"},{"id":"node-3426976794","lat":25.1267402,"lon":121.5128415,"name":"觀音禪室","decorType":"shrine"},{"id":"node-3448496646","lat":25.1201395,"lon":121.5111806,"name":"全聯福利中心","decorType":"supermarket"},{"id":"node-3448499100","lat":25.1180313,"lon":121.5095504,"name":"OK超商","decorType":"convenience"},{"id":"node-3785386773","lat":25.1185031,"lon":121.5164076,"name":"萊爾富","decorType":"convenience"},{"id":"node-3788212989","lat":25.1170653,"lon":121.5113527,"name":"全聯福利中心","decorType":"supermarket"},{"id":"node-3788212996","lat":25.1192731,"lon":121.511284,"name":"旺角咖啡旅店","decorType":"restaurant"},{"id":"node-3849103543","lat":25.1174438,"lon":121.5129738,"name":"7-Eleven","decorType":"convenience"},{"id":"node-3849103544","lat":25.1198868,"lon":121.5097806,"name":"長疆碳燒羊肉爐","decorType":"restaurant"},{"id":"node-3849103545","lat":25.1199312,"lon":121.5095787,"name":"霸味薑母鴨石牌店","decorType":"restaurant"},{"id":"node-3851686310","lat":25.1183216,"lon":121.5175681,"name":"永明民眾閱覽室","decorType":"library"},{"id":"node-3885531827","lat":25.1187314,"lon":121.5169559,"name":"未命名郵局","decorType":"post_office"},{"id":"node-4018209441","lat":25.1184743,"lon":121.5178944,"name":"都柏林台式自助餐","decorType":"restaurant"},{"id":"node-4121529089","lat":25.1177862,"lon":121.5136047,"name":"全家便利商店","decorType":"convenience"},{"id":"node-4255816906","lat":25.1200893,"lon":121.519476,"name":"西雅圖極品咖啡","decorType":"cafe"},{"id":"node-4255816907","lat":25.1200771,"lon":121.5196812,"name":"未命名超市","decorType":"supermarket"},{"id":"node-4307554212","lat":25.1195367,"lon":121.5122513,"name":"品鮨日式料理","decorType":"restaurant"},{"id":"node-4307554215","lat":25.117601,"lon":121.5130288,"name":"盧卡漢堡","decorType":"restaurant"},{"id":"node-4307554218","lat":25.1187366,"lon":121.5159615,"name":"好日子咖啡","decorType":"cafe"},{"id":"node-4307554224","lat":25.1185538,"lon":121.5153749,"name":"樂立潔","decorType":"laundry"},{"id":"node-4307554225","lat":25.1175802,"lon":121.5162616,"name":"永福祠","decorType":"shrine"},{"id":"node-4307554229","lat":25.1174363,"lon":121.5164245,"name":"石牌郵局","decorType":"post_office"},{"id":"node-4307554239","lat":25.1189739,"lon":121.5146937,"name":"美簾社","decorType":"supermarket"},{"id":"node-4307554242","lat":25.1188663,"lon":121.5119186,"name":"醬弄居酒屋","decorType":"restaurant"},{"id":"node-4307557039","lat":25.1169418,"lon":121.5162252,"name":"永明派出所","decorType":"bus_stop"},{"id":"node-4344542416","lat":25.1201441,"lon":121.5110125,"name":"來契川菜","decorType":"restaurant"},{"id":"node-4344542442","lat":25.1199883,"lon":121.5115666,"name":"溫州大混沌","decorType":"restaurant"},{"id":"node-4344542443","lat":25.1243342,"lon":121.5209405,"name":"玉皇宮","decorType":"shrine"},{"id":"node-4344542488","lat":25.1209788,"lon":121.5106944,"name":"未命名郵局","decorType":"post_office"},{"id":"node-4344543595","lat":25.1192934,"lon":121.5114276,"name":"臺灣煙酒","decorType":"convenience"},{"id":"node-4363964212","lat":25.1223228,"lon":121.5144022,"name":"陽明大學行政大樓","decorType":"bus_stop"},{"id":"node-4363964213","lat":25.1231338,"lon":121.5147264,"name":"陽明大學實驗大樓","decorType":"bus_stop"},{"id":"node-4363964216","lat":25.1208697,"lon":121.5193479,"name":"榮總護士宿舍","decorType":"bus_stop"},{"id":"node-4388555688","lat":25.1225764,"lon":121.510059,"name":"陽明大學男(女)五舍","decorType":"bus_stop"},{"id":"node-4432470657","lat":25.1167683,"lon":121.5166916,"name":"未命名餐廳","decorType":"restaurant"},{"id":"node-4570262479","lat":25.1175132,"lon":121.5131121,"name":"7-Eleven","decorType":"convenience"},{"id":"node-4578536066","lat":25.1231664,"lon":121.5131935,"name":"楓香林","decorType":"forest"},{"id":"node-4683579111","lat":25.1212545,"lon":121.5130026,"name":"台灣惠蓀咖啡","decorType":"cafe"},{"id":"node-5969055685","lat":25.1169732,"lon":121.5164925,"name":"大馬","decorType":"restaurant"},{"id":"node-6515952569","lat":25.1171838,"lon":121.5169813,"name":"竹苑素食餐廳","decorType":"restaurant"},{"id":"node-6855627861","lat":25.117061,"lon":121.512484,"name":"八方雲集","decorType":"burger"},{"id":"node-7175344490","lat":25.120144,"lon":121.5196798,"name":"小南門傳統美食","decorType":"restaurant"},{"id":"node-7175344547","lat":25.1201976,"lon":121.5196987,"name":"雲象泰式餐廳","decorType":"restaurant"},{"id":"node-7175344565","lat":25.1202153,"lon":121.5197961,"name":"皇家傳承","decorType":"restaurant"},{"id":"node-7175344640","lat":25.1200791,"lon":121.5197865,"name":"義美見學餐廳","decorType":"restaurant"},{"id":"node-7175344646","lat":25.1186926,"lon":121.5219623,"name":"尋偵手作日本料理","decorType":"restaurant"},{"id":"node-7175344785","lat":25.1203006,"lon":121.5197979,"name":"明德素食園","decorType":"restaurant"},{"id":"node-7175344791","lat":25.1201409,"lon":121.5198143,"name":"洪祖師擔仔麵","decorType":"restaurant"},{"id":"node-7255839178","lat":25.1180476,"lon":121.5166573,"name":"川秀藥局","decorType":"pharmacy"},{"id":"node-7775718515","lat":25.1216722,"lon":121.5197767,"name":"榮總思源樓","decorType":"bus_stop"},{"id":"node-7798137205","lat":25.1172106,"lon":121.5115123,"name":"鮮味屋小吃","decorType":"restaurant"},{"id":"node-7798137206","lat":25.1169993,"lon":121.5119163,"name":"老張牛肉麵","decorType":"restaurant"},{"id":"node-7798137207","lat":25.1169723,"lon":121.5119988,"name":"馬咖咖啡義大利麵","decorType":"restaurant"},{"id":"node-7798137208","lat":25.1169362,"lon":121.5122909,"name":"Q仔素","decorType":"restaurant"},{"id":"node-7798137209","lat":25.1168074,"lon":121.5123554,"name":"婆媽","decorType":"restaurant"},{"id":"node-7798137210","lat":25.1173359,"lon":121.5128139,"name":"香港鏞記燒臘快餐","decorType":"restaurant"},{"id":"node-7798137211","lat":25.1172209,"lon":121.5126626,"name":"早坊早餐店","decorType":"restaurant"},{"id":"node-7798137212","lat":25.1170831,"lon":121.5126968,"name":"旺利自助餐","decorType":"restaurant"},{"id":"node-7798137213","lat":25.1172303,"lon":121.5128584,"name":"快樂豆花","decorType":"restaurant"},{"id":"node-7798137214","lat":25.1173497,"lon":121.513169,"name":"蔥油餅","decorType":"restaurant"},{"id":"node-7798137215","lat":25.1183899,"lon":121.5124654,"name":"禾竹家常菜","decorType":"restaurant"},{"id":"node-7798137216","lat":25.1180005,"lon":121.5127427,"name":"鱉大王","decorType":"restaurant"},{"id":"node-7798137217","lat":25.1176579,"lon":121.512995,"name":"上味相素食","decorType":"restaurant"},{"id":"node-7798137218","lat":25.117688,"lon":121.5137015,"name":"兩披索靚鍋","decorType":"restaurant"},{"id":"node-7798137219","lat":25.1184435,"lon":121.5131986,"name":"早安美芝城","decorType":"burger"},{"id":"node-8118095201","lat":25.1185734,"lon":121.5182733,"name":"7-Eleven","decorType":"convenience"},{"id":"node-8432400694","lat":25.1315127,"lon":121.513263,"name":"照明寺","decorType":"bus_stop"},{"id":"node-8432400695","lat":25.1314477,"lon":121.5132442,"name":"照明寺","decorType":"bus_stop"},{"id":"node-8463614207","lat":25.1204031,"lon":121.5130565,"name":"陽明大學校門口","decorType":"bus_stop"},{"id":"node-8463614208","lat":25.1231881,"lon":121.5145595,"name":"陽明大學實驗大樓","decorType":"bus_stop"},{"id":"node-8922062696","lat":25.1190409,"lon":121.5221351,"name":"路易莎咖啡","decorType":"cafe"},{"id":"node-8947510019","lat":25.1196987,"lon":121.5198158,"name":"未命名公車站","decorType":"bus_stop"},{"id":"node-8947510020","lat":25.1197557,"lon":121.5199627,"name":"榮總接駁車","decorType":"bus_stop"},{"id":"node-9103799001","lat":25.1176563,"lon":121.5165756,"name":"燦坤3C","decorType":"electronics"},{"id":"node-10016034800","lat":25.1285316,"lon":121.5180339,"name":"土地公","decorType":"shrine"},{"id":"node-12797038605","lat":25.1186024,"lon":121.518333,"name":"慧昭牛舌餅","decorType":"burger"},{"id":"way-172360345","lat":25.1235674,"lon":121.5157452,"name":"研究大樓","decorType":"university"},{"id":"way-172360389","lat":25.1235366,"lon":121.5147762,"name":"實驗大樓","decorType":"university"},{"id":"way-172360487","lat":25.1203472,"lon":121.5146079,"name":"生物醫學大樓","decorType":"university"},{"id":"way-172360772","lat":25.1192826,"lon":121.5137834,"name":"守仁樓","decorType":"university"},{"id":"way-172360796","lat":25.1201354,"lon":121.5125106,"name":"致和樓","decorType":"university"},{"id":"way-172360947","lat":25.1202992,"lon":121.5128867,"name":"高齡研究中心","decorType":"university"},{"id":"way-172361010","lat":25.1225065,"lon":121.5148245,"name":"行政大樓","decorType":"university"},{"id":"way-172361054","lat":25.1227645,"lon":121.5143034,"name":"醫學館、教師發展中心","decorType":"university"},{"id":"way-172361144","lat":25.122964,"lon":121.5107913,"name":"陽明大學室內游泳池(伊藤萬日本游泳學校)","decorType":"university"},{"id":"way-172361199","lat":25.122935,"lon":121.5115297,"name":"學生餐廳","decorType":"restaurant"},{"id":"way-172361407","lat":25.1235551,"lon":121.5137472,"name":"綜合教室/第一教學大樓","decorType":"university"},{"id":"way-172361409","lat":25.1238753,"lon":121.5166102,"name":"動物中心","decorType":"university"},{"id":"way-172361411","lat":25.1234319,"lon":121.5129317,"name":"人文與教育中心","decorType":"university"},{"id":"way-172361476","lat":25.1235721,"lon":121.5126469,"name":"第二教學大樓","decorType":"university"},{"id":"way-172361531","lat":25.1228827,"lon":121.5158423,"name":"醫學院二館","decorType":"university"},{"id":"way-172361532","lat":25.1223222,"lon":121.5155941,"name":"護理館","decorType":"university"},{"id":"way-172361533","lat":25.1229266,"lon":121.5151666,"name":"牙醫館","decorType":"university"},{"id":"way-220999159","lat":25.1318089,"lon":121.5139478,"name":"照明寺","decorType":"shrine"},{"id":"way-226555953","lat":25.1259019,"lon":121.5116919,"name":"崇仰公園","decorType":"park"},{"id":"way-227653718","lat":25.1270503,"lon":121.5103379,"name":"丹鳳公園游泳池","decorType":"waterside"},{"id":"way-227653853","lat":25.1266664,"lon":121.5101824,"name":"丹鳳公園","decorType":"park"},{"id":"way-243435196","lat":25.1199941,"lon":121.5189975,"name":"未命名水邊","decorType":"waterside"},{"id":"way-256631613","lat":25.1178645,"lon":121.5132259,"name":"未命名橋樑","decorType":"bridge"},{"id":"way-256631614","lat":25.117868,"lon":121.5132615,"name":"未命名橋樑","decorType":"bridge"},{"id":"way-258892621","lat":25.1178864,"lon":121.5198846,"name":"台北護理健康大學","decorType":"university"},{"id":"way-361818408","lat":25.116997,"lon":121.5215792,"name":"未命名橋樑","decorType":"bridge"},{"id":"way-361818411","lat":25.1169956,"lon":121.5214924,"name":"未命名水邊","decorType":"waterside"},{"id":"way-374307298","lat":25.1168172,"lon":121.5139679,"name":"未命名公園","decorType":"park"},{"id":"way-374307300","lat":25.1182819,"lon":121.5128336,"name":"未命名公園","decorType":"park"},{"id":"way-374896607","lat":25.1169388,"lon":121.5207725,"name":"未命名森林","decorType":"forest"},{"id":"way-375180574","lat":25.1203304,"lon":121.5119748,"name":"未命名橋樑","decorType":"bridge"},{"id":"way-375180578","lat":25.1205922,"lon":121.511752,"name":"健行橋","decorType":"bridge"},{"id":"way-375802520","lat":25.1265132,"lon":121.5094236,"name":"未命名橋樑","decorType":"bridge"},{"id":"way-375861979","lat":25.1292051,"lon":121.5211364,"name":"未命名水邊","decorType":"waterside"},{"id":"way-377243818","lat":25.1261409,"lon":121.511438,"name":"未命名橋樑","decorType":"bridge"},{"id":"way-381962213","lat":25.1177517,"lon":121.5167599,"name":"未命名公園","decorType":"park"},{"id":"way-385196066","lat":25.1187595,"lon":121.5166548,"name":"未命名公園","decorType":"park"},{"id":"way-385196067","lat":25.1191516,"lon":121.5128265,"name":"未命名公園","decorType":"park"},{"id":"way-402804513","lat":25.1197811,"lon":121.5145736,"name":"傳統醫學大樓甲棟","decorType":"university"},{"id":"way-419133726","lat":25.1212423,"lon":121.5127833,"name":"博雅中心","decorType":"university"},{"id":"way-419133730","lat":25.1196776,"lon":121.5133216,"name":"陽明大學校史室","decorType":"university"},{"id":"way-419133734","lat":25.1205302,"lon":121.5126432,"name":"未命名橋樑","decorType":"bridge"},{"id":"way-419137812","lat":25.1223333,"lon":121.5152202,"name":"未命名橋樑","decorType":"bridge"},{"id":"way-419137816","lat":25.1229727,"lon":121.5144354,"name":"未命名橋樑","decorType":"bridge"},{"id":"way-419137823","lat":25.1229589,"lon":121.5120956,"name":"未命名橋樑","decorType":"bridge"},{"id":"way-419137825","lat":25.1231194,"lon":121.5152647,"name":"未命名橋樑","decorType":"bridge"},{"id":"way-419174225","lat":25.1231922,"lon":121.5138823,"name":"異空間","decorType":"park"},{"id":"way-419174238","lat":25.1219854,"lon":121.5123341,"name":"未命名橋樑","decorType":"bridge"},{"id":"way-420427639","lat":25.1288124,"lon":121.5150791,"name":"未命名水邊","decorType":"waterside"},{"id":"way-421731143","lat":25.127254,"lon":121.5184713,"name":"軍艦岩","decorType":"mountain"},{"id":"way-421932010","lat":25.123912,"lon":121.5128352,"name":"韓偉紀念園","decorType":"park"},{"id":"way-421952569","lat":25.1228725,"lon":121.5146319,"name":"水泥地空間","decorType":"park"},{"id":"way-421952572","lat":25.1231487,"lon":121.5133082,"name":"神農坡打石場公園","decorType":"park"},{"id":"way-425224805","lat":25.1252432,"lon":121.5145788,"name":"未命名體育館","decorType":"stadium"},{"id":"way-425224806","lat":25.1246012,"lon":121.5147061,"name":"未命名水邊","decorType":"waterside"},{"id":"way-425224807","lat":25.1245763,"lon":121.514854,"name":"未命名水邊","decorType":"waterside"},{"id":"way-425224808","lat":25.1246819,"lon":121.5132746,"name":"未命名水邊","decorType":"waterside"},{"id":"way-425225590","lat":25.1238028,"lon":121.5129084,"name":"唭哩岸岩打石場切割線","decorType":"mountain"},{"id":"way-425225591","lat":25.1226365,"lon":121.5136555,"name":"唭哩岸岩打石場切割線","decorType":"mountain"},{"id":"way-425254875","lat":25.122761,"lon":121.5138295,"name":"未命名橋樑","decorType":"bridge"},{"id":"way-425273280","lat":25.1243603,"lon":121.5203871,"name":"未命名山丘","decorType":"mountain"},{"id":"way-425288224","lat":25.1241147,"lon":121.5163993,"name":"未命名水邊","decorType":"waterside"},{"id":"way-425288226","lat":25.1237861,"lon":121.5173903,"name":"未命名水邊","decorType":"waterside"},{"id":"way-425291135","lat":25.1240304,"lon":121.5130403,"name":"未命名水邊","decorType":"waterside"},{"id":"way-425291981","lat":25.1229767,"lon":121.5162387,"name":"未命名水邊","decorType":"waterside"},{"id":"way-426053484","lat":25.1230467,"lon":121.5179528,"name":"未命名山丘","decorType":"mountain"},{"id":"way-426276397","lat":25.122192,"lon":121.5181514,"name":"未命名水邊","decorType":"waterside"},{"id":"way-426276398","lat":25.1221118,"lon":121.5179457,"name":"未命名水邊","decorType":"waterside"},{"id":"way-426276399","lat":25.1228362,"lon":121.5167919,"name":"未命名水邊","decorType":"waterside"},{"id":"way-426277634","lat":25.1225285,"lon":121.5155962,"name":"4F空橋","decorType":"bridge"},{"id":"way-426277635","lat":25.1228763,"lon":121.5111442,"name":"無障礙通道","decorType":"bridge"},{"id":"way-426278312","lat":25.1182716,"lon":121.5202751,"name":"教學大樓","decorType":"university"},{"id":"way-426278313","lat":25.1180157,"lon":121.5207835,"name":"行政大樓","decorType":"university"},{"id":"way-426278314","lat":25.118014,"lon":121.5207942,"name":"未命名公園","decorType":"park"},{"id":"way-426278315","lat":25.1175015,"lon":121.52063,"name":"科技大樓","decorType":"university"},{"id":"way-426278316","lat":25.1177792,"lon":121.5201037,"name":"圖書館","decorType":"library"},{"id":"way-426278317","lat":25.1185511,"lon":121.5212027,"name":"親仁樓","decorType":"university"},{"id":"way-426278318","lat":25.1183125,"lon":121.5186156,"name":"國立臺北護理健康大學體育館","decorType":"university"},{"id":"way-426278320","lat":25.1178067,"lon":121.5179059,"name":"未命名大學&學院","decorType":"university"},{"id":"way-426278321","lat":25.1173558,"lon":121.5178688,"name":"樂育樓","decorType":"university"},{"id":"way-431544859","lat":25.1186342,"lon":121.5136589,"name":"永明玉龍宮","decorType":"shrine"},{"id":"way-438693841","lat":25.1225141,"lon":121.5152401,"name":"未命名水邊","decorType":"waterside"},{"id":"way-438693856","lat":25.1233423,"lon":121.5098595,"name":"未命名公園","decorType":"park"},{"id":"way-463995773","lat":25.123091,"lon":121.5105643,"name":"未命名山丘","decorType":"mountain"},{"id":"way-466825983","lat":25.1184773,"lon":121.5115143,"name":"簡易公園","decorType":"park"},{"id":"way-467059706","lat":25.1195658,"lon":121.5135921,"name":"葯圃","decorType":"park"},{"id":"way-468600765","lat":25.1215128,"lon":121.513748,"name":"大禮堂","decorType":"university"},{"id":"way-468600766","lat":25.1216043,"lon":121.5139937,"name":"表演廳","decorType":"university"},{"id":"way-468600767","lat":25.1214886,"lon":121.5141894,"name":"會議中心","decorType":"university"},{"id":"way-468600768","lat":25.1216109,"lon":121.5143098,"name":"室內運動中心","decorType":"university"},{"id":"way-468600769","lat":25.1218008,"lon":121.514023,"name":"學生社團中心","decorType":"university"},{"id":"way-468600770","lat":25.1212676,"lon":121.5141479,"name":"彩虹迴廊","decorType":"university"},{"id":"way-468600771","lat":25.1212827,"lon":121.514292,"name":"學生戶外表演場","decorType":"art_gallery"},{"id":"way-468607584","lat":25.1216104,"lon":121.5150392,"name":"三角洲草坪","decorType":"park"},{"id":"way-468607585","lat":25.1232889,"lon":121.509473,"name":"打石草坪","decorType":"park"},{"id":"way-468638287","lat":25.1196532,"lon":121.5132149,"name":"校門樓牌","decorType":"university"},{"id":"way-480773823","lat":25.1308278,"lon":121.5180842,"name":"未命名橋樑","decorType":"bridge"},{"id":"way-490624049","lat":25.1254586,"lon":121.5145706,"name":"未命名山丘","decorType":"mountain"},{"id":"way-493793259","lat":25.1236891,"lon":121.5177429,"name":"未命名水邊","decorType":"waterside"},{"id":"way-493799921","lat":25.1224286,"lon":121.5115093,"name":"未命名山丘","decorType":"mountain"},{"id":"way-503698444","lat":25.1191502,"lon":121.5134991,"name":"未命名水邊","decorType":"waterside"},{"id":"way-503916050","lat":25.1191515,"lon":121.513649,"name":"未命名公園","decorType":"park"},{"id":"way-503916051","lat":25.1194576,"lon":121.5137828,"name":"未命名公園","decorType":"park"},{"id":"way-503916052","lat":25.1194055,"lon":121.5141407,"name":"未命名公園","decorType":"park"},{"id":"way-503916056","lat":25.1191468,"lon":121.5140911,"name":"未命名公園","decorType":"park"},{"id":"way-552389609","lat":25.1226172,"lon":121.5183774,"name":"未命名橋樑","decorType":"bridge"},{"id":"way-570570366","lat":25.1192874,"lon":121.5130378,"name":"未命名公園","decorType":"park"},{"id":"way-570570367","lat":25.1174473,"lon":121.5143537,"name":"未命名公園","decorType":"park"},{"id":"way-570570370","lat":25.1179146,"lon":121.5146241,"name":"綠帶公園","decorType":"park"},{"id":"way-570570371","lat":25.1183143,"lon":121.5148193,"name":"未命名公園","decorType":"park"},{"id":"way-570570401","lat":25.1169008,"lon":121.5098046,"name":"未命名公園","decorType":"park"},{"id":"way-832940020","lat":25.1214324,"lon":121.5194728,"name":"未命名橋樑","decorType":"bridge"},{"id":"way-865699727","lat":25.1201404,"lon":121.5118454,"name":"未命名公園","decorType":"park"},{"id":"way-947613734","lat":25.1184147,"lon":121.5193919,"name":"學思樓","decorType":"university"},{"id":"way-949017480","lat":25.1179907,"lon":121.5185761,"name":"明倫館","decorType":"university"},{"id":"way-961960709","lat":25.1171219,"lon":121.5206082,"name":"癒花園","decorType":"park"},{"id":"way-961960711","lat":25.1179273,"lon":121.5204307,"name":"未命名水邊","decorType":"waterside"},{"id":"way-967122137","lat":25.1197442,"lon":121.5191718,"name":"天橋","decorType":"bridge"},{"id":"way-967122138","lat":25.1195094,"lon":121.5190545,"name":"未命名橋樑","decorType":"bridge"},{"id":"way-967122534","lat":25.1204888,"lon":121.5209691,"name":"天橋","decorType":"bridge"},{"id":"way-1068872450","lat":25.1253811,"lon":121.5165332,"name":"未命名山丘","decorType":"mountain"},{"id":"way-1068872452","lat":25.1254244,"lon":121.5197971,"name":"未命名山丘","decorType":"mountain"},{"id":"way-1068872453","lat":25.1272801,"lon":121.5186867,"name":"未命名山丘","decorType":"mountain"},{"id":"way-1068872454","lat":25.1259886,"lon":121.517433,"name":"未命名山丘","decorType":"mountain"},{"id":"way-1134216560","lat":25.1213498,"lon":121.5207904,"name":"未命名橋樑","decorType":"bridge"},{"id":"way-1146878414","lat":25.1168356,"lon":121.5174737,"name":"石牌聖體堂","decorType":"shrine"},{"id":"way-1299024458","lat":25.1214591,"lon":121.5191274,"name":"未命名橋樑","decorType":"bridge"},{"id":"way-1299024459","lat":25.121233,"lon":121.5193522,"name":"未命名橋樑","decorType":"bridge"},{"id":"way-1299024460","lat":25.120952,"lon":121.5192189,"name":"未命名橋樑","decorType":"bridge"},{"id":"way-1299024462","lat":25.1211248,"lon":121.5202539,"name":"未命名橋樑","decorType":"bridge"}]}