{"bbox":{"south":25.116763,"north":25.132369,"west":121.509125,"east":121.522156},"pois":[{"id":"way-259860100","lat":25.117145,"lon":121.509216,"name":"未命名公園","decorType":"park"},{"id":"way-375338650","lat":25.117607,"lon":121.509434,"name":"石牌公園","decorType":"park"},{"id":"way-425273279","lat":25.125125,"lon":121.511758,"name":"未命名山丘","decorType":"mountain"},{"id":"node-1832693019","lat":25.120426,"lon":121.513346,"name":"陽明大學圖書館1-4F","decorType":"library"},{"id":"node-1832696278","lat":25.119158,"lon":121.513953,"name":"郵局","decorType":"post_office"},{"id":"node-1833121273","lat":25.123373,"lon":121.513032,"name":"7-Eleven","decorType":"convenience"},{"id":"node-1833133779","lat":25.121763,"lon":121.514145,"name":"5F布查花園法式餐廳","decorType":"restaurant"},{"id":"node-1833784606","lat":25.120288,"lon":121.513144,"name":"陽明大學校門口","decorType":"bus_stop"},{"id":"node-1843810189","lat":25.116838,"lon":121.51637,"name":"7-Eleven","decorType":"convenience"},{"id":"node-1843811014","lat":25.117845,"lon":121.517314,"name":"麥當勞","decorType":"burger"},{"id":"node-1844866487","lat":25.118885,"lon":121.512894,"name":"仙客來","decorType":"restaurant"},{"id":"node-2300575305","lat":25.126202,"lon":121.515612,"name":"唭哩岸山","decorType":"mountain"},{"id":"node-2300575306","lat":25.124305,"lon":121.51037,"name":"奇岩山","decorType":"mountain"},{"id":"node-2300575562","lat":25.127308,"lon":121.518719,"name":"軍艦岩","decorType":"mountain"},{"id":"node-2300575566","lat":25.13233,"lon":121.518995,"name":"二六〇公尺峰","decorType":"mountain"},{"id":"node-2459681635","lat":25.118921,"lon":121.517286,"name":"保一總隊","decorType":"bus_stop"},{"id":"node-2459681639","lat":25.118628,"lon":121.519654,"name":"榮總","decorType":"bus_stop"},{"id":"node-2459681640","lat":25.11882,"lon":121.520643,"name":"榮總一","decorType":"bus_stop"},{"id":"node-2459681641","lat":25.11917,"lon":121.521556,"name":"榮總一","decorType":"bus_stop"},{"id":"node-2705314770","lat":25.118425,"lon":121.517936,"name":"榮總","decorType":"bus_stop"},{"id":"node-2705316086","lat":25.11738,"lon":121.516586,"name":"永明派出所","decorType":"bus_stop"},{"id":"node-2705316087","lat":25.117284,"lon":121.516379,"name":"永明派出所","decorType":"bus_stop"},{"id":"node-2711809315","lat":25.119668,"lon":121.511985,"name":"陽明大學(東華)","decorType":"bus_stop"},{"id":"node-2711809316","lat":25.119088,"lon":121.511784,"name":"陽明大學(西安)","decorType":"bus_stop"},{"id":"node-2711812475","lat":25.120529,"lon":121.509168,"name":"健行新村(東華)","decorType":"bus_stop"},{"id":"node-2714941498","lat":25.117581,"lon":121.521939,"name":"振興醫院","decorType":"bus_stop"},{"id":"node-3426976794","lat":25.12674,"lon":121.512842,"name":"觀音禪室","decorType":"shrine"},{"id":"node-3448496646","lat":25.12014,"lon":121.511181,"name":"全聯福利中心","decorType":"supermarket"},{"id":"node-3448499100","lat":25.118031,"lon":121.50955,"name":"OK超商","decorType":"convenience"},{"id":"node-3785386773","lat":25.118503,"lon":121.516408,"name":"萊爾富","decorType":"convenience"},{"id":"node-3788212989","lat":25.117065,"lon":121.511353,"name":"全聯福利中心","decorType":"supermarket"},{"id":"node-3788212996","lat":25.119273,"lon":121.511284,"name":"旺角咖啡旅店","decorType":"restaurant"},{"id":"node-3849103543","lat":25.117444,"lon":121.512974,"name":"7-Eleven","decorType":"convenience"},{"id":"node-3849103544","lat":25.119887,"lon":121.509781,"name":"長疆碳燒羊肉爐","decorType":"restaurant"},{"id":"node-3849103545","lat":25.119931,"lon":121.509579,"name":"霸味薑母鴨石牌店","decorType":"restaurant"},{"id":"node-3851686310","lat":25.118322,"lon":121.517568,"name":"永明民眾閱覽室","decorType":"library"},{"id":"node-3885531827","lat":25.118731,"lon":121.516956,"name":"未命名郵局","decorType":"post_office"},{"id":"node-4018209441","lat":25.118474,"lon":121.517894,"name":"都柏林台式自助餐","decorType":"restaurant"},{"id":"node-4121529089","lat":25.117786,"lon":121.513605,"name":"全家便利商店","decorType":"convenience"},{"id":"node-4255816906","lat":25.120089,"lon":121.519476,"name":"西雅圖極品咖啡","decorType":"cafe"},{"id":"node-4255816907","lat":25.120077,"lon":121.519681,"name":"未命名超市","decorType":"supermarket"},{"id":"node-4307554212","lat":25.119537,"lon":121.512251,"name":"品鮨日式料理","decorType":"restaurant"},{"id":"node-4307554215","lat":25.117601,"lon":121.513029,"name":"盧卡漢堡","decorType":"restaurant"},{"id":"node-4307554218","lat":25.118737,"lon":121.515962,"name":"好日子咖啡","decorType":"cafe"},{"id":"node-4307554224","lat":25.118554,"lon":121.515375,"name":"樂立潔","decorType":"laundry"},{"id":"node-4307554225","lat":25.11758,"lon":121.516262,"name":"永福祠","decorType":"shrine"},{"id":"node-4307554229","lat":25.117436,"lon":121.516425,"name":"石牌郵局","decorType":"post_office"},{"id":"node-4307554239","lat":25.118974,"lon":121.514694,"name":"美簾社","decorType":"supermarket"},{"id":"node-4307554242","lat":25.118866,"lon":121.511919,"name":"醬弄居酒屋","decorType":"restaurant"},{"id":"node-4307557039","lat":25.116942,"lon":121.516225,"name":"永明派出所","decorType":"bus_stop"},{"id":"node-4344542416","lat":25.120144,"lon":121.511013,"name":"來契川菜","decorType":"restaurant"},{"id":"node-4344542442","lat":25.119988,"lon":121.511567,"name":"溫州大混沌","decorType":"restaurant"},{"id":"node-4344542443","lat":25.124334,"lon":121.520941,"name":"玉皇宮","decorType":"shrine"},{"id":"node-4344542488","lat":25.120979,"lon":121.510694,"name":"未命名郵局","decorType":"post_office"},{"id":"node-4344543595","lat":25.119293,"lon":121.511428,"name":"臺灣煙酒","decorType":"convenience"},{"id":"node-4363964212","lat":25.122323,"lon":121.514402,"name":"陽明大學行政大樓","decorType":"bus_stop"},{"id":"node-4363964213","lat":25.123134,"lon":121.514726,"name":"陽明大學實驗大樓","decorType":"bus_stop"},{"id":"node-4363964216","lat":25.12087,"lon":121.519348,"name":"榮總護士宿舍","decorType":"bus_stop"},{"id":"node-4388555688","lat":25.122576,"lon":121.510059,"name":"陽明大學男(女)五舍","decorType":"bus_stop"},{"id":"node-4432470657","lat":25.116768,"lon":121.516692,"name":"未命名餐廳","decorType":"restaurant"},{"id":"node-4570262479","lat":25.117513,"lon":121.513112,"name":"7-Eleven","decorType":"convenience"},{"id":"node-4578536066","lat":25.123166,"lon":121.513194,"name":"楓香林","decorType":"forest"},{"id":"node-4683579111","lat":25.121255,"lon":121.513003,"name":"台灣惠蓀咖啡","decorType":"cafe"},{"id":"node-5969055685","lat":25.116973,"lon":121.516493,"name":"大馬","decorType":"restaurant"},{"id":"node-6515952569","lat":25.117184,"lon":121.516981,"name":"竹苑素食餐廳","decorType":"restaurant"},{"id":"node-6855627861","lat":25.117061,"lon":121.512484,"name":"八方雲集","decorType":"burger"},{"id":"node-7175344490","lat":25.120144,"lon":121.51968,"name":"小南門傳統美食","decorType":"restaurant"},{"id":"node-7175344547","lat":25.120198,"lon":121.519699,"name":"雲象泰式餐廳","decorType":"restaurant"},{"id":"node-7175344565","lat":25.120215,"lon":121.519796,"name":"皇家傳承","decorType":"restaurant"},{"id":"node-7175344640","lat":25.120079,"lon":121.519787,"name":"義美見學餐廳","decorType":"restaurant"},{"id":"node-7175344646","lat":25.118693,"lon":121.521962,"name":"尋偵手作日本料理","decorType":"restaurant"},{"id":"node-7175344785","lat":25.120301,"lon":121.519798,"name":"明德素食園","decorType":"restaurant"},{"id":"node-7175344791","lat":25.120141,"lon":121.519814,"name":"洪祖師擔仔麵","decorType":"restaurant"},{"id":"node-7255839178","lat":25.118048,"lon":121.516657,"name":"川秀藥局","decorType":"pharmacy"},{"id":"node-7775718515","lat":25.121672,"lon":121.519777,"name":"榮總思源樓","decorType":"bus_stop"},{"id":"node-7798137205","lat":25.117211,"lon":121.511512,"name":"鮮味屋小吃","decorType":"restaurant"},{"id":"node-7798137206","lat":25.116999,"lon":121.511916,"name":"老張牛肉麵","decorType":"restaurant"},{"id":"node-7798137207","lat":25.116972,"lon":121.511999,"name":"馬咖咖啡義大利麵","decorType":"restaurant"},{"id":"node-7798137208","lat":25.116936,"lon":121.512291,"name":"Q仔素","decorType":"restaurant"},{"id":"node-7798137209","lat":25.116807,"lon":121.512355,"name":"婆媽","decorType":"restaurant"},{"id":"node-7798137210","lat":25.117336,"lon":121.512814,"name":"香港鏞記燒臘快餐","decorType":"restaurant"},{"id":"node-7798137211","lat":25.117221,"lon":121.512663,"name":"早坊早餐店","decorType":"restaurant"},{"id":"node-7798137212","lat":25.117083,"lon":121.512697,"name":"旺利自助餐","decorType":"restaurant"},{"id":"node-7798137213","lat":25.11723,"lon":121.512858,"name":"快樂豆花","decorType":"restaurant"},{"id":"node-7798137214","lat":25.11735,"lon":121.513169,"name":"蔥油餅","decorType":"restaurant"},{"id":"node-7798137215","lat":25.11839,"lon":121.512465,"name":"禾竹家常菜","decorType":"restaurant"},{"id":"node-7798137216","lat":25.118001,"lon":121.512743,"name":"鱉大王","decorType":"restaurant"},{"id":"node-7798137217","lat":25.117658,"lon":121.512995,"name":"上味相素食","decorType":"restaurant"},{"id":"node-7798137218","lat":25.117688,"lon":121.513702,"name":"兩披索靚鍋","decorType":"restaurant"},{"id":"node-7798137219","lat":25.118444,"lon":121.513199,"name":"早安美芝城","decorType":"burger"},{"id":"node-8118095201","lat":25.118573,"lon":121.518273,"name":"7-Eleven","decorType":"convenience"},{"id":"node-8432400694","lat":25.131513,"lon":121.513263,"name":"照明寺","decorType":"bus_stop"},{"id":"node-8432400695","lat":25.131448,"lon":121.513244,"name":"照明寺","decorType":"bus_stop"},{"id":"node-8463614207","lat":25.120403,"lon":121.513057,"name":"陽明大學校門口","decorType":"bus_stop"},{"id":"node-8463614208","lat":25.123188,"lon":121.51456,"name":"陽明大學實驗大樓","decorType":"bus_stop"},{"id":"node-8922062696","lat":25.119041,"lon":121.522135,"name":"路易莎咖啡","decorType":"cafe"},{"id":"node-8947510019","lat":25.119699,"lon":121.519816,"name":"未命名公車站","decorType":"bus_stop"},{"id":"node-8947510020","lat":25.119756,"lon":121.519963,"name":"榮總接駁車","decorType":"bus_stop"},{"id":"node-9103799001","lat":25.117656,"lon":121.516576,"name":"燦坤3C","decorType":"electronics"},{"id":"node-10016034800","lat":25.128532,"lon":121.518034,"name":"土地公","decorType":"shrine"},{"id":"node-12797038605","lat":25.118602,"lon":121.518333,"name":"慧昭牛舌餅","decorType":"burger"},{"id":"way-172360345","lat":25.123567,"lon":121.515745,"name":"研究大樓","decorType":"university"},{"id":"way-172360389","lat":25.123537,"lon":121.514776,"name":"實驗大樓","decorType":"university"},{"id":"way-172360487","lat":25.120347,"lon":121.514608,"name":"生物醫學大樓","decorType":"university"},{"id":"way-172360772","lat":25.119283,"lon":121.513783,"name":"守仁樓","decorType":"university"},{"id":"way-172360796","lat":25.120135,"lon":121.512511,"name":"致和樓","decorType":"university"},{"id":"way-172360947","lat":25.120299,"lon":121.512887,"name":"高齡研究中心","decorType":"university"},{"id":"way-172361010","lat":25.122507,"lon":121.514825,"name":"行政大樓","decorType":"university"},{"id":"way-172361054","lat":25.122765,"lon":121.514303,"name":"醫學館、教師發展中心","decorType":"university"},{"id":"way-172361144","lat":25.122964,"lon":121.510791,"name":"陽明大學室內游泳池(伊藤萬日本游泳學校)","decorType":"university"},{"id":"way-172361199","lat":25.122935,"lon":121.51153,"name":"學生餐廳","decorType":"restaurant"},{"id":"way-172361407","lat":25.123555,"lon":121.513747,"name":"綜合教室/第一教學大樓","decorType":"university"},{"id":"way-172361409","lat":25.123875,"lon":121.51661,"name":"動物中心","decorType":"university"},{"id":"way-172361411","lat":25.123432,"lon":121.512932,"name":"人文與教育中心","decorType":"university"},{"id":"way-172361476","lat":25.123572,"lon":121.512647,"name":"第二教學大樓","decorType":"university"},{"id":"way-172361531","lat":25.122883,"lon":121.515842,"name":"醫學院二館","decorType":"university"},{"id":"way-172361532","lat":25.122322,"lon":121.515594,"name":"護理館","decorType":"university"},{"id":"way-172361533","lat":25.122927,"lon":121.515167,"name":"牙醫館","decorType":"university"},{"id":"way-220999159","lat":25.131809,"lon":121.513948,"name":"照明寺","decorType":"shrine"},{"id":"way-226555953","lat":25.125902,"lon":121.511692,"name":"崇仰公園","decorType":"park"},{"id":"way-227653718","lat":25.12705,"lon":121.510338,"name":"丹鳳公園游泳池","decorType":"waterside"},{"id":"way-227653853","lat":25.126666,"lon":121.510182,"name":"丹鳳公園","decorType":"park"},{"id":"way-243435196","lat":25.119994,"lon":121.518998,"name":"未命名水邊","decorType":"waterside"},{"id":"way-256631613","lat":25.117865,"lon":121.513226,"name":"未命名橋樑","decorType":"bridge"},{"id":"way-256631614","lat":25.117868,"lon":121.513262,"name":"未命名橋樑","decorType":"bridge"},{"id":"way-258892621","lat":25.117886,"lon":121.519885,"name":"台北護理健康大學","decorType":"university"},{"id":"way-361818408","lat":25.116997,"lon":121.521579,"name":"未命名橋樑","decorType":"bridge"},{"id":"way-361818411","lat":25.116996,"lon":121.521492,"name":"未命名水邊","decorType":"waterside"},{"id":"way-374307298","lat":25.116817,"lon":121.513968,"name":"未命名公園","decorType":"park"},{"id":"way-374307300","lat":25.118282,"lon":121.512834,"name":"未命名公園","decorType":"park"},{"id":"way-374896607","lat":25.116939,"lon":121.520773,"name":"未命名森林","decorType":"forest"},{"id":"way-375180574","lat":25.12033,"lon":121.511975,"name":"未命名橋樑","decorType":"bridge"},{"id":"way-375180578","lat":25.120592,"lon":121.511752,"name":"健行橋","decorType":"bridge"},{"id":"way-375802520","lat":25.126513,"lon":121.509424,"name":"未命名橋樑","decorType":"bridge"},{"id":"way-375861979","lat":25.129205,"lon":121.521136,"name":"未命名水邊","decorType":"waterside"},{"id":"way-377243818","lat":25.126141,"lon":121.511438,"name":"未命名橋樑","decorType":"bridge"},{"id":"way-381962213","lat":25.117752,"lon":121.51676,"name":"未命名公園","decorType":"park"},{"id":"way-385196066","lat":25.11876,"lon":121.516655,"name":"未命名公園","decorType":"park"},{"id":"way-385196067","lat":25.119152,"lon":121.512827,"name":"未命名公園","decorType":"park"},{"id":"way-402804513","lat":25.119781,"lon":121.514574,"name":"傳統醫學大樓甲棟","decorType":"university"},{"id":"way-419133726","lat":25.121242,"lon":121.512783,"name":"博雅中心","decorType":"university"},{"id":"way-419133730","lat":25.119678,"lon":121.513322,"name":"陽明大學校史室","decorType":"university"},{"id":"way-419133734","lat":25.12053,"lon":121.512643,"name":"未命名橋樑","decorType":"bridge"},{"id":"way-419137812","lat":25.122333,"lon":121.51522,"name":"未命名橋樑","decorType":"bridge"},{"id":"way-419137816","lat":25.122973,"lon":121.514435,"name":"未命名橋樑","decorType":"bridge"},{"id":"way-419137823","lat":25.122959,"lon":121.512096,"name":"未命名橋樑","decorType":"bridge"},{"id":"way-419137825","lat":25.123119,"lon":121.515265,"name":"未命名橋樑","decorType":"bridge"},{"id":"way-419174225","lat":25.123192,"lon":121.513882,"name":"異空間","decorType":"park"},{"id":"way-419174238","lat":25.121985,"lon":121.512334,"name":"未命名橋樑","decorType":"bridge"},{"id":"way-420427639","lat":25.128812,"lon":121.515079,"name":"未命名水邊","decorType":"waterside"},{"id":"way-421731143","lat":25.127254,"lon":121.518471,"name":"軍艦岩","decorType":"mountain"},{"id":"way-421932010","lat":25.123912,"lon":121.512835,"name":"韓偉紀念園","decorType":"park"},{"id":"way-421952569","lat":25.122873,"lon":121.514632,"name":"水泥地空間","decorType":"park"},{"id":"way-421952572","lat":25.123149,"lon":121.513308,"name":"神農坡打石場公園","decorType":"park"},{"id":"way-425224805","lat":25.125243,"lon":121.514579,"name":"未命名體育館","decorType":"stadium"},{"id":"way-425224806","lat":25.124601,"lon":121.514706,"name":"未命名水邊","decorType":"waterside"},{"id":"way-425224807","lat":25.124576,"lon":121.514854,"name":"未命名水邊","decorType":"waterside"},{"id":"way-425224808","lat":25.124682,"lon":121.513275,"name":"未命名水邊","decorType":"waterside"},{"id":"way-425225590","lat":25.123803,"lon":121.512908,"name":"唭哩岸岩打石場切割線","decorType":"mountain"},{"id":"way-425225591","lat":25.122637,"lon":121.513656,"name":"唭哩岸岩打石場切割線","decorType":"mountain"},{"id":"way-425254875","lat":25.122761,"lon":121.51383,"name":"未命名橋樑","decorType":"bridge"},{"id":"way-425273280","lat":25.12436,"lon":121.520387,"name":"未命名山丘","decorType":"mountain"},{"id":"way-425288224","lat":25.124115,"lon":121.516399,"name":"未命名水邊","decorType":"waterside"},{"id":"way-425288226","lat":25.123786,"lon":121.51739,"name":"未命名水邊","decorType":"waterside"},{"id":"way-425291135","lat":25.12403,"lon":121.51304,"name":"未命名水邊","decorType":"waterside"},{"id":"way-425291981","lat":25.122977,"lon":121.516239,"name":"未命名水邊","decorType":"waterside"},{"id":"way-426053484","lat":25.123047,"lon":121.517953,"name":"未命名山丘","decorType":"mountain"},{"id":"way-426276397","lat":25.122192,"lon":121.518151,"name":"未命名水邊","decorType":"waterside"},{"id":"way-426276398","lat":25.122112,"lon":121.517946,"name":"未命名水邊","decorType":"waterside"},{"id":"way-426276399","lat":25.122836,"lon":121.516792,"name":"未命名水邊","decorType":"waterside"},{"id":"way-426277634","lat":25.122529,"lon":121.515596,"name":"4F空橋","decorType":"bridge"},{"id":"way-426277635","lat":25.122876,"lon":121.511144,"name":"無障礙通道","decorType":"bridge"},{"id":"way-426278312","lat":25.118272,"lon":121.520275,"name":"教學大樓","decorType":"university"},{"id":"way-426278313","lat":25.118016,"lon":121.520784,"name":"行政大樓","decorType":"university"},{"id":"way-426278314","lat":25.118014,"lon":121.520794,"name":"未命名公園","decorType":"park"},{"id":"way-426278315","lat":25.117502,"lon":121.52063,"name":"科技大樓","decorType":"university"},{"id":"way-426278316","lat":25.117779,"lon":121.520104,"name":"圖書館","decorType":"library"},{"id":"way-426278317","lat":25.118551,"lon":121.521203,"name":"親仁樓","decorType":"university"},{"id":"way-426278318","lat":25.118313,"lon":121.518616,"name":"國立臺北護理健康大學體育館","decorType":"university"},{"id":"way-426278320","lat":25.117807,"lon":121.517906,"name":"未命名大學&學院","decorType":"university"},{"id":"way-426278321","lat":25.117356,"lon":121.517869,"name":"樂育樓","decorType":"university"},{"id":"way-431544859","lat":25.118634,"lon":121.513659,"name":"永明玉龍宮","decorType":"shrine"},{"id":"way-438693841","lat":25.122514,"lon":121.51524,"name":"未命名水邊","decorType":"waterside"},{"id":"way-438693856","lat":25.123342,"lon":121.50986,"name":"未命名公園","decorType":"park"},{"id":"way-463995773","lat":25.123091,"lon":121.510564,"name":"未命名山丘","decorType":"mountain"},{"id":"way-466825983","lat":25.118477,"lon":121.511514,"name":"簡易公園","decorType":"park"},{"id":"way-467059706","lat":25.119566,"lon":121.513592,"name":"葯圃","decorType":"park"},{"id":"way-468600765","lat":25.121513,"lon":121.513748,"name":"大禮堂","decorType":"university"},{"id":"way-468600766","lat":25.121604,"lon":121.513994,"name":"表演廳","decorType":"university"},{"id":"way-468600767","lat":25.121489,"lon":121.514189,"name":"會議中心","decorType":"university"},{"id":"way-468600768","lat":25.121611,"lon":121.51431,"name":"室內運動中心","decorType":"university"},{"id":"way-468600769","lat":25.121801,"lon":121.514023,"name":"學生社團中心","decorType":"university"},{"id":"way-468600770","lat":25.121268,"lon":121.514148,"name":"彩虹迴廊","decorType":"university"},{"id":"way-468600771","lat":25.121283,"lon":121.514292,"name":"學生戶外表演場","decorType":"art_gallery"},{"id":"way-468607584","lat":25.12161,"lon":121.515039,"name":"三角洲草坪","decorType":"park"},{"id":"way-468607585","lat":25.123289,"lon":121.509473,"name":"打石草坪","decorType":"park"},{"id":"way-468638287","lat":25.119653,"lon":121.513215,"name":"校門樓牌","decorType":"university"},{"id":"way-480773823","lat":25.130828,"lon":121.518084,"name":"未命名橋樑","decorType":"bridge"},{"id":"way-490624049","lat":25.125459,"lon":121.514571,"name":"未命名山丘","decorType":"mountain"},{"id":"way-493793259","lat":25.123689,"lon":121.517743,"name":"未命名水邊","decorType":"waterside"},{"id":"way-493799921","lat":25.122429,"lon":121.511509,"name":"未命名山丘","decorType":"mountain"},{"id":"way-503698444","lat":25.11915,"lon":121.513499,"name":"未命名水邊","decorType":"waterside"},{"id":"way-503916050","lat":25.119152,"lon":121.513649,"name":"未命名公園","decorType":"park"},{"id":"way-503916051","lat":25.119458,"lon":121.513783,"name":"未命名公園","decorType":"park"},{"id":"way-503916052","lat":25.119406,"lon":121.514141,"name":"未命名公園","decorType":"park"},{"id":"way-503916056","lat":25.119147,"lon":121.514091,"name":"未命名公園","decorType":"park"},{"id":"way-552389609","lat":25.122617,"lon":121.518377,"name":"未命名橋樑","decorType":"bridge"},{"id":"way-570570366","lat":25.119287,"lon":121.513038,"name":"未命名公園","decorType":"park"},{"id":"way-570570367","lat":25.117447,"lon":121.514354,"name":"未命名公園","decorType":"park"},{"id":"way-570570370","lat":25.117915,"lon":121.514624,"name":"綠帶公園","decorType":"park"},{"id":"way-570570371","lat":25.118314,"lon":121.514819,"name":"未命名公園","decorType":"park"},{"id":"way-570570401","lat":25.116901,"lon":121.509805,"name":"未命名公園","decorType":"park"},{"id":"way-832940020","lat":25.121432,"lon":121.519473,"name":"未命名橋樑","decorType":"bridge"},{"id":"way-865699727","lat":25.12014,"lon":121.511845,"name":"未命名公園","decorType":"park"},{"id":"way-947613734","lat":25.118415,"lon":121.519392,"name":"學思樓","decorType":"university"},{"id":"way-949017480","lat":25.117991,"lon":121.518576,"name":"明倫館","decorType":"university"},{"id":"way-961960709","lat":25.117122,"lon":121.520608,"name":"癒花園","decorType":"park"},{"id":"way-961960711","lat":25.117927,"lon":121.520431,"name":"未命名水邊","decorType":"waterside"},{"id":"way-967122137","lat":25.119744,"lon":121.519172,"name":"天橋","decorType":"bridge"},{"id":"way-967122138","lat":25.119509,"lon":121.519055,"name":"未命名橋樑","decorType":"bridge"},{"id":"way-967122534","lat":25.120489,"lon":121.520969,"name":"天橋","decorType":"bridge"},{"id":"way-1068872450","lat":25.125381,"lon":121.516533,"name":"未命名山丘","decorType":"mountain"},{"id":"way-1068872452","lat":25.125424,"lon":121.519797,"name":"未命名山丘","decorType":"mountain"},{"id":"way-1068872453","lat":25.12728,"lon":121.518687,"name":"未命名山丘","decorType":"mountain"},{"id":"way-1068872454","lat":25.125989,"lon":121.517433,"name":"未命名山丘","decorType":"mountain"},{"id":"way-1134216560","lat":25.12135,"lon":121.52079,"name":"未命名橋樑","decorType":"bridge"},{"id":"way-1146878414","lat":25.116836,"lon":121.517474,"name":"石牌聖體堂","decorType":"shrine"},{"id":"way-1299024458","lat":25.121459,"lon":121.519127,"name":"未命名橋樑","decorType":"bridge"},{"id":"way-1299024459","lat":25.121233,"lon":121.519352,"name":"未命名橋樑","decorType":"bridge"},{"id":"way-1299024460","lat":25.120952,"lon":121.519219,"name":"未命名橋樑","decorType":"bridge"},{"id":"way-1299024462","lat":25.121125,"lon":121.520254,"name":"未命名橋樑","decorType":"bridge"}]}