{"bbox":{"south":25.116763,"north":25.132369,"west":121.522156,"east":121.535187},"pois":[{"id":"node-2459681634","lat":25.118232,"lon":121.531049,"name":"三玉宮","decorType":"bus_stop"},{"id":"node-2459681636","lat":25.117252,"lon":121.534677,"name":"啟智學校","decorType":"bus_stop"},{"id":"node-2459681637","lat":25.118595,"lon":121.526401,"name":"天母國小","decorType":"bus_stop"},{"id":"node-2459681644","lat":25.118473,"lon":121.527679,"name":"齊福華廈","decorType":"bus_stop"},{"id":"node-2459681645","lat":25.118673,"lon":121.523595,"name":"振興公園","decorType":"bus_stop"},{"id":"node-2460552078","lat":25.118047,"lon":121.531032,"name":"三玉宮","decorType":"bus_stop"},{"id":"node-2460552097","lat":25.117261,"lon":121.534266,"name":"啟智學校","decorType":"bus_stop"},{"id":"node-2460552133","lat":25.118364,"lon":121.527586,"name":"齊福華廈","decorType":"bus_stop"},{"id":"node-2460552134","lat":25.118422,"lon":121.525258,"name":"齊賢華廈","decorType":"bus_stop"},{"id":"node-2460552135","lat":25.118522,"lon":121.525488,"name":"齊賢華廈","decorType":"bus_stop"},{"id":"node-2482647114","lat":25.129404,"lon":121.523621,"name":"磺溪山南峰","decorType":"mountain"},{"id":"node-2622759177","lat":25.128774,"lon":121.528693,"name":"明山宮一","decorType":"bus_stop"},{"id":"node-2622759178","lat":25.127894,"lon":121.5291,"name":"明山宮","decorType":"bus_stop"},{"id":"node-2622759315","lat":25.127948,"lon":121.52925,"name":"明山宮","decorType":"bus_stop"},{"id":"node-2622761241","lat":25.125903,"lon":121.527623,"name":"磺溪","decorType":"bus_stop"},{"id":"node-2622761325","lat":25.126264,"lon":121.528183,"name":"磺溪","decorType":"bus_stop"},{"id":"node-2622762478","lat":25.124762,"lon":121.526387,"name":"福德廟(行義)","decorType":"bus_stop"},{"id":"node-2622762481","lat":25.124851,"lon":121.526274,"name":"福德廟(行義)","decorType":"bus_stop"},{"id":"node-2622762946","lat":25.123613,"lon":121.525329,"name":"福德廟 (石牌)","decorType":"bus_stop"},{"id":"node-2622762949","lat":25.12367,"lon":121.525738,"name":"福德廟 (石牌)","decorType":"bus_stop"},{"id":"node-2651775309","lat":25.119599,"lon":121.529774,"name":"星巴克","decorType":"cafe"},{"id":"node-2651775311","lat":25.119746,"lon":121.52963,"name":"好丘","decorType":"restaurant"},{"id":"node-2660830752","lat":25.117637,"lon":121.532642,"name":"全家便利商店","decorType":"convenience"},{"id":"node-2660830754","lat":25.119788,"lon":121.533446,"name":"全家便利商店","decorType":"convenience"},{"id":"node-2691398078","lat":25.12237,"lon":121.526934,"name":"MOS","decorType":"burger"},{"id":"node-2702070836","lat":25.121173,"lon":121.526764,"name":"天玉里","decorType":"bus_stop"},{"id":"node-2702083847","lat":25.123024,"lon":121.529146,"name":"合庫訓練中心","decorType":"bus_stop"},{"id":"node-2702084242","lat":25.124736,"lon":121.530565,"name":"天母公園","decorType":"bus_stop"},{"id":"node-2702086523","lat":25.124988,"lon":121.532384,"name":"天母圓環","decorType":"bus_stop"},{"id":"node-2702086825","lat":25.126863,"lon":121.532982,"name":"中銀山莊","decorType":"bus_stop"},{"id":"node-2702087640","lat":25.126802,"lon":121.534148,"name":"水管路","decorType":"bus_stop"},{"id":"node-2702089063","lat":25.125685,"lon":121.534197,"name":"天和里","decorType":"bus_stop"},{"id":"node-2702089948","lat":25.123745,"lon":121.53323,"name":"天母圖書館","decorType":"bus_stop"},{"id":"node-2702091733","lat":25.121457,"lon":121.533014,"name":"東和公園","decorType":"bus_stop"},{"id":"node-2702095515","lat":25.119827,"lon":121.533379,"name":"天和公園","decorType":"bus_stop"},{"id":"node-2702144854","lat":25.119275,"lon":121.530796,"name":"天母廣場","decorType":"bus_stop"},{"id":"node-2702144855","lat":25.119214,"lon":121.530536,"name":"天母廣場","decorType":"bus_stop"},{"id":"node-2702145604","lat":25.121297,"lon":121.531567,"name":"天母新村","decorType":"bus_stop"},{"id":"node-2702145605","lat":25.121271,"lon":121.531344,"name":"天母新村","decorType":"bus_stop"},{"id":"node-2702146323","lat":25.124356,"lon":121.53274,"name":"天母","decorType":"bus_stop"},{"id":"node-2702146324","lat":25.124376,"lon":121.532522,"name":"天母","decorType":"bus_stop"},{"id":"node-2702147441","lat":25.122657,"lon":121.531817,"name":"農訓協會","decorType":"bus_stop"},{"id":"node-2705368409","lat":25.120527,"lon":121.522807,"name":"榮光新村(榮總東院)","decorType":"bus_stop"},{"id":"node-2705368410","lat":25.120702,"lon":121.522734,"name":"榮光新村(榮總東院)","decorType":"bus_stop"},{"id":"node-2705372588","lat":25.122226,"lon":121.523994,"name":"永欣里","decorType":"bus_stop"},{"id":"node-2705372589","lat":25.121844,"lon":121.523725,"name":"永欣里","decorType":"bus_stop"},{"id":"node-2705382903","lat":25.122889,"lon":121.526552,"name":"天北站","decorType":"bus_stop"},{"id":"node-2705382904","lat":25.122936,"lon":121.52664,"name":"天北站","decorType":"bus_stop"},{"id":"node-2705382905","lat":25.121074,"lon":121.526587,"name":"天玉里","decorType":"bus_stop"},{"id":"node-2705382906","lat":25.119089,"lon":121.526194,"name":"天母國小","decorType":"bus_stop"},{"id":"node-2705382907","lat":25.118952,"lon":121.526308,"name":"天母國小","decorType":"bus_stop"},{"id":"node-2713490191","lat":25.130445,"lon":121.5281,"name":"行義路","decorType":"bus_stop"},{"id":"node-2713490192","lat":25.130646,"lon":121.527943,"name":"行義路","decorType":"bus_stop"},{"id":"node-2714941493","lat":25.117927,"lon":121.522274,"name":"振興醫院","decorType":"bus_stop"},{"id":"node-2918517186","lat":25.118133,"lon":121.526218,"name":"北平金廚新蔬食料理","decorType":"restaurant"},{"id":"node-3369451080","lat":25.117336,"lon":121.532277,"name":"阿財水餃","decorType":"restaurant"},{"id":"node-3661063905","lat":25.117411,"lon":121.52241,"name":"蘇杭餐廳","decorType":"restaurant"},{"id":"node-3661063906","lat":25.117317,"lon":121.52242,"name":"圓圓方方咖啡","decorType":"cafe"},{"id":"node-3661063907","lat":25.11743,"lon":121.522496,"name":"振興醫院圖書館","decorType":"library"},{"id":"node-3661070225","lat":25.117699,"lon":121.522407,"name":"星巴克","decorType":"cafe"},{"id":"node-3670571766","lat":25.118458,"lon":121.524275,"name":"五花馬","decorType":"restaurant"},{"id":"node-3757986701","lat":25.118692,"lon":121.525933,"name":"宋江餡餅粥","decorType":"restaurant"},{"id":"node-3851686356","lat":25.117986,"lon":121.522266,"name":"7-Eleven","decorType":"convenience"},{"id":"node-3851686561","lat":25.130027,"lon":121.528207,"name":"萊爾富","decorType":"convenience"},{"id":"node-3908775426","lat":25.119271,"lon":121.527753,"name":"天母書廬","decorType":"library"},{"id":"node-3908779057","lat":25.118343,"lon":121.525883,"name":"全家便利商店","decorType":"convenience"},{"id":"node-3908779058","lat":25.118602,"lon":121.527428,"name":"7-Eleven","decorType":"convenience"},{"id":"node-3926526891","lat":25.123467,"lon":121.533156,"name":"天母圖書館","decorType":"library"},{"id":"node-4018210289","lat":25.125889,"lon":121.532995,"name":"天母禮拜堂","decorType":"shrine"},{"id":"node-4118984889","lat":25.123242,"lon":121.53257,"name":"勝口味大腸蚵仔麵線","decorType":"restaurant"},{"id":"node-4244705725","lat":25.127903,"lon":121.531215,"name":"未命名郵局","decorType":"post_office"},{"id":"node-4244705837","lat":25.124269,"lon":121.526347,"name":"全聯福利中心","decorType":"supermarket"},{"id":"node-4307554237","lat":25.120859,"lon":121.522887,"name":"未命名郵局","decorType":"post_office"},{"id":"node-4510193157","lat":25.119943,"lon":121.52925,"name":"茉莉漢堡","decorType":"burger"},{"id":"node-4516500729","lat":25.124682,"lon":121.533017,"name":"萊爾富","decorType":"convenience"},{"id":"node-4516500732","lat":25.118535,"lon":121.528883,"name":"麥當勞","decorType":"burger"},{"id":"node-4778898022","lat":25.124929,"lon":121.532793,"name":"天母圓環","decorType":"bus_stop"},{"id":"node-4784226433","lat":25.118253,"lon":121.534498,"name":"星巴克","decorType":"cafe"},{"id":"node-4822637821","lat":25.117789,"lon":121.533141,"name":"番紅花印度美饌","decorType":"restaurant"},{"id":"node-4836653407","lat":25.128033,"lon":121.528981,"name":"明山宮","decorType":"shrine"},{"id":"node-4934656532","lat":25.124842,"lon":121.532513,"name":"光華巴士天西調度站","decorType":"bus_stop"},{"id":"node-5110501363","lat":25.12803,"lon":121.529036,"name":"明山宮","decorType":"shrine"},{"id":"node-5110501365","lat":25.122727,"lon":121.526804,"name":"OK超商","decorType":"convenience"},{"id":"node-5110501366","lat":25.11815,"lon":121.525914,"name":"石二鍋","decorType":"restaurant"},{"id":"node-5172407622","lat":25.118328,"lon":121.526192,"name":"Mr. Brown","decorType":"cafe"},{"id":"node-5172437521","lat":25.118998,"lon":121.525067,"name":"味覺本家","decorType":"restaurant"},{"id":"node-5172444921","lat":25.11871,"lon":121.525998,"name":"全統西點麵包","decorType":"bakery"},{"id":"node-5174028733","lat":25.118518,"lon":121.528784,"name":"Dayunds Drink shop","decorType":"cafe"},{"id":"node-5185289722","lat":25.119421,"lon":121.526233,"name":"OK超商","decorType":"convenience"},{"id":"node-5185293321","lat":25.119074,"lon":121.526123,"name":"味覺義廚","decorType":"restaurant"},{"id":"node-5185299921","lat":25.119111,"lon":121.526142,"name":"屈臣氏","decorType":"pharmacy"},{"id":"node-5185300621","lat":25.119219,"lon":121.52618,"name":"倍適得電器","decorType":"electronics"},{"id":"node-5185300623","lat":25.119352,"lon":121.526205,"name":"小菠蘿複合式餐飲","decorType":"restaurant"},{"id":"node-5185305522","lat":25.11959,"lon":121.526267,"name":"鳳城燒臘粵菜","decorType":"restaurant"},{"id":"node-5185316221","lat":25.119487,"lon":121.526243,"name":"全國電子","decorType":"electronics"},{"id":"node-5185326021","lat":25.119724,"lon":121.526307,"name":"天晴麵館","decorType":"restaurant"},{"id":"node-5185337421","lat":25.120066,"lon":121.526346,"name":"燦坤","decorType":"electronics"},{"id":"node-5185337423","lat":25.120309,"lon":121.52641,"name":"澐岡書店","decorType":"library"},{"id":"node-5189696121","lat":25.118045,"lon":121.526183,"name":"君悅排骨","decorType":"restaurant"},{"id":"node-5189696122","lat":25.119013,"lon":121.526376,"name":"京京健康早餐店","decorType":"burger"},{"id":"node-5189706422","lat":25.118876,"lon":121.526341,"name":"李堯棉衣店","decorType":"clothing"},{"id":"node-5189706723","lat":25.118914,"lon":121.526353,"name":"50嵐","decorType":"cafe"},{"id":"node-5189722421","lat":25.119372,"lon":121.526216,"name":"育姿美容","decorType":"cosmetics"},{"id":"node-5189722422","lat":25.119338,"lon":121.526422,"name":"Amy sun","decorType":"clothing"},{"id":"node-5189723723","lat":25.119384,"lon":121.526424,"name":"古早味排骨酥麵","decorType":"restaurant"},{"id":"node-5189728523","lat":25.119792,"lon":121.52655,"name":"胖阿姨廣東粥","decorType":"restaurant"},{"id":"node-5189728524","lat":25.120048,"lon":121.526618,"name":"藍白小鎮","decorType":"cafe"},{"id":"node-5189728526","lat":25.120014,"lon":121.526667,"name":"一品山西刀削麵","decorType":"restaurant"},{"id":"node-5189737222","lat":25.119977,"lon":121.526823,"name":"大橋頭筒仔米糕","decorType":"restaurant"},{"id":"node-5189737321","lat":25.1196,"lon":121.526511,"name":"GTZ fashion outlet","decorType":"clothing"},{"id":"node-5189737323","lat":25.119781,"lon":121.526762,"name":"潘蜜拉義麵舖","decorType":"restaurant"},{"id":"node-5189737324","lat":25.120333,"lon":121.526646,"name":"天棧鍋物","decorType":"restaurant"},{"id":"node-5189741821","lat":25.11985,"lon":121.526551,"name":"cafe in","decorType":"cafe"},{"id":"node-5189745724","lat":25.119726,"lon":121.527027,"name":"南美咖啡","decorType":"cafe"},{"id":"node-5189756722","lat":25.119757,"lon":121.526878,"name":"7-Eleven","decorType":"convenience"},{"id":"node-5189756726","lat":25.120579,"lon":121.526698,"name":"蒜香廚房","decorType":"restaurant"},{"id":"node-5189758921","lat":25.119744,"lon":121.526969,"name":"費思特","decorType":"cosmetics"},{"id":"node-5189781421","lat":25.120506,"lon":121.526702,"name":"香港茶餐廳","decorType":"restaurant"},{"id":"node-5189793321","lat":25.120844,"lon":121.526738,"name":"happy hair","decorType":"hair_salon"},{"id":"node-5189796421","lat":25.120966,"lon":121.526789,"name":"美麗達人","decorType":"cosmetics"},{"id":"node-5189799223","lat":25.11931,"lon":121.527349,"name":"早餐優選","decorType":"burger"},{"id":"node-5189801222","lat":25.121645,"lon":121.526633,"name":"SNAIL蝸牛歐義料理","decorType":"restaurant"},{"id":"node-5189801223","lat":25.119535,"lon":121.527371,"name":"天母尚井","decorType":"restaurant"},{"id":"node-5189810121","lat":25.119608,"lon":121.527273,"name":"我家牛排","decorType":"restaurant"},{"id":"node-5189814421","lat":25.119432,"lon":121.527361,"name":"今欣藥局","decorType":"pharmacy"},{"id":"node-5189814422","lat":25.119298,"lon":121.527482,"name":"溫州大餛飩","decorType":"restaurant"},{"id":"node-5189814423","lat":25.119062,"lon":121.52749,"name":"竹之屋","decorType":"restaurant"},{"id":"node-5189814621","lat":25.119517,"lon":121.527398,"name":"閱喜現代古美術","decorType":"art_gallery"},{"id":"node-5189823021","lat":25.119014,"lon":121.527495,"name":"嘉美乾洗店","decorType":"laundry"},{"id":"node-5189829121","lat":25.119138,"lon":121.527504,"name":"麥香美早餐店","decorType":"burger"},{"id":"node-5189829221","lat":25.119207,"lon":121.527519,"name":"如觀顯密佛學中心","decorType":"shrine"},{"id":"node-5189832621","lat":25.118885,"lon":121.527219,"name":"八藤家","decorType":"restaurant"},{"id":"node-5189833121","lat":25.11869,"lon":121.527492,"name":"四一町鍋物","decorType":"restaurant"},{"id":"node-5189837321","lat":25.118825,"lon":121.527474,"name":"江家牛肉麵","decorType":"restaurant"},{"id":"node-5197890324","lat":25.118526,"lon":121.528331,"name":"Smile","decorType":"clothing"},{"id":"node-5197890423","lat":25.118519,"lon":121.528925,"name":"大苑子","decorType":"cafe"},{"id":"node-5197897042","lat":25.118519,"lon":121.528723,"name":"Cross's Shoes","decorType":"clothing"},{"id":"node-5197926723","lat":25.118563,"lon":121.528894,"name":"澠井川 日氏串燒居酒屋","decorType":"restaurant"},{"id":"node-5197947430","lat":25.118529,"lon":121.529437,"name":"東海萊姆園organic lime","decorType":"supermarket"},{"id":"node-5197948121","lat":25.118578,"lon":121.528968,"name":"smile","decorType":"clothing"},{"id":"node-5197948124","lat":25.118274,"lon":121.528988,"name":"全聯福利中心","decorType":"supermarket"},{"id":"node-5197961927","lat":25.119373,"lon":121.529855,"name":"Jason's Market (Front)","decorType":"supermarket"},{"id":"node-5197970921","lat":25.118499,"lon":121.529365,"name":"Jason's market place","decorType":"supermarket"},{"id":"node-5197970924","lat":25.118581,"lon":121.529448,"name":"Comebuy","decorType":"cafe"},{"id":"node-5198011427","lat":25.119248,"lon":121.528729,"name":"OD Flower and Food","decorType":"cafe"},{"id":"node-5205427527","lat":25.118326,"lon":121.526286,"name":"全國健康素食精緻全自助餐廳","decorType":"restaurant"},{"id":"node-5205439621","lat":25.118334,"lon":121.526333,"name":"CHER'S boutique","decorType":"clothing"},{"id":"node-5205447521","lat":25.118335,"lon":121.526636,"name":"聖德科斯生機食品","decorType":"supermarket"},{"id":"node-5205450121","lat":25.11832,"lon":121.526612,"name":"美衣日韓精品","decorType":"clothing"},{"id":"node-5205450122","lat":25.118284,"lon":121.528198,"name":"miss sixty","decorType":"clothing"},{"id":"node-5205450123","lat":25.118527,"lon":121.527847,"name":"LiLO","decorType":"clothing"},{"id":"node-5205454026","lat":25.118518,"lon":121.528147,"name":"Espace衣飾空間","decorType":"clothing"},{"id":"node-5205454028","lat":25.118512,"lon":121.528222,"name":"Vivo","decorType":"cosmetics"},{"id":"node-5205454122","lat":25.118296,"lon":121.527567,"name":"沙克思襪類專賣店","decorType":"clothing"},{"id":"node-5205457022","lat":25.118297,"lon":121.527661,"name":"芙洛坊法國美容美體","decorType":"cosmetics"},{"id":"node-5205457027","lat":25.11852,"lon":121.527893,"name":"Phiten 銀谷","decorType":"clothing"},{"id":"node-5205457028","lat":25.118522,"lon":121.527871,"name":"溫故知新","decorType":"clothing"},{"id":"node-5205458421","lat":25.118131,"lon":121.527309,"name":"紫屋之戀","decorType":"clothing"},{"id":"node-5205477526","lat":25.118576,"lon":121.526578,"name":"王朝滷味","decorType":"restaurant"},{"id":"node-5205479223","lat":25.118537,"lon":121.527119,"name":"西雅圖極品咖啡","decorType":"cafe"},{"id":"node-5205490723","lat":25.118536,"lon":121.527217,"name":"好鍋","decorType":"restaurant"},{"id":"node-5205492922","lat":25.11851,"lon":121.527512,"name":"NET","decorType":"clothing"},{"id":"node-5205492927","lat":25.118556,"lon":121.526614,"name":"百鮮蔬果樂園","decorType":"supermarket"},{"id":"node-5205494422","lat":25.118549,"lon":121.526985,"name":"葳訊數位生活館","decorType":"electronics"},{"id":"node-5205498824","lat":25.118528,"lon":121.526658,"name":"棠葳","decorType":"clothing"},{"id":"node-5205500221","lat":25.118539,"lon":121.52688,"name":"依兒服飾","decorType":"clothing"},{"id":"node-5205509022","lat":25.118336,"lon":121.525725,"name":"義美食品","decorType":"convenience"},{"id":"node-5205509221","lat":25.118633,"lon":121.526495,"name":"ORDITO","decorType":"clothing"},{"id":"node-5205509224","lat":25.118564,"lon":121.525414,"name":"媽咪咖啡館","decorType":"cafe"},{"id":"node-5205520723","lat":25.11857,"lon":121.525202,"name":"紅葉蛋糕","decorType":"bakery"},{"id":"node-5205526422","lat":25.118561,"lon":121.52555,"name":"新豐水果","decorType":"supermarket"},{"id":"node-5205526423","lat":25.118327,"lon":121.525473,"name":"kibo Hair Salon","decorType":"hair_salon"},{"id":"node-5205526424","lat":25.118569,"lon":121.525271,"name":"Motorola","decorType":"electronics"},{"id":"node-5205539021","lat":25.118344,"lon":121.525617,"name":"清心福全","decorType":"cafe"},{"id":"node-5205539421","lat":25.118359,"lon":121.525646,"name":"八方雲集","decorType":"burger"},{"id":"node-5205539424","lat":25.118376,"lon":121.525083,"name":"小豪包膜","decorType":"electronics"},{"id":"node-5205543122","lat":25.118394,"lon":121.524605,"name":"豐閣精品服飾","decorType":"clothing"},{"id":"node-5205558321","lat":25.118581,"lon":121.525161,"name":"Birkenstock","decorType":"clothing"},{"id":"node-5205558622","lat":25.118574,"lon":121.524921,"name":"麗嬰房","decorType":"clothing"},{"id":"node-5205559422","lat":25.118585,"lon":121.524837,"name":"黑雨名店","decorType":"clothing"},{"id":"node-5205559621","lat":25.118576,"lon":121.5248,"name":"可邁健康鞋","decorType":"clothing"},{"id":"node-5205915222","lat":25.118518,"lon":121.528604,"name":"Ita","decorType":"clothing"},{"id":"node-5205926035","lat":25.118295,"lon":121.528926,"name":"青柳家","decorType":"restaurant"},{"id":"node-5206048123","lat":25.118651,"lon":121.529496,"name":"Present","decorType":"clothing"},{"id":"node-5206079324","lat":25.11877,"lon":121.529532,"name":"依錸童裝精品屋","decorType":"clothing"},{"id":"node-5206109621","lat":25.11882,"lon":121.529504,"name":"虹屋","decorType":"clothing"},{"id":"node-5206127522","lat":25.118742,"lon":121.529544,"name":"Rose House 薔舍","decorType":"clothing"},{"id":"node-5206158121","lat":25.118906,"lon":121.529561,"name":"Belle","decorType":"clothing"},{"id":"node-5206173021","lat":25.11892,"lon":121.529581,"name":"Mini Cut 迷你剪","decorType":"hair_salon"},{"id":"node-5206180222","lat":25.119075,"lon":121.529616,"name":"切仔麵達人","decorType":"restaurant"},{"id":"node-5206205221","lat":25.11962,"lon":121.529366,"name":"天利乾洗店","decorType":"laundry"},{"id":"node-5206247421","lat":25.118713,"lon":121.528424,"name":"薩莉亞義式料理餐廳","decorType":"restaurant"},{"id":"node-5211903228","lat":25.118724,"lon":121.529492,"name":"利豐本鋪","decorType":"restaurant"},{"id":"node-5211904321","lat":25.118303,"lon":121.528345,"name":"Joan The Shop","decorType":"clothing"},{"id":"node-5211934730","lat":25.118583,"lon":121.529333,"name":"修改衣服 歐洲，服飾精品","decorType":"clothing"},{"id":"node-5211934825","lat":25.118741,"lon":121.529523,"name":"Package Outlet","decorType":"clothing"},{"id":"node-5211941621","lat":25.118713,"lon":121.528942,"name":"曼都髮型","decorType":"hair_salon"},{"id":"node-5211945230","lat":25.118538,"lon":121.529338,"name":"お食事鮮","decorType":"restaurant"},{"id":"node-5211972140","lat":25.118924,"lon":121.529648,"name":"張家飯小館","decorType":"restaurant"},{"id":"node-5212001322","lat":25.118711,"lon":121.529529,"name":"麵麵","decorType":"restaurant"},{"id":"node-5212001324","lat":25.118536,"lon":121.52932,"name":"Collection","decorType":"clothing"},{"id":"node-5212001525","lat":25.119045,"lon":121.529651,"name":"Just cut 68剪髮鋪","decorType":"hair_salon"},{"id":"node-5212043223","lat":25.118791,"lon":121.529584,"name":"劉媽媽抄手","decorType":"restaurant"},{"id":"node-5212075125","lat":25.118812,"lon":121.529584,"name":"金石堂","decorType":"library"},{"id":"node-5212168622","lat":25.119124,"lon":121.528835,"name":"七味屋","decorType":"restaurant"},{"id":"node-5263221221","lat":25.124565,"lon":121.53262,"name":"Zabu","decorType":"cafe"},{"id":"node-5263221421","lat":25.124674,"lon":121.532553,"name":"八方雲集","decorType":"burger"},{"id":"node-5363411158","lat":25.123936,"lon":121.533099,"name":"全聯福利中心","decorType":"supermarket"},{"id":"node-5363425592","lat":25.125734,"lon":121.534673,"name":"7-Eleven","decorType":"convenience"},{"id":"node-5366399529","lat":25.122356,"lon":121.526712,"name":"Wood Pot","decorType":"restaurant"},{"id":"node-5467695066","lat":25.118611,"lon":121.531031,"name":"7-Eleven","decorType":"convenience"},{"id":"node-5891986485","lat":25.116917,"lon":121.531864,"name":"Louisa café","decorType":"cafe"},{"id":"node-5940233906","lat":25.123084,"lon":121.526704,"name":"未命名麵包店","decorType":"bakery"},{"id":"node-6026828411","lat":25.128533,"lon":121.530802,"name":"全家便利商店","decorType":"convenience"},{"id":"node-6191479260","lat":25.129408,"lon":121.527841,"name":"察爾斯廚房","decorType":"restaurant"},{"id":"node-6726425485","lat":25.123162,"lon":121.532331,"name":"PS Bubu","decorType":"cafe"},{"id":"node-6961391729","lat":25.120142,"lon":121.531469,"name":"BANG","decorType":"clothing"},{"id":"node-6961391730","lat":25.118661,"lon":121.528255,"name":"餃。麵","decorType":"restaurant"},{"id":"node-7175334766","lat":25.122842,"lon":121.524439,"name":"火鍋世家","decorType":"restaurant"},{"id":"node-7175334772","lat":25.122912,"lon":121.526742,"name":"黃牛屋牛肉麵館","decorType":"restaurant"},{"id":"node-7175344496","lat":25.118911,"lon":121.523421,"name":"瓦城泰國料理","decorType":"restaurant"},{"id":"node-7175344539","lat":25.12264,"lon":121.524628,"name":"聚餐光雕廚房","decorType":"restaurant"},{"id":"node-7175344572","lat":25.118909,"lon":121.523539,"name":"拿坡里披薩","decorType":"restaurant"},{"id":"node-7175344578","lat":25.122374,"lon":121.524293,"name":"332肉羹","decorType":"restaurant"},{"id":"node-7175344615","lat":25.122705,"lon":121.524364,"name":"麥味登","decorType":"restaurant"},{"id":"node-7175344622","lat":25.123387,"lon":121.525029,"name":"佶園排骨飯","decorType":"restaurant"},{"id":"node-7175344652","lat":25.122592,"lon":121.524524,"name":"大玩偶美式餅脆炸雞","decorType":"restaurant"},{"id":"node-7175344673","lat":25.122419,"lon":121.526636,"name":"Wood Pot","decorType":"restaurant"},{"id":"node-7175344698","lat":25.123431,"lon":121.525413,"name":"磺溪小鎮","decorType":"restaurant"},{"id":"node-7175344703","lat":25.122274,"lon":121.526658,"name":"天鍋宴天母店","decorType":"restaurant"},{"id":"node-7175344721","lat":25.118599,"lon":121.522296,"name":"miso串燒居酒屋","decorType":"restaurant"},{"id":"node-7175344727","lat":25.118817,"lon":121.523717,"name":"莎諾西餐","decorType":"restaurant"},{"id":"node-7175344767","lat":25.122934,"lon":121.524582,"name":"弘爺漢堡","decorType":"restaurant"},{"id":"node-7175344775","lat":25.121608,"lon":121.526691,"name":"Snail蝸牛餐廳","decorType":"restaurant"},{"id":"node-7175344798","lat":25.12209,"lon":121.52415,"name":"找餐 中西式早午餐","decorType":"restaurant"},{"id":"node-7213752461","lat":25.117796,"lon":121.534047,"name":"瓦城","decorType":"restaurant"},{"id":"node-7216240733","lat":25.11726,"lon":121.533931,"name":"大心","decorType":"restaurant"},{"id":"node-7614240685","lat":25.119121,"lon":121.529548,"name":"星巴克","decorType":"cafe"},{"id":"node-7747652921","lat":25.126094,"lon":121.528036,"name":"劉家早堂","decorType":"restaurant"},{"id":"node-7747652925","lat":25.121323,"lon":121.531778,"name":"彥君小料理","decorType":"restaurant"},{"id":"node-7747652931","lat":25.126124,"lon":121.528074,"name":"阿伯臭豆腐/豆花","decorType":"restaurant"},{"id":"node-7747652939","lat":25.122547,"lon":121.532058,"name":"七海食堂","decorType":"restaurant"},{"id":"node-7747652946","lat":25.125996,"lon":121.527852,"name":"臭豆腐 豆花 餐車","decorType":"restaurant"},{"id":"node-7747652949","lat":25.122779,"lon":121.532171,"name":"維尼恩早午餐","decorType":"restaurant"},{"id":"node-7747652952","lat":25.121657,"lon":121.531771,"name":"Hello!Jazz! 料理食驗室","decorType":"restaurant"},{"id":"node-7747683202","lat":25.124267,"lon":121.53312,"name":"阿甘小館","decorType":"restaurant"},{"id":"node-7747683203","lat":25.124453,"lon":121.532846,"name":"日久阿囉哈漢堡","decorType":"restaurant"},{"id":"node-7747683204","lat":25.120168,"lon":121.531481,"name":"拓樸本然","decorType":"restaurant"},{"id":"node-7747683205","lat":25.124149,"lon":121.532981,"name":"群鹽酥雞","decorType":"restaurant"},{"id":"node-7747683207","lat":25.120643,"lon":121.531042,"name":"奇諾義大利披薩屋","decorType":"restaurant"},{"id":"node-7747683212","lat":25.130311,"lon":121.529244,"name":"sweet kingdom","decorType":"restaurant"},{"id":"node-7747683215","lat":25.120134,"lon":121.531198,"name":"亨寶咖啡","decorType":"cafe"},{"id":"node-7747683220","lat":25.120504,"lon":121.531363,"name":"花阿嬤 素食","decorType":"restaurant"},{"id":"node-7747683224","lat":25.12477,"lon":121.532506,"name":"勝口味大腸蚵仔麵線","decorType":"restaurant"},{"id":"node-7747683232","lat":25.120451,"lon":121.530937,"name":"興蓬萊台菜海鮮餐廳","decorType":"restaurant"},{"id":"node-7747683241","lat":25.124109,"lon":121.532929,"name":"快手滷味","decorType":"restaurant"},{"id":"node-7747683244","lat":25.123127,"lon":121.532347,"name":"金屋藏車食堂","decorType":"restaurant"},{"id":"node-7749822704","lat":25.120684,"lon":121.531424,"name":"五二Bar&Bistro 餐酒館","decorType":"restaurant"},{"id":"node-7749822713","lat":25.120054,"lon":121.531182,"name":"Burger O’clock","decorType":"restaurant"},{"id":"node-7749822737","lat":25.122318,"lon":121.528949,"name":"大頭蒜味鹹酥雞","decorType":"restaurant"},{"id":"node-7756243462","lat":25.117323,"lon":121.531855,"name":"老地方牛肉麵","decorType":"restaurant"},{"id":"node-8049734039","lat":25.119842,"lon":121.530456,"name":"Auntie's Barber Shop","decorType":"hair_salon"},{"id":"node-8067306984","lat":25.117575,"lon":121.533355,"name":"Ramen Nagi","decorType":"restaurant"},{"id":"node-8118095196","lat":25.118835,"lon":121.532392,"name":"7-Eleven","decorType":"convenience"},{"id":"node-8118095197","lat":25.123819,"lon":121.532822,"name":"7-Eleven","decorType":"convenience"},{"id":"node-8118095198","lat":25.123164,"lon":121.531474,"name":"7-Eleven","decorType":"convenience"},{"id":"node-8118095199","lat":25.122984,"lon":121.525011,"name":"7-Eleven","decorType":"convenience"},{"id":"node-8118095200","lat":25.121255,"lon":121.522887,"name":"7-Eleven","decorType":"convenience"},{"id":"node-8118095202","lat":25.117388,"lon":121.522543,"name":"7-Eleven","decorType":"convenience"},{"id":"node-8374865972","lat":25.11782,"lon":121.533876,"name":"iStore","decorType":"electronics"},{"id":"node-8432400022","lat":25.121666,"lon":121.533227,"name":"東和公園","decorType":"bus_stop"},{"id":"node-8432400485","lat":25.12558,"lon":121.53427,"name":"天和里","decorType":"bus_stop"},{"id":"node-8432400486","lat":25.12754,"lon":121.53368,"name":"天母古道登山口","decorType":"bus_stop"},{"id":"node-8432400510","lat":25.129093,"lon":121.527864,"name":"明山宮一","decorType":"bus_stop"},{"id":"node-8432400562","lat":25.126156,"lon":121.534967,"name":"天母里","decorType":"bus_stop"},{"id":"node-8432400571","lat":25.123171,"lon":121.529167,"name":"合庫訓練中心","decorType":"bus_stop"},{"id":"node-8432400572","lat":25.124606,"lon":121.530327,"name":"天母公園","decorType":"bus_stop"},{"id":"node-8432400573","lat":25.125651,"lon":121.531411,"name":"天母圓環","decorType":"bus_stop"},{"id":"node-9391261126","lat":25.117323,"lon":121.532625,"name":"蝦皮店到店","decorType":"convenience"},{"id":"node-9588074530","lat":25.120371,"lon":121.526348,"name":"蝦皮店到店","decorType":"convenience"},{"id":"node-9630668950","lat":25.123352,"lon":121.52496,"name":"蝦皮店到店","decorType":"convenience"},{"id":"node-9742799918","lat":25.123593,"lon":121.532448,"name":"蝦皮店到店","decorType":"convenience"},{"id":"node-10053402381","lat":25.129642,"lon":121.528324,"name":"美廉社","decorType":"supermarket"},{"id":"node-10255129310","lat":25.119631,"lon":121.530622,"name":"Supranormal Bakery Cafe","decorType":"cafe"},{"id":"node-11307888019","lat":25.123166,"lon":121.531959,"name":"路易莎咖啡","decorType":"cafe"},{"id":"node-11361163416","lat":25.124085,"lon":121.532633,"name":"Roi du pain","decorType":"bakery"},{"id":"node-11361169584","lat":25.123952,"lon":121.532594,"name":"7-Eleven","decorType":"convenience"},{"id":"node-12797484701","lat":25.119197,"lon":121.529075,"name":"四方居","decorType":"restaurant"},{"id":"node-13413775743","lat":25.121126,"lon":121.529124,"name":"萊爾富","decorType":"convenience"},{"id":"way-35550291","lat":25.123137,"lon":121.524359,"name":"磺溪","decorType":"waterside"},{"id":"way-136214400","lat":25.131515,"lon":121.533824,"name":"未命名水邊","decorType":"waterside"},{"id":"way-258262896","lat":25.11775,"lon":121.533969,"name":"新光三越","decorType":"cosmetics"},{"id":"way-258262897","lat":25.117187,"lon":121.533899,"name":"新光三越","decorType":"cosmetics"},{"id":"way-258410880","lat":25.124252,"lon":121.532293,"name":"Mother of God","decorType":"shrine"},{"id":"way-258410970","lat":25.118627,"lon":121.526545,"name":"Red Apple","decorType":"cosmetics"},{"id":"way-258626708","lat":25.120331,"lon":121.534129,"name":"天和公園","decorType":"park"},{"id":"way-259714747","lat":25.126331,"lon":121.531022,"name":"天母公園","decorType":"park"},{"id":"way-259911543","lat":25.118646,"lon":121.534626,"name":"天和一號公園","decorType":"park"},{"id":"way-361491769","lat":25.117728,"lon":121.523073,"name":"振興公園","decorType":"park"},{"id":"way-372253486","lat":25.118498,"lon":121.523956,"name":"同行橋","decorType":"bridge"},{"id":"way-372253490","lat":25.118589,"lon":121.526267,"name":"未命名公園","decorType":"park"},{"id":"way-372253491","lat":25.118599,"lon":121.52607,"name":"未命名公園","decorType":"park"},{"id":"way-372253585","lat":25.118646,"lon":121.524044,"name":"磺溪橋","decorType":"bridge"},{"id":"way-372253586","lat":25.118585,"lon":121.52401,"name":"未命名橋樑","decorType":"bridge"},{"id":"way-372270693","lat":25.123368,"lon":121.526398,"name":"永和橋","decorType":"bridge"},{"id":"way-372270696","lat":25.128002,"lon":121.531543,"name":"堉琪橋","decorType":"bridge"},{"id":"way-375776545","lat":25.122107,"lon":121.52523,"name":"未命名公園","decorType":"park"},{"id":"way-375776566","lat":25.12297,"lon":121.522689,"name":"未命名橋樑","decorType":"bridge"},{"id":"way-375776567","lat":25.123451,"lon":121.524148,"name":"未命名橋樑","decorType":"bridge"},{"id":"way-375776575","lat":25.12567,"lon":121.524784,"name":"行義公園","decorType":"park"},{"id":"way-375776576","lat":25.123294,"lon":121.526031,"name":"櫻花崗公園","decorType":"park"},{"id":"way-375776579","lat":25.123814,"lon":121.526042,"name":"未命名公園","decorType":"park"},{"id":"way-375776580","lat":25.123842,"lon":121.525801,"name":"未命名公園","decorType":"park"},{"id":"way-375788646","lat":25.123396,"lon":121.526468,"name":"未命名橋樑","decorType":"bridge"},{"id":"way-375788648","lat":25.123784,"lon":121.526603,"name":"永欣綠地","decorType":"park"},{"id":"way-375788662","lat":25.126068,"lon":121.529939,"name":"未命名橋樑","decorType":"bridge"},{"id":"way-375788666","lat":25.125193,"lon":121.529491,"name":"同德公園","decorType":"park"},{"id":"way-375788675","lat":25.126033,"lon":121.526565,"name":"未命名橋樑","decorType":"bridge"},{"id":"way-375788687","lat":25.131261,"lon":121.527731,"name":"行義路155巷","decorType":"bridge"},{"id":"way-375861980","lat":25.125949,"lon":121.523536,"name":"未命名橋樑","decorType":"bridge"},{"id":"way-375861990","lat":25.123113,"lon":121.52619,"name":"未命名水邊","decorType":"waterside"},{"id":"way-377209858","lat":25.125985,"lon":121.533376,"name":"蘭雅溪","decorType":"waterside"},{"id":"way-389489550","lat":25.12121,"lon":121.534672,"name":"番井池","decorType":"waterside"},{"id":"way-389489551","lat":25.120932,"lon":121.534572,"name":"魚池","decorType":"waterside"},{"id":"way-389489552","lat":25.120704,"lon":121.534457,"name":"魚池","decorType":"waterside"},{"id":"way-389489558","lat":25.120085,"lon":121.533949,"name":"兒童遊樂區","decorType":"park"},{"id":"way-389489562","lat":25.121392,"lon":121.534192,"name":"蘭雅溪","decorType":"waterside"},{"id":"way-389528590","lat":25.117952,"lon":121.530717,"name":"三玉宮","decorType":"shrine"},{"id":"way-389628317","lat":25.117106,"lon":121.531581,"name":"天福2號公園","decorType":"park"},{"id":"way-509399453","lat":25.129441,"lon":121.527592,"name":"未命名橋樑","decorType":"bridge"},{"id":"way-627045533","lat":25.123316,"lon":121.52687,"name":"未命名神社","decorType":"shrine"},{"id":"way-627260667","lat":25.123418,"lon":121.526118,"name":"未命名公園","decorType":"park"},{"id":"way-627260669","lat":25.123618,"lon":121.525793,"name":"未命名服飾店","decorType":"clothing"},{"id":"way-627657205","lat":25.119419,"lon":121.524854,"name":"天美綠地","decorType":"park"},{"id":"way-627834743","lat":25.119032,"lon":121.525511,"name":"未命名餐廳","decorType":"restaurant"},{"id":"way-728834357","lat":25.12404,"lon":121.525848,"name":"福德廟","decorType":"shrine"},{"id":"way-797027291","lat":25.121938,"lon":121.525128,"name":"未命名公園","decorType":"park"},{"id":"way-797027292","lat":25.118703,"lon":121.524076,"name":"未命名橋樑","decorType":"bridge"},{"id":"way-921615926","lat":25.122941,"lon":121.533434,"name":"未命名橋樑","decorType":"bridge"},{"id":"way-921615929","lat":25.122155,"lon":121.533797,"name":"未命名橋樑","decorType":"bridge"},{"id":"way-961267374","lat":25.124183,"lon":121.52378,"name":"未命名橋樑","decorType":"bridge"},{"id":"way-961270331","lat":25.121521,"lon":121.523795,"name":"未命名體育館","decorType":"stadium"},{"id":"way-1119416244","lat":25.123364,"lon":121.52639,"name":"永和橋","decorType":"bridge"},{"id":"way-1134414807","lat":25.120118,"lon":121.52533,"name":"未命名公園","decorType":"park"},{"id":"way-1177994468","lat":25.128396,"lon":121.534068,"name":"未命名森林","decorType":"forest"},{"id":"way-1348167081","lat":25.127481,"lon":121.522998,"name":"未命名水邊","decorType":"waterside"},{"id":"way-1392173457","lat":25.130458,"lon":121.525851,"name":"未命名水邊","decorType":"waterside"},{"id":"way-1420443912","lat":25.131934,"lon":121.527449,"name":"未命名森林","decorType":"forest"},{"id":"way-1420443914","lat":25.129371,"lon":121.526642,"name":"未命名森林","decorType":"forest"},{"id":"way-1420661241","lat":25.13223,"lon":121.528242,"name":"未命名森林","decorType":"forest"}]}