{"bbox":{"south":25.1167625,"north":25.13236875,"west":121.52215625,"east":121.53518749999999},"pois":[{"id":"node-2459681634","lat":25.1182315,"lon":121.531049,"name":"三玉宮","decorType":"bus_stop"},{"id":"node-2459681636","lat":25.117252,"lon":121.5346766,"name":"啟智學校","decorType":"bus_stop"},{"id":"node-2459681637","lat":25.1185945,"lon":121.5264005,"name":"天母國小","decorType":"bus_stop"},{"id":"node-2459681644","lat":25.1184728,"lon":121.5276786,"name":"齊福華廈","decorType":"bus_stop"},{"id":"node-2459681645","lat":25.118673,"lon":121.5235949,"name":"振興公園","decorType":"bus_stop"},{"id":"node-2460552078","lat":25.1180469,"lon":121.5310317,"name":"三玉宮","decorType":"bus_stop"},{"id":"node-2460552097","lat":25.1172611,"lon":121.5342664,"name":"啟智學校","decorType":"bus_stop"},{"id":"node-2460552133","lat":25.118364,"lon":121.5275859,"name":"齊福華廈","decorType":"bus_stop"},{"id":"node-2460552134","lat":25.1184218,"lon":121.5252575,"name":"齊賢華廈","decorType":"bus_stop"},{"id":"node-2460552135","lat":25.1185219,"lon":121.5254877,"name":"齊賢華廈","decorType":"bus_stop"},{"id":"node-2482647114","lat":25.1294037,"lon":121.523621,"name":"磺溪山南峰","decorType":"mountain"},{"id":"node-2622759177","lat":25.1287739,"lon":121.5286932,"name":"明山宮一","decorType":"bus_stop"},{"id":"node-2622759178","lat":25.1278942,"lon":121.5290998,"name":"明山宮","decorType":"bus_stop"},{"id":"node-2622759315","lat":25.1279475,"lon":121.5292502,"name":"明山宮","decorType":"bus_stop"},{"id":"node-2622761241","lat":25.1259031,"lon":121.5276226,"name":"磺溪","decorType":"bus_stop"},{"id":"node-2622761325","lat":25.126264,"lon":121.528183,"name":"磺溪","decorType":"bus_stop"},{"id":"node-2622762478","lat":25.1247619,"lon":121.5263873,"name":"福德廟(行義)","decorType":"bus_stop"},{"id":"node-2622762481","lat":25.1248513,"lon":121.5262736,"name":"福德廟(行義)","decorType":"bus_stop"},{"id":"node-2622762946","lat":25.1236131,"lon":121.5253285,"name":"福德廟 (石牌)","decorType":"bus_stop"},{"id":"node-2622762949","lat":25.1236701,"lon":121.525738,"name":"福德廟 (石牌)","decorType":"bus_stop"},{"id":"node-2651775309","lat":25.119599,"lon":121.5297737,"name":"星巴克","decorType":"cafe"},{"id":"node-2651775311","lat":25.1197461,"lon":121.52963,"name":"好丘","decorType":"restaurant"},{"id":"node-2660830752","lat":25.1176365,"lon":121.5326415,"name":"全家便利商店","decorType":"convenience"},{"id":"node-2660830754","lat":25.1197879,"lon":121.5334461,"name":"全家便利商店","decorType":"convenience"},{"id":"node-2691398078","lat":25.1223698,"lon":121.526934,"name":"MOS","decorType":"burger"},{"id":"node-2702070836","lat":25.1211732,"lon":121.5267644,"name":"天玉里","decorType":"bus_stop"},{"id":"node-2702083847","lat":25.1230237,"lon":121.5291462,"name":"合庫訓練中心","decorType":"bus_stop"},{"id":"node-2702084242","lat":25.1247357,"lon":121.5305651,"name":"天母公園","decorType":"bus_stop"},{"id":"node-2702086523","lat":25.1249883,"lon":121.5323837,"name":"天母圓環","decorType":"bus_stop"},{"id":"node-2702086825","lat":25.126863,"lon":121.5329818,"name":"中銀山莊","decorType":"bus_stop"},{"id":"node-2702087640","lat":25.1268017,"lon":121.5341475,"name":"水管路","decorType":"bus_stop"},{"id":"node-2702089063","lat":25.1256846,"lon":121.5341971,"name":"天和里","decorType":"bus_stop"},{"id":"node-2702089948","lat":25.1237449,"lon":121.5332302,"name":"天母圖書館","decorType":"bus_stop"},{"id":"node-2702091733","lat":25.1214566,"lon":121.5330139,"name":"東和公園","decorType":"bus_stop"},{"id":"node-2702095515","lat":25.1198273,"lon":121.5333793,"name":"天和公園","decorType":"bus_stop"},{"id":"node-2702144854","lat":25.1192753,"lon":121.5307955,"name":"天母廣場","decorType":"bus_stop"},{"id":"node-2702144855","lat":25.1192137,"lon":121.5305363,"name":"天母廣場","decorType":"bus_stop"},{"id":"node-2702145604","lat":25.1212974,"lon":121.5315671,"name":"天母新村","decorType":"bus_stop"},{"id":"node-2702145605","lat":25.1212712,"lon":121.5313439,"name":"天母新村","decorType":"bus_stop"},{"id":"node-2702146323","lat":25.1243563,"lon":121.5327402,"name":"天母","decorType":"bus_stop"},{"id":"node-2702146324","lat":25.1243759,"lon":121.5325222,"name":"天母","decorType":"bus_stop"},{"id":"node-2702147441","lat":25.1226565,"lon":121.5318167,"name":"農訓協會","decorType":"bus_stop"},{"id":"node-2705368409","lat":25.1205266,"lon":121.5228073,"name":"榮光新村(榮總東院)","decorType":"bus_stop"},{"id":"node-2705368410","lat":25.1207018,"lon":121.5227339,"name":"榮光新村(榮總東院)","decorType":"bus_stop"},{"id":"node-2705372588","lat":25.1222264,"lon":121.5239938,"name":"永欣里","decorType":"bus_stop"},{"id":"node-2705372589","lat":25.121844,"lon":121.5237254,"name":"永欣里","decorType":"bus_stop"},{"id":"node-2705382903","lat":25.1228889,"lon":121.5265517,"name":"天北站","decorType":"bus_stop"},{"id":"node-2705382904","lat":25.1229363,"lon":121.5266402,"name":"天北站","decorType":"bus_stop"},{"id":"node-2705382905","lat":25.1210736,"lon":121.5265866,"name":"天玉里","decorType":"bus_stop"},{"id":"node-2705382906","lat":25.119089,"lon":121.5261935,"name":"天母國小","decorType":"bus_stop"},{"id":"node-2705382907","lat":25.1189523,"lon":121.5263075,"name":"天母國小","decorType":"bus_stop"},{"id":"node-2713490191","lat":25.1304449,"lon":121.5280997,"name":"行義路","decorType":"bus_stop"},{"id":"node-2713490192","lat":25.1306455,"lon":121.5279432,"name":"行義路","decorType":"bus_stop"},{"id":"node-2714941493","lat":25.1179268,"lon":121.5222743,"name":"振興醫院","decorType":"bus_stop"},{"id":"node-2918517186","lat":25.1181333,"lon":121.5262175,"name":"北平金廚新蔬食料理","decorType":"restaurant"},{"id":"node-3369451080","lat":25.1173364,"lon":121.5322766,"name":"阿財水餃","decorType":"restaurant"},{"id":"node-3661063905","lat":25.1174112,"lon":121.5224098,"name":"蘇杭餐廳","decorType":"restaurant"},{"id":"node-3661063906","lat":25.1173173,"lon":121.5224197,"name":"圓圓方方咖啡","decorType":"cafe"},{"id":"node-3661063907","lat":25.1174295,"lon":121.5224956,"name":"振興醫院圖書館","decorType":"library"},{"id":"node-3661070225","lat":25.1176987,"lon":121.5224067,"name":"星巴克","decorType":"cafe"},{"id":"node-3670571766","lat":25.118458,"lon":121.5242749,"name":"五花馬","decorType":"restaurant"},{"id":"node-3757986701","lat":25.1186924,"lon":121.5259332,"name":"宋江餡餅粥","decorType":"restaurant"},{"id":"node-3851686356","lat":25.1179855,"lon":121.5222664,"name":"7-Eleven","decorType":"convenience"},{"id":"node-3851686561","lat":25.130027,"lon":121.528207,"name":"萊爾富","decorType":"convenience"},{"id":"node-3908775426","lat":25.1192709,"lon":121.5277525,"name":"天母書廬","decorType":"library"},{"id":"node-3908779057","lat":25.1183425,"lon":121.5258833,"name":"全家便利商店","decorType":"convenience"},{"id":"node-3908779058","lat":25.1186017,"lon":121.5274276,"name":"7-Eleven","decorType":"convenience"},{"id":"node-3926526891","lat":25.123467,"lon":121.5331562,"name":"天母圖書館","decorType":"library"},{"id":"node-4018210289","lat":25.1258892,"lon":121.5329946,"name":"天母禮拜堂","decorType":"shrine"},{"id":"node-4118984889","lat":25.1232416,"lon":121.5325699,"name":"勝口味大腸蚵仔麵線","decorType":"restaurant"},{"id":"node-4244705725","lat":25.1279028,"lon":121.5312153,"name":"未命名郵局","decorType":"post_office"},{"id":"node-4244705837","lat":25.1242686,"lon":121.5263471,"name":"全聯福利中心","decorType":"supermarket"},{"id":"node-4307554237","lat":25.1208588,"lon":121.5228872,"name":"未命名郵局","decorType":"post_office"},{"id":"node-4510193157","lat":25.1199433,"lon":121.5292495,"name":"茉莉漢堡","decorType":"burger"},{"id":"node-4516500729","lat":25.1246824,"lon":121.5330168,"name":"萊爾富","decorType":"convenience"},{"id":"node-4516500732","lat":25.1185353,"lon":121.528883,"name":"麥當勞","decorType":"burger"},{"id":"node-4778898022","lat":25.1249292,"lon":121.5327934,"name":"天母圓環","decorType":"bus_stop"},{"id":"node-4784226433","lat":25.118253,"lon":121.5344981,"name":"星巴克","decorType":"cafe"},{"id":"node-4822637821","lat":25.1177885,"lon":121.5331405,"name":"番紅花印度美饌","decorType":"restaurant"},{"id":"node-4836653407","lat":25.1280325,"lon":121.5289813,"name":"明山宮","decorType":"shrine"},{"id":"node-4934656532","lat":25.124842,"lon":121.5325129,"name":"光華巴士天西調度站","decorType":"bus_stop"},{"id":"node-5110501363","lat":25.1280297,"lon":121.5290355,"name":"明山宮","decorType":"shrine"},{"id":"node-5110501365","lat":25.1227274,"lon":121.5268038,"name":"OK超商","decorType":"convenience"},{"id":"node-5110501366","lat":25.1181496,"lon":121.525914,"name":"石二鍋","decorType":"restaurant"},{"id":"node-5172407622","lat":25.118328,"lon":121.5261918,"name":"Mr. Brown","decorType":"cafe"},{"id":"node-5172437521","lat":25.1189983,"lon":121.5250667,"name":"味覺本家","decorType":"restaurant"},{"id":"node-5172444921","lat":25.1187096,"lon":121.5259976,"name":"全統西點麵包","decorType":"bakery"},{"id":"node-5174028733","lat":25.1185179,"lon":121.5287843,"name":"Dayunds Drink shop","decorType":"cafe"},{"id":"node-5185289722","lat":25.1194205,"lon":121.5262331,"name":"OK超商","decorType":"convenience"},{"id":"node-5185293321","lat":25.1190736,"lon":121.5261226,"name":"味覺義廚","decorType":"restaurant"},{"id":"node-5185299921","lat":25.1191114,"lon":121.5261415,"name":"屈臣氏","decorType":"pharmacy"},{"id":"node-5185300621","lat":25.1192192,"lon":121.52618,"name":"倍適得電器","decorType":"electronics"},{"id":"node-5185300623","lat":25.119352,"lon":121.5262048,"name":"小菠蘿複合式餐飲","decorType":"restaurant"},{"id":"node-5185305522","lat":25.1195902,"lon":121.526267,"name":"鳳城燒臘粵菜","decorType":"restaurant"},{"id":"node-5185316221","lat":25.1194871,"lon":121.5262431,"name":"全國電子","decorType":"electronics"},{"id":"node-5185326021","lat":25.1197242,"lon":121.5263066,"name":"天晴麵館","decorType":"restaurant"},{"id":"node-5185337421","lat":25.1200658,"lon":121.5263464,"name":"燦坤","decorType":"electronics"},{"id":"node-5185337423","lat":25.1203093,"lon":121.5264099,"name":"澐岡書店","decorType":"library"},{"id":"node-5189696121","lat":25.1180445,"lon":121.5261834,"name":"君悅排骨","decorType":"restaurant"},{"id":"node-5189696122","lat":25.1190127,"lon":121.5263757,"name":"京京健康早餐店","decorType":"burger"},{"id":"node-5189706422","lat":25.1188761,"lon":121.5263411,"name":"李堯棉衣店","decorType":"clothing"},{"id":"node-5189706723","lat":25.1189142,"lon":121.5263526,"name":"50嵐","decorType":"cafe"},{"id":"node-5189722421","lat":25.1193724,"lon":121.5262159,"name":"育姿美容","decorType":"cosmetics"},{"id":"node-5189722422","lat":25.1193376,"lon":121.5264218,"name":"Amy sun","decorType":"clothing"},{"id":"node-5189723723","lat":25.1193837,"lon":121.5264243,"name":"古早味排骨酥麵","decorType":"restaurant"},{"id":"node-5189728523","lat":25.1197918,"lon":121.5265499,"name":"胖阿姨廣東粥","decorType":"restaurant"},{"id":"node-5189728524","lat":25.1200477,"lon":121.5266175,"name":"藍白小鎮","decorType":"cafe"},{"id":"node-5189728526","lat":25.1200141,"lon":121.5266673,"name":"一品山西刀削麵","decorType":"restaurant"},{"id":"node-5189737222","lat":25.1199765,"lon":121.5268232,"name":"大橋頭筒仔米糕","decorType":"restaurant"},{"id":"node-5189737321","lat":25.1195996,"lon":121.5265112,"name":"GTZ fashion outlet","decorType":"clothing"},{"id":"node-5189737323","lat":25.1197813,"lon":121.526762,"name":"潘蜜拉義麵舖","decorType":"restaurant"},{"id":"node-5189737324","lat":25.120333,"lon":121.5266458,"name":"天棧鍋物","decorType":"restaurant"},{"id":"node-5189741821","lat":25.1198502,"lon":121.5265513,"name":"cafe in","decorType":"cafe"},{"id":"node-5189745724","lat":25.1197264,"lon":121.5270269,"name":"南美咖啡","decorType":"cafe"},{"id":"node-5189756722","lat":25.1197573,"lon":121.5268781,"name":"7-Eleven","decorType":"convenience"},{"id":"node-5189756726","lat":25.1205788,"lon":121.5266983,"name":"蒜香廚房","decorType":"restaurant"},{"id":"node-5189758921","lat":25.1197438,"lon":121.5269685,"name":"費思特","decorType":"cosmetics"},{"id":"node-5189781421","lat":25.1205056,"lon":121.5267022,"name":"香港茶餐廳","decorType":"restaurant"},{"id":"node-5189793321","lat":25.1208441,"lon":121.5267375,"name":"happy hair","decorType":"hair_salon"},{"id":"node-5189796421","lat":25.1209657,"lon":121.5267892,"name":"美麗達人","decorType":"cosmetics"},{"id":"node-5189799223","lat":25.1193104,"lon":121.5273489,"name":"早餐優選","decorType":"burger"},{"id":"node-5189801222","lat":25.1216454,"lon":121.5266326,"name":"SNAIL蝸牛歐義料理","decorType":"restaurant"},{"id":"node-5189801223","lat":25.1195345,"lon":121.5273707,"name":"天母尚井","decorType":"restaurant"},{"id":"node-5189810121","lat":25.1196076,"lon":121.5272733,"name":"我家牛排","decorType":"restaurant"},{"id":"node-5189814421","lat":25.1194318,"lon":121.527361,"name":"今欣藥局","decorType":"pharmacy"},{"id":"node-5189814422","lat":25.1192983,"lon":121.527482,"name":"溫州大餛飩","decorType":"restaurant"},{"id":"node-5189814423","lat":25.119062,"lon":121.5274903,"name":"竹之屋","decorType":"restaurant"},{"id":"node-5189814621","lat":25.1195167,"lon":121.5273978,"name":"閱喜現代古美術","decorType":"art_gallery"},{"id":"node-5189823021","lat":25.1190135,"lon":121.5274948,"name":"嘉美乾洗店","decorType":"laundry"},{"id":"node-5189829121","lat":25.1191377,"lon":121.5275038,"name":"麥香美早餐店","decorType":"burger"},{"id":"node-5189829221","lat":25.1192073,"lon":121.5275193,"name":"如觀顯密佛學中心","decorType":"shrine"},{"id":"node-5189832621","lat":25.118885,"lon":121.5272189,"name":"八藤家","decorType":"restaurant"},{"id":"node-5189833121","lat":25.11869,"lon":121.5274917,"name":"四一町鍋物","decorType":"restaurant"},{"id":"node-5189837321","lat":25.1188245,"lon":121.5274741,"name":"江家牛肉麵","decorType":"restaurant"},{"id":"node-5197890324","lat":25.1185264,"lon":121.5283312,"name":"Smile","decorType":"clothing"},{"id":"node-5197890423","lat":25.1185186,"lon":121.528925,"name":"大苑子","decorType":"cafe"},{"id":"node-5197897042","lat":25.1185185,"lon":121.5287225,"name":"Cross's Shoes","decorType":"clothing"},{"id":"node-5197926723","lat":25.118563,"lon":121.528894,"name":"澠井川 日氏串燒居酒屋","decorType":"restaurant"},{"id":"node-5197947430","lat":25.1185289,"lon":121.5294367,"name":"東海萊姆園organic lime","decorType":"supermarket"},{"id":"node-5197948121","lat":25.1185775,"lon":121.5289678,"name":"smile","decorType":"clothing"},{"id":"node-5197948124","lat":25.1182741,"lon":121.5289875,"name":"全聯福利中心","decorType":"supermarket"},{"id":"node-5197961927","lat":25.1193725,"lon":121.5298545,"name":"Jason's Market (Front)","decorType":"supermarket"},{"id":"node-5197970921","lat":25.1184985,"lon":121.5293652,"name":"Jason's market place","decorType":"supermarket"},{"id":"node-5197970924","lat":25.1185811,"lon":121.5294482,"name":"Comebuy","decorType":"cafe"},{"id":"node-5198011427","lat":25.1192482,"lon":121.5287292,"name":"OD Flower and Food","decorType":"cafe"},{"id":"node-5205427527","lat":25.1183255,"lon":121.5262858,"name":"全國健康素食精緻全自助餐廳","decorType":"restaurant"},{"id":"node-5205439621","lat":25.1183335,"lon":121.5263329,"name":"CHER'S boutique","decorType":"clothing"},{"id":"node-5205447521","lat":25.1183346,"lon":121.5266356,"name":"聖德科斯生機食品","decorType":"supermarket"},{"id":"node-5205450121","lat":25.1183203,"lon":121.5266122,"name":"美衣日韓精品","decorType":"clothing"},{"id":"node-5205450122","lat":25.1182837,"lon":121.5281981,"name":"miss sixty","decorType":"clothing"},{"id":"node-5205450123","lat":25.1185268,"lon":121.5278473,"name":"LiLO","decorType":"clothing"},{"id":"node-5205454026","lat":25.1185175,"lon":121.5281465,"name":"Espace衣飾空間","decorType":"clothing"},{"id":"node-5205454028","lat":25.1185121,"lon":121.5282224,"name":"Vivo","decorType":"cosmetics"},{"id":"node-5205454122","lat":25.1182955,"lon":121.5275667,"name":"沙克思襪類專賣店","decorType":"clothing"},{"id":"node-5205457022","lat":25.1182973,"lon":121.5276605,"name":"芙洛坊法國美容美體","decorType":"cosmetics"},{"id":"node-5205457027","lat":25.1185197,"lon":121.5278929,"name":"Phiten 銀谷","decorType":"clothing"},{"id":"node-5205457028","lat":25.118522,"lon":121.527871,"name":"溫故知新","decorType":"clothing"},{"id":"node-5205458421","lat":25.118131,"lon":121.5273091,"name":"紫屋之戀","decorType":"clothing"},{"id":"node-5205477526","lat":25.1185764,"lon":121.526578,"name":"王朝滷味","decorType":"restaurant"},{"id":"node-5205479223","lat":25.1185372,"lon":121.5271194,"name":"西雅圖極品咖啡","decorType":"cafe"},{"id":"node-5205490723","lat":25.1185359,"lon":121.5272165,"name":"好鍋","decorType":"restaurant"},{"id":"node-5205492922","lat":25.1185095,"lon":121.5275121,"name":"NET","decorType":"clothing"},{"id":"node-5205492927","lat":25.1185558,"lon":121.5266138,"name":"百鮮蔬果樂園","decorType":"supermarket"},{"id":"node-5205494422","lat":25.1185487,"lon":121.5269853,"name":"葳訊數位生活館","decorType":"electronics"},{"id":"node-5205498824","lat":25.1185282,"lon":121.5266583,"name":"棠葳","decorType":"clothing"},{"id":"node-5205500221","lat":25.1185385,"lon":121.5268804,"name":"依兒服飾","decorType":"clothing"},{"id":"node-5205509022","lat":25.1183355,"lon":121.5257253,"name":"義美食品","decorType":"convenience"},{"id":"node-5205509221","lat":25.1186334,"lon":121.5264947,"name":"ORDITO","decorType":"clothing"},{"id":"node-5205509224","lat":25.1185639,"lon":121.5254138,"name":"媽咪咖啡館","decorType":"cafe"},{"id":"node-5205520723","lat":25.1185702,"lon":121.525202,"name":"紅葉蛋糕","decorType":"bakery"},{"id":"node-5205526422","lat":25.1185614,"lon":121.5255501,"name":"新豐水果","decorType":"supermarket"},{"id":"node-5205526423","lat":25.118327,"lon":121.5254727,"name":"kibo Hair Salon","decorType":"hair_salon"},{"id":"node-5205526424","lat":25.1185693,"lon":121.5252709,"name":"Motorola","decorType":"electronics"},{"id":"node-5205539021","lat":25.118344,"lon":121.5256166,"name":"清心福全","decorType":"cafe"},{"id":"node-5205539421","lat":25.1183592,"lon":121.5256462,"name":"八方雲集","decorType":"burger"},{"id":"node-5205539424","lat":25.1183764,"lon":121.5250828,"name":"小豪包膜","decorType":"electronics"},{"id":"node-5205543122","lat":25.1183935,"lon":121.5246049,"name":"豐閣精品服飾","decorType":"clothing"},{"id":"node-5205558321","lat":25.1185813,"lon":121.5251605,"name":"Birkenstock","decorType":"clothing"},{"id":"node-5205558622","lat":25.1185744,"lon":121.5249209,"name":"麗嬰房","decorType":"clothing"},{"id":"node-5205559422","lat":25.1185851,"lon":121.5248367,"name":"黑雨名店","decorType":"clothing"},{"id":"node-5205559621","lat":25.1185762,"lon":121.5247997,"name":"可邁健康鞋","decorType":"clothing"},{"id":"node-5205915222","lat":25.1185175,"lon":121.5286037,"name":"Ita","decorType":"clothing"},{"id":"node-5205926035","lat":25.1182947,"lon":121.5289263,"name":"青柳家","decorType":"restaurant"},{"id":"node-5206048123","lat":25.1186514,"lon":121.5294963,"name":"Present","decorType":"clothing"},{"id":"node-5206079324","lat":25.1187702,"lon":121.5295323,"name":"依錸童裝精品屋","decorType":"clothing"},{"id":"node-5206109621","lat":25.1188197,"lon":121.5295037,"name":"虹屋","decorType":"clothing"},{"id":"node-5206127522","lat":25.1187417,"lon":121.5295442,"name":"Rose House 薔舍","decorType":"clothing"},{"id":"node-5206158121","lat":25.118906,"lon":121.5295614,"name":"Belle","decorType":"clothing"},{"id":"node-5206173021","lat":25.11892,"lon":121.5295814,"name":"Mini Cut 迷你剪","decorType":"hair_salon"},{"id":"node-5206180222","lat":25.1190753,"lon":121.5296159,"name":"切仔麵達人","decorType":"restaurant"},{"id":"node-5206205221","lat":25.11962,"lon":121.529366,"name":"天利乾洗店","decorType":"laundry"},{"id":"node-5206247421","lat":25.118713,"lon":121.528424,"name":"薩莉亞義式料理餐廳","decorType":"restaurant"},{"id":"node-5211903228","lat":25.1187244,"lon":121.5294922,"name":"利豐本鋪","decorType":"restaurant"},{"id":"node-5211904321","lat":25.1183034,"lon":121.5283451,"name":"Joan The Shop","decorType":"clothing"},{"id":"node-5211934730","lat":25.118583,"lon":121.529333,"name":"修改衣服 歐洲，服飾精品","decorType":"clothing"},{"id":"node-5211934825","lat":25.1187408,"lon":121.5295234,"name":"Package Outlet","decorType":"clothing"},{"id":"node-5211941621","lat":25.1187125,"lon":121.5289417,"name":"曼都髮型","decorType":"hair_salon"},{"id":"node-5211945230","lat":25.118538,"lon":121.529338,"name":"お食事鮮","decorType":"restaurant"},{"id":"node-5211972140","lat":25.118924,"lon":121.529648,"name":"張家飯小館","decorType":"restaurant"},{"id":"node-5212001322","lat":25.118711,"lon":121.529529,"name":"麵麵","decorType":"restaurant"},{"id":"node-5212001324","lat":25.1185356,"lon":121.5293199,"name":"Collection","decorType":"clothing"},{"id":"node-5212001525","lat":25.119045,"lon":121.529651,"name":"Just cut 68剪髮鋪","decorType":"hair_salon"},{"id":"node-5212043223","lat":25.118791,"lon":121.529584,"name":"劉媽媽抄手","decorType":"restaurant"},{"id":"node-5212075125","lat":25.118812,"lon":121.529584,"name":"金石堂","decorType":"library"},{"id":"node-5212168622","lat":25.119124,"lon":121.528835,"name":"七味屋","decorType":"restaurant"},{"id":"node-5263221221","lat":25.1245648,"lon":121.5326202,"name":"Zabu","decorType":"cafe"},{"id":"node-5263221421","lat":25.1246736,"lon":121.5325528,"name":"八方雲集","decorType":"burger"},{"id":"node-5363411158","lat":25.1239358,"lon":121.5330985,"name":"全聯福利中心","decorType":"supermarket"},{"id":"node-5363425592","lat":25.1257335,"lon":121.534673,"name":"7-Eleven","decorType":"convenience"},{"id":"node-5366399529","lat":25.1223563,"lon":121.5267115,"name":"Wood Pot","decorType":"restaurant"},{"id":"node-5467695066","lat":25.1186111,"lon":121.5310313,"name":"7-Eleven","decorType":"convenience"},{"id":"node-5891986485","lat":25.1169167,"lon":121.5318644,"name":"Louisa café","decorType":"cafe"},{"id":"node-5940233906","lat":25.1230844,"lon":121.5267035,"name":"未命名麵包店","decorType":"bakery"},{"id":"node-6026828411","lat":25.128533,"lon":121.5308016,"name":"全家便利商店","decorType":"convenience"},{"id":"node-6191479260","lat":25.1294079,"lon":121.527841,"name":"察爾斯廚房","decorType":"restaurant"},{"id":"node-6726425485","lat":25.1231615,"lon":121.5323314,"name":"PS Bubu","decorType":"cafe"},{"id":"node-6961391729","lat":25.1201423,"lon":121.5314685,"name":"BANG","decorType":"clothing"},{"id":"node-6961391730","lat":25.1186608,"lon":121.5282552,"name":"餃。麵","decorType":"restaurant"},{"id":"node-7175334766","lat":25.1228415,"lon":121.5244385,"name":"火鍋世家","decorType":"restaurant"},{"id":"node-7175334772","lat":25.1229118,"lon":121.5267421,"name":"黃牛屋牛肉麵館","decorType":"restaurant"},{"id":"node-7175344496","lat":25.1189112,"lon":121.5234211,"name":"瓦城泰國料理","decorType":"restaurant"},{"id":"node-7175344539","lat":25.1226396,"lon":121.5246284,"name":"聚餐光雕廚房","decorType":"restaurant"},{"id":"node-7175344572","lat":25.1189088,"lon":121.5235386,"name":"拿坡里披薩","decorType":"restaurant"},{"id":"node-7175344578","lat":25.1223736,"lon":121.5242925,"name":"332肉羹","decorType":"restaurant"},{"id":"node-7175344615","lat":25.1227046,"lon":121.5243639,"name":"麥味登","decorType":"restaurant"},{"id":"node-7175344622","lat":25.1233867,"lon":121.5250292,"name":"佶園排骨飯","decorType":"restaurant"},{"id":"node-7175344652","lat":25.1225924,"lon":121.5245244,"name":"大玩偶美式餅脆炸雞","decorType":"restaurant"},{"id":"node-7175344673","lat":25.1224188,"lon":121.5266363,"name":"Wood Pot","decorType":"restaurant"},{"id":"node-7175344698","lat":25.1234313,"lon":121.5254132,"name":"磺溪小鎮","decorType":"restaurant"},{"id":"node-7175344703","lat":25.1222735,"lon":121.5266583,"name":"天鍋宴天母店","decorType":"restaurant"},{"id":"node-7175344721","lat":25.118599,"lon":121.5222959,"name":"miso串燒居酒屋","decorType":"restaurant"},{"id":"node-7175344727","lat":25.1188173,"lon":121.5237166,"name":"莎諾西餐","decorType":"restaurant"},{"id":"node-7175344767","lat":25.1229335,"lon":121.5245821,"name":"弘爺漢堡","decorType":"restaurant"},{"id":"node-7175344775","lat":25.1216076,"lon":121.5266906,"name":"Snail蝸牛餐廳","decorType":"restaurant"},{"id":"node-7175344798","lat":25.1220902,"lon":121.5241498,"name":"找餐 中西式早午餐","decorType":"restaurant"},{"id":"node-7213752461","lat":25.1177963,"lon":121.5340474,"name":"瓦城","decorType":"restaurant"},{"id":"node-7216240733","lat":25.1172596,"lon":121.5339307,"name":"大心","decorType":"restaurant"},{"id":"node-7614240685","lat":25.1191209,"lon":121.5295481,"name":"星巴克","decorType":"cafe"},{"id":"node-7747652921","lat":25.1260938,"lon":121.5280359,"name":"劉家早堂","decorType":"restaurant"},{"id":"node-7747652925","lat":25.1213225,"lon":121.5317777,"name":"彥君小料理","decorType":"restaurant"},{"id":"node-7747652931","lat":25.1261236,"lon":121.5280735,"name":"阿伯臭豆腐/豆花","decorType":"restaurant"},{"id":"node-7747652939","lat":25.1225467,"lon":121.5320581,"name":"七海食堂","decorType":"restaurant"},{"id":"node-7747652946","lat":25.1259961,"lon":121.5278522,"name":"臭豆腐 豆花 餐車","decorType":"restaurant"},{"id":"node-7747652949","lat":25.1227786,"lon":121.5321708,"name":"維尼恩早午餐","decorType":"restaurant"},{"id":"node-7747652952","lat":25.1216573,"lon":121.5317711,"name":"Hello!Jazz! 料理食驗室","decorType":"restaurant"},{"id":"node-7747683202","lat":25.124267,"lon":121.5331201,"name":"阿甘小館","decorType":"restaurant"},{"id":"node-7747683203","lat":25.1244528,"lon":121.5328458,"name":"日久阿囉哈漢堡","decorType":"restaurant"},{"id":"node-7747683204","lat":25.1201684,"lon":121.5314806,"name":"拓樸本然","decorType":"restaurant"},{"id":"node-7747683205","lat":25.1241486,"lon":121.5329806,"name":"群鹽酥雞","decorType":"restaurant"},{"id":"node-7747683207","lat":25.1206431,"lon":121.531042,"name":"奇諾義大利披薩屋","decorType":"restaurant"},{"id":"node-7747683212","lat":25.1303107,"lon":121.5292436,"name":"sweet kingdom","decorType":"restaurant"},{"id":"node-7747683215","lat":25.1201338,"lon":121.5311982,"name":"亨寶咖啡","decorType":"cafe"},{"id":"node-7747683220","lat":25.1205035,"lon":121.5313632,"name":"花阿嬤 素食","decorType":"restaurant"},{"id":"node-7747683224","lat":25.1247697,"lon":121.5325058,"name":"勝口味大腸蚵仔麵線","decorType":"restaurant"},{"id":"node-7747683232","lat":25.1204513,"lon":121.5309374,"name":"興蓬萊台菜海鮮餐廳","decorType":"restaurant"},{"id":"node-7747683241","lat":25.1241092,"lon":121.5329289,"name":"快手滷味","decorType":"restaurant"},{"id":"node-7747683244","lat":25.1231266,"lon":121.5323467,"name":"金屋藏車食堂","decorType":"restaurant"},{"id":"node-7749822704","lat":25.1206844,"lon":121.5314236,"name":"五二Bar&Bistro 餐酒館","decorType":"restaurant"},{"id":"node-7749822713","lat":25.1200542,"lon":121.5311822,"name":"Burger O’clock","decorType":"restaurant"},{"id":"node-7749822737","lat":25.1223182,"lon":121.5289485,"name":"大頭蒜味鹹酥雞","decorType":"restaurant"},{"id":"node-7756243462","lat":25.1173227,"lon":121.5318549,"name":"老地方牛肉麵","decorType":"restaurant"},{"id":"node-8049734039","lat":25.1198424,"lon":121.5304556,"name":"Auntie's Barber Shop","decorType":"hair_salon"},{"id":"node-8067306984","lat":25.1175745,"lon":121.5333552,"name":"Ramen Nagi","decorType":"restaurant"},{"id":"node-8118095196","lat":25.1188351,"lon":121.5323916,"name":"7-Eleven","decorType":"convenience"},{"id":"node-8118095197","lat":25.123819,"lon":121.5328216,"name":"7-Eleven","decorType":"convenience"},{"id":"node-8118095198","lat":25.1231638,"lon":121.5314742,"name":"7-Eleven","decorType":"convenience"},{"id":"node-8118095199","lat":25.1229836,"lon":121.525011,"name":"7-Eleven","decorType":"convenience"},{"id":"node-8118095200","lat":25.1212545,"lon":121.5228867,"name":"7-Eleven","decorType":"convenience"},{"id":"node-8118095202","lat":25.1173883,"lon":121.5225434,"name":"7-Eleven","decorType":"convenience"},{"id":"node-8374865972","lat":25.1178198,"lon":121.5338756,"name":"iStore","decorType":"electronics"},{"id":"node-8432400022","lat":25.121666,"lon":121.533227,"name":"東和公園","decorType":"bus_stop"},{"id":"node-8432400485","lat":25.12558,"lon":121.53427,"name":"天和里","decorType":"bus_stop"},{"id":"node-8432400486","lat":25.12754,"lon":121.53368,"name":"天母古道登山口","decorType":"bus_stop"},{"id":"node-8432400510","lat":25.129093,"lon":121.527864,"name":"明山宮一","decorType":"bus_stop"},{"id":"node-8432400562","lat":25.126156,"lon":121.534967,"name":"天母里","decorType":"bus_stop"},{"id":"node-8432400571","lat":25.123171,"lon":121.529167,"name":"合庫訓練中心","decorType":"bus_stop"},{"id":"node-8432400572","lat":25.124606,"lon":121.530327,"name":"天母公園","decorType":"bus_stop"},{"id":"node-8432400573","lat":25.125651,"lon":121.531411,"name":"天母圓環","decorType":"bus_stop"},{"id":"node-9391261126","lat":25.1173234,"lon":121.532625,"name":"蝦皮店到店","decorType":"convenience"},{"id":"node-9588074530","lat":25.1203713,"lon":121.5263483,"name":"蝦皮店到店","decorType":"convenience"},{"id":"node-9630668950","lat":25.1233517,"lon":121.5249599,"name":"蝦皮店到店","decorType":"convenience"},{"id":"node-9742799918","lat":25.1235931,"lon":121.5324483,"name":"蝦皮店到店","decorType":"convenience"},{"id":"node-10053402381","lat":25.1296421,"lon":121.5283244,"name":"美廉社","decorType":"supermarket"},{"id":"node-10255129310","lat":25.1196307,"lon":121.5306216,"name":"Supranormal Bakery Cafe","decorType":"cafe"},{"id":"node-11307888019","lat":25.1231656,"lon":121.5319591,"name":"路易莎咖啡","decorType":"cafe"},{"id":"node-11361163416","lat":25.1240845,"lon":121.5326325,"name":"Roi du pain","decorType":"bakery"},{"id":"node-11361169584","lat":25.1239519,"lon":121.5325943,"name":"7-Eleven","decorType":"convenience"},{"id":"node-12797484701","lat":25.1191972,"lon":121.5290752,"name":"四方居","decorType":"restaurant"},{"id":"node-13413775743","lat":25.1211264,"lon":121.5291235,"name":"萊爾富","decorType":"convenience"},{"id":"way-35550291","lat":25.1231371,"lon":121.5243586,"name":"磺溪","decorType":"waterside"},{"id":"way-136214400","lat":25.1315151,"lon":121.5338239,"name":"未命名水邊","decorType":"waterside"},{"id":"way-258262896","lat":25.1177499,"lon":121.5339685,"name":"新光三越","decorType":"cosmetics"},{"id":"way-258262897","lat":25.117187,"lon":121.5338987,"name":"新光三越","decorType":"cosmetics"},{"id":"way-258410880","lat":25.1242517,"lon":121.5322926,"name":"Mother of God","decorType":"shrine"},{"id":"way-258410970","lat":25.1186266,"lon":121.5265447,"name":"Red Apple","decorType":"cosmetics"},{"id":"way-258626708","lat":25.1203309,"lon":121.5341286,"name":"天和公園","decorType":"park"},{"id":"way-259714747","lat":25.1263305,"lon":121.5310221,"name":"天母公園","decorType":"park"},{"id":"way-259911543","lat":25.118646,"lon":121.5346262,"name":"天和一號公園","decorType":"park"},{"id":"way-361491769","lat":25.1177281,"lon":121.5230728,"name":"振興公園","decorType":"park"},{"id":"way-372253486","lat":25.1184976,"lon":121.5239561,"name":"同行橋","decorType":"bridge"},{"id":"way-372253490","lat":25.1185894,"lon":121.5262668,"name":"未命名公園","decorType":"park"},{"id":"way-372253491","lat":25.1185991,"lon":121.5260701,"name":"未命名公園","decorType":"park"},{"id":"way-372253585","lat":25.1186457,"lon":121.5240438,"name":"磺溪橋","decorType":"bridge"},{"id":"way-372253586","lat":25.1185851,"lon":121.5240101,"name":"未命名橋樑","decorType":"bridge"},{"id":"way-372270693","lat":25.123368,"lon":121.5263982,"name":"永和橋","decorType":"bridge"},{"id":"way-372270696","lat":25.1280024,"lon":121.5315432,"name":"堉琪橋","decorType":"bridge"},{"id":"way-375776545","lat":25.1221066,"lon":121.5252296,"name":"未命名公園","decorType":"park"},{"id":"way-375776566","lat":25.1229698,"lon":121.5226889,"name":"未命名橋樑","decorType":"bridge"},{"id":"way-375776567","lat":25.1234507,"lon":121.5241475,"name":"未命名橋樑","decorType":"bridge"},{"id":"way-375776575","lat":25.1256702,"lon":121.5247839,"name":"行義公園","decorType":"park"},{"id":"way-375776576","lat":25.1232943,"lon":121.5260313,"name":"櫻花崗公園","decorType":"park"},{"id":"way-375776579","lat":25.1238139,"lon":121.5260421,"name":"未命名公園","decorType":"park"},{"id":"way-375776580","lat":25.1238417,"lon":121.525801,"name":"未命名公園","decorType":"park"},{"id":"way-375788646","lat":25.123396,"lon":121.5264679,"name":"未命名橋樑","decorType":"bridge"},{"id":"way-375788648","lat":25.1237839,"lon":121.5266027,"name":"永欣綠地","decorType":"park"},{"id":"way-375788662","lat":25.1260677,"lon":121.5299385,"name":"未命名橋樑","decorType":"bridge"},{"id":"way-375788666","lat":25.1251926,"lon":121.5294908,"name":"同德公園","decorType":"park"},{"id":"way-375788675","lat":25.1260333,"lon":121.5265648,"name":"未命名橋樑","decorType":"bridge"},{"id":"way-375788687","lat":25.1312614,"lon":121.5277311,"name":"行義路155巷","decorType":"bridge"},{"id":"way-375861980","lat":25.1259491,"lon":121.5235357,"name":"未命名橋樑","decorType":"bridge"},{"id":"way-375861990","lat":25.1231131,"lon":121.5261896,"name":"未命名水邊","decorType":"waterside"},{"id":"way-377209858","lat":25.1259846,"lon":121.5333761,"name":"蘭雅溪","decorType":"waterside"},{"id":"way-389489550","lat":25.1212096,"lon":121.5346723,"name":"番井池","decorType":"waterside"},{"id":"way-389489551","lat":25.1209322,"lon":121.5345718,"name":"魚池","decorType":"waterside"},{"id":"way-389489552","lat":25.1207039,"lon":121.5344572,"name":"魚池","decorType":"waterside"},{"id":"way-389489558","lat":25.1200852,"lon":121.5339494,"name":"兒童遊樂區","decorType":"park"},{"id":"way-389489562","lat":25.1213921,"lon":121.5341919,"name":"蘭雅溪","decorType":"waterside"},{"id":"way-389528590","lat":25.117952,"lon":121.5307171,"name":"三玉宮","decorType":"shrine"},{"id":"way-389628317","lat":25.1171059,"lon":121.5315808,"name":"天福2號公園","decorType":"park"},{"id":"way-509399453","lat":25.129441,"lon":121.5275916,"name":"未命名橋樑","decorType":"bridge"},{"id":"way-627045533","lat":25.1233158,"lon":121.52687,"name":"未命名神社","decorType":"shrine"},{"id":"way-627260667","lat":25.1234175,"lon":121.5261177,"name":"未命名公園","decorType":"park"},{"id":"way-627260669","lat":25.1236179,"lon":121.5257931,"name":"未命名服飾店","decorType":"clothing"},{"id":"way-627657205","lat":25.1194191,"lon":121.5248535,"name":"天美綠地","decorType":"park"},{"id":"way-627834743","lat":25.1190316,"lon":121.5255114,"name":"未命名餐廳","decorType":"restaurant"},{"id":"way-728834357","lat":25.1240398,"lon":121.5258483,"name":"福德廟","decorType":"shrine"},{"id":"way-797027291","lat":25.1219377,"lon":121.5251284,"name":"未命名公園","decorType":"park"},{"id":"way-797027292","lat":25.118703,"lon":121.5240761,"name":"未命名橋樑","decorType":"bridge"},{"id":"way-921615926","lat":25.1229412,"lon":121.533434,"name":"未命名橋樑","decorType":"bridge"},{"id":"way-921615929","lat":25.1221553,"lon":121.5337974,"name":"未命名橋樑","decorType":"bridge"},{"id":"way-961267374","lat":25.1241828,"lon":121.5237796,"name":"未命名橋樑","decorType":"bridge"},{"id":"way-961270331","lat":25.1215211,"lon":121.5237954,"name":"未命名體育館","decorType":"stadium"},{"id":"way-1119416244","lat":25.1233643,"lon":121.5263895,"name":"永和橋","decorType":"bridge"},{"id":"way-1134414807","lat":25.1201183,"lon":121.5253302,"name":"未命名公園","decorType":"park"},{"id":"way-1177994468","lat":25.1283958,"lon":121.5340675,"name":"未命名森林","decorType":"forest"},{"id":"way-1348167081","lat":25.1274811,"lon":121.5229983,"name":"未命名水邊","decorType":"waterside"},{"id":"way-1392173457","lat":25.1304579,"lon":121.5258508,"name":"未命名水邊","decorType":"waterside"},{"id":"way-1420443912","lat":25.1319343,"lon":121.5274486,"name":"未命名森林","decorType":"forest"},{"id":"way-1420443914","lat":25.1293706,"lon":121.5266422,"name":"未命名森林","decorType":"forest"},{"id":"way-1420661241","lat":25.1322298,"lon":121.5282419,"name":"未命名森林","decorType":"forest"}]}