{"bbox":{"south":25.13236875,"north":25.147975,"west":121.47003124999999,"east":121.48306249999999},"pois":[{"id":"node-2482611001","lat":25.1442945,"lon":121.477649,"name":"嗄嘮別山","decorType":"mountain"},{"id":"node-2618514285","lat":25.1334574,"lon":121.4703511,"name":"達文士義大利餐廳","decorType":"restaurant"},{"id":"node-2618523024","lat":25.1332821,"lon":121.4701713,"name":"藝大書店","decorType":"library"},{"id":"node-2950843059","lat":25.1348686,"lon":121.4712187,"name":"OK超商","decorType":"convenience"},{"id":"node-3398072393","lat":25.1359338,"lon":121.4710545,"name":"臺北城市科技大學(後門)","decorType":"bus_stop"},{"id":"node-3398072397","lat":25.1339562,"lon":121.4705721,"name":"北藝大行政大樓","decorType":"bus_stop"},{"id":"node-3398072494","lat":25.1360026,"lon":121.4731366,"name":"北藝大游泳館","decorType":"bus_stop"},{"id":"node-3398072495","lat":25.1397456,"lon":121.4733215,"name":"荒山劇場","decorType":"bus_stop"},{"id":"node-3398072893","lat":25.1348353,"lon":121.4713267,"name":"北藝大圖書館","decorType":"bus_stop"},{"id":"node-3398072894","lat":25.1347335,"lon":121.4712883,"name":"未命名郵局","decorType":"post_office"},{"id":"node-3404124006","lat":25.1326726,"lon":121.4751467,"name":"中央北路","decorType":"bus_stop"},{"id":"node-3404124007","lat":25.1330315,"lon":121.4753175,"name":"中央北路","decorType":"bus_stop"},{"id":"node-3404124008","lat":25.1368261,"lon":121.4818047,"name":"中央北路三段","decorType":"bus_stop"},{"id":"node-3404124009","lat":25.1370817,"lon":121.482238,"name":"中央北路三段","decorType":"bus_stop"},{"id":"node-3404124022","lat":25.1351871,"lon":121.4784714,"name":"行天宮北投分宮忠義站","decorType":"bus_stop"},{"id":"node-3404124036","lat":25.1341523,"lon":121.4769256,"name":"桃源國中","decorType":"bus_stop"},{"id":"node-3404124037","lat":25.1342219,"lon":121.4768469,"name":"桃源國中","decorType":"bus_stop"},{"id":"node-3404124038","lat":25.1352838,"lon":121.4784561,"name":"行天宮北投分宮忠義站","decorType":"bus_stop"},{"id":"node-3820884893","lat":25.135557,"lon":121.4789025,"name":"萊爾富","decorType":"convenience"},{"id":"node-3826769575","lat":25.1332446,"lon":121.4703718,"name":"藝大咖啡","decorType":"cafe"},{"id":"node-3826769576","lat":25.1351786,"lon":121.4711115,"name":"魯旦川鍋","decorType":"restaurant"},{"id":"node-3826769577","lat":25.1334611,"lon":121.471312,"name":"Luguo Cafe / Z Space","decorType":"cafe"},{"id":"node-3834637279","lat":25.13767,"lon":121.472054,"name":"光武山","decorType":"mountain"},{"id":"node-4329768672","lat":25.1365482,"lon":121.4808717,"name":"北投聖玄宮","decorType":"shrine"},{"id":"node-4329769479","lat":25.1353707,"lon":121.4786708,"name":"未命名郵局","decorType":"post_office"},{"id":"node-4329769542","lat":25.1360681,"lon":121.4800149,"name":"順聖宮","decorType":"shrine"},{"id":"node-7794355421","lat":25.1336025,"lon":121.47594,"name":"粟厝","decorType":"restaurant"},{"id":"node-7794355422","lat":25.1352565,"lon":121.4782709,"name":"桃源早餐吧","decorType":"restaurant"},{"id":"node-7794386296","lat":25.1329648,"lon":121.4751763,"name":"幸子菓","decorType":"sweetshop"},{"id":"node-8118014981","lat":25.1324693,"lon":121.4704977,"name":"OK超商","decorType":"convenience"},{"id":"node-8432400191","lat":25.1477176,"lon":121.4814296,"name":"吳仔厝","decorType":"bus_stop"},{"id":"node-8432400194","lat":25.1478661,"lon":121.4817559,"name":"吳仔厝","decorType":"bus_stop"},{"id":"node-10763594228","lat":25.1371665,"lon":121.4763357,"name":"靈應公","decorType":"shrine"},{"id":"way-88196486","lat":25.1327796,"lon":121.4786948,"name":"未命名水邊","decorType":"waterside"},{"id":"way-88196489","lat":25.1324834,"lon":121.4780682,"name":"未命名水邊","decorType":"waterside"},{"id":"way-256161743","lat":25.1336974,"lon":121.4719634,"name":"北藝大圖書館","decorType":"university"},{"id":"way-256161744","lat":25.1367173,"lon":121.473558,"name":"游泳館","decorType":"university"},{"id":"way-256161747","lat":25.1342919,"lon":121.47158,"name":"美術系館","decorType":"university"},{"id":"way-256161748","lat":25.1333822,"lon":121.4702287,"name":"學生活動中心","decorType":"university"},{"id":"way-256161749","lat":25.133282,"lon":121.4704406,"name":"未命名大學&學院","decorType":"university"},{"id":"way-256161766","lat":25.1341009,"lon":121.4703746,"name":"行政大樓","decorType":"university"},{"id":"way-256161773","lat":25.1334497,"lon":121.4714988,"name":"關渡美術館","decorType":"university"},{"id":"way-332661251","lat":25.1346348,"lon":121.4711691,"name":"未命名橋樑","decorType":"bridge"},{"id":"way-334206463","lat":25.1324974,"lon":121.4750471,"name":"未命名橋樑","decorType":"bridge"},{"id":"way-377649921","lat":25.1382912,"lon":121.4827139,"name":"桃源原生植物公園","decorType":"park"},{"id":"way-436266089","lat":25.1345524,"lon":121.4711255,"name":"未命名水邊","decorType":"waterside"},{"id":"way-436266151","lat":25.1401823,"lon":121.4737355,"name":"福德宮","decorType":"shrine"},{"id":"way-461697242","lat":25.1364394,"lon":121.4710702,"name":"立體機車停車場","decorType":"university"},{"id":"way-461697246","lat":25.1361373,"lon":121.4703094,"name":"財經大樓","decorType":"university"},{"id":"way-461697247","lat":25.1355369,"lon":121.470306,"name":"電機系館","decorType":"university"},{"id":"way-547017647","lat":25.1346827,"lon":121.470978,"name":"學生餐廳","decorType":"restaurant"},{"id":"way-548483187","lat":25.1369564,"lon":121.4782591,"name":"行天宮北投分宮圖書室","decorType":"library"},{"id":"way-548483379","lat":25.1380234,"lon":121.4762558,"name":"福慈宮","decorType":"shrine"},{"id":"way-942321742","lat":25.1414149,"lon":121.4735308,"name":"未命名水邊","decorType":"waterside"},{"id":"way-942450965","lat":25.1472075,"lon":121.4722255,"name":"未命名森林","decorType":"forest"},{"id":"way-962687460","lat":25.1361893,"lon":121.473661,"name":"未命名大學&學院","decorType":"university"},{"id":"way-1091688729","lat":25.133091,"lon":121.4778874,"name":"未命名森林","decorType":"forest"},{"id":"way-1392479435","lat":25.1334183,"lon":121.4824863,"name":"未命名水邊","decorType":"waterside"},{"id":"way-1414912453","lat":25.1434174,"lon":121.4728588,"name":"未命名水邊","decorType":"waterside"},{"id":"way-1416663593","lat":25.1462075,"lon":121.4733145,"name":"妙覺寺","decorType":"shrine"},{"id":"way-1443788093","lat":25.1443749,"lon":121.4707562,"name":"樹梅坑溪","decorType":"waterside"},{"id":"way-1443788094","lat":25.1464601,"lon":121.4718651,"name":"樹梅坑溪","decorType":"waterside"},{"id":"way-1443788097","lat":25.1423934,"lon":121.4730309,"name":"未命名水邊","decorType":"waterside"},{"id":"way-1443788098","lat":25.1422386,"lon":121.472923,"name":"未命名水邊","decorType":"waterside"}]}