{"bbox":{"south":25.132369,"north":25.147975,"west":121.548219,"east":121.56125},"pois":[{"id":"node-2482646335","lat":25.146387,"lon":121.555176,"name":"山豬湖山","decorType":"mountain"},{"id":"node-2686007575","lat":25.140969,"lon":121.549665,"name":"磺溪底","decorType":"bus_stop"},{"id":"node-2686007576","lat":25.140833,"lon":121.549955,"name":"磺溪底","decorType":"bus_stop"},{"id":"node-2686009152","lat":25.142757,"lon":121.549257,"name":"格致大亨路口","decorType":"bus_stop"},{"id":"node-2686009153","lat":25.143048,"lon":121.549259,"name":"格致大亨路口","decorType":"bus_stop"},{"id":"node-2686011030","lat":25.145698,"lon":121.549725,"name":"福壽橋","decorType":"bus_stop"},{"id":"node-2686011031","lat":25.145558,"lon":121.549604,"name":"福壽橋","decorType":"bus_stop"},{"id":"node-2686073752","lat":25.147285,"lon":121.55836,"name":"菁山三","decorType":"bus_stop"},{"id":"node-2686074089","lat":25.147246,"lon":121.558455,"name":"菁山三","decorType":"bus_stop"},{"id":"node-2686074090","lat":25.146393,"lon":121.55892,"name":"菁山二","decorType":"bus_stop"},{"id":"node-2686074165","lat":25.146532,"lon":121.558774,"name":"菁山二","decorType":"bus_stop"},{"id":"node-2686074587","lat":25.145097,"lon":121.557559,"name":"菁山一","decorType":"bus_stop"},{"id":"node-2686075407","lat":25.144974,"lon":121.557635,"name":"菁山一","decorType":"bus_stop"},{"id":"node-2686094361","lat":25.142308,"lon":121.556457,"name":"山豬湖","decorType":"bus_stop"},{"id":"node-2686094362","lat":25.142209,"lon":121.556465,"name":"山豬湖","decorType":"bus_stop"},{"id":"node-2686096975","lat":25.142058,"lon":121.558492,"name":"乾坑子","decorType":"bus_stop"},{"id":"node-2686096976","lat":25.142007,"lon":121.558407,"name":"乾坑子","decorType":"bus_stop"},{"id":"node-2686102503","lat":25.144044,"lon":121.559235,"name":"礦寮","decorType":"bus_stop"},{"id":"node-2686102504","lat":25.144019,"lon":121.559361,"name":"礦寮","decorType":"bus_stop"},{"id":"node-2687901223","lat":25.139792,"lon":121.551163,"name":"陽明山泉","decorType":"bus_stop"},{"id":"node-2687902117","lat":25.139291,"lon":121.549781,"name":"淨水廠","decorType":"bus_stop"},{"id":"node-2687902442","lat":25.139051,"lon":121.549551,"name":"淨水廠","decorType":"bus_stop"},{"id":"node-2689308617","lat":25.144016,"lon":121.55738,"name":"菁山莊","decorType":"bus_stop"},{"id":"node-2689308627","lat":25.144096,"lon":121.557321,"name":"菁山莊","decorType":"bus_stop"},{"id":"node-2723146141","lat":25.133143,"lon":121.56089,"name":"館地坪","decorType":"bus_stop"},{"id":"node-3377340030","lat":25.147424,"lon":121.548695,"name":"新薈芳","decorType":"bus_stop"},{"id":"node-6295713325","lat":25.136988,"lon":121.548766,"name":"俺渡歷代聖公媽","decorType":"shrine"},{"id":"node-6314383894","lat":25.140048,"lon":121.5537,"name":"大厝地","decorType":"bus_stop"},{"id":"node-6314383915","lat":25.139764,"lon":121.554181,"name":"福德宮(大厝地)","decorType":"shrine"},{"id":"node-6316312070","lat":25.133662,"lon":121.561045,"name":"未命名神社","decorType":"shrine"},{"id":"node-7194706711","lat":25.144173,"lon":121.559402,"name":"春天心五藝文創園區","decorType":"restaurant"},{"id":"way-379991390","lat":25.146694,"lon":121.549071,"name":"未命名橋樑","decorType":"bridge"},{"id":"way-379991455","lat":25.141854,"lon":121.550723,"name":"松溪","decorType":"waterside"},{"id":"way-380477534","lat":25.146347,"lon":121.549357,"name":"福壽橋","decorType":"bridge"},{"id":"way-381447697","lat":25.134014,"lon":121.549649,"name":"美通橋","decorType":"bridge"},{"id":"way-381447698","lat":25.134101,"lon":121.549548,"name":"中庸一路","decorType":"bridge"},{"id":"way-519055054","lat":25.143376,"lon":121.548668,"name":"雀客藏居","decorType":"hotel"},{"id":"way-584181493","lat":25.134849,"lon":121.549514,"name":"未命名森林","decorType":"forest"},{"id":"way-584181502","lat":25.135065,"lon":121.549589,"name":"未命名水邊","decorType":"waterside"},{"id":"way-584181503","lat":25.135502,"lon":121.549901,"name":"未命名水邊","decorType":"waterside"},{"id":"way-584181504","lat":25.135119,"lon":121.549917,"name":"未命名森林","decorType":"forest"},{"id":"way-584183971","lat":25.135671,"lon":121.549233,"name":"未命名森林","decorType":"forest"},{"id":"way-660415081","lat":25.1373,"lon":121.548715,"name":"天主教聖佳蘭會院","decorType":"shrine"},{"id":"way-674459010","lat":25.14651,"lon":121.558926,"name":"未命名便利商店","decorType":"convenience"},{"id":"way-1104487039","lat":25.146342,"lon":121.549369,"name":"福壽橋","decorType":"bridge"},{"id":"way-1233206388","lat":25.140947,"lon":121.555146,"name":"未命名森林","decorType":"forest"},{"id":"way-1234189267","lat":25.137756,"lon":121.561083,"name":"未命名森林","decorType":"forest"},{"id":"way-1234189268","lat":25.136776,"lon":121.560502,"name":"未命名森林","decorType":"forest"},{"id":"way-1234189269","lat":25.138478,"lon":121.560203,"name":"未命名森林","decorType":"forest"},{"id":"way-1372611058","lat":25.136892,"lon":121.559083,"name":"住六(公一)公園","decorType":"park"},{"id":"way-1372611059","lat":25.137668,"lon":121.557387,"name":"住六(公二)公園","decorType":"park"}]}