{"bbox":{"south":25.132369,"north":25.147975,"west":121.470031,"east":121.483062},"pois":[{"id":"node-2482611001","lat":25.144295,"lon":121.477649,"name":"嗄嘮別山","decorType":"mountain"},{"id":"node-2618514285","lat":25.133457,"lon":121.470351,"name":"達文士義大利餐廳","decorType":"restaurant"},{"id":"node-2618523024","lat":25.133282,"lon":121.470171,"name":"藝大書店","decorType":"library"},{"id":"node-2950843059","lat":25.134869,"lon":121.471219,"name":"OK超商","decorType":"convenience"},{"id":"node-3398072393","lat":25.135934,"lon":121.471055,"name":"臺北城市科技大學(後門)","decorType":"bus_stop"},{"id":"node-3398072397","lat":25.133956,"lon":121.470572,"name":"北藝大行政大樓","decorType":"bus_stop"},{"id":"node-3398072494","lat":25.136003,"lon":121.473137,"name":"北藝大游泳館","decorType":"bus_stop"},{"id":"node-3398072495","lat":25.139746,"lon":121.473322,"name":"荒山劇場","decorType":"bus_stop"},{"id":"node-3398072893","lat":25.134835,"lon":121.471327,"name":"北藝大圖書館","decorType":"bus_stop"},{"id":"node-3398072894","lat":25.134734,"lon":121.471288,"name":"未命名郵局","decorType":"post_office"},{"id":"node-3404124006","lat":25.132673,"lon":121.475147,"name":"中央北路","decorType":"bus_stop"},{"id":"node-3404124007","lat":25.133032,"lon":121.475318,"name":"中央北路","decorType":"bus_stop"},{"id":"node-3404124008","lat":25.136826,"lon":121.481805,"name":"中央北路三段","decorType":"bus_stop"},{"id":"node-3404124009","lat":25.137082,"lon":121.482238,"name":"中央北路三段","decorType":"bus_stop"},{"id":"node-3404124022","lat":25.135187,"lon":121.478471,"name":"行天宮北投分宮忠義站","decorType":"bus_stop"},{"id":"node-3404124036","lat":25.134152,"lon":121.476926,"name":"桃源國中","decorType":"bus_stop"},{"id":"node-3404124037","lat":25.134222,"lon":121.476847,"name":"桃源國中","decorType":"bus_stop"},{"id":"node-3404124038","lat":25.135284,"lon":121.478456,"name":"行天宮北投分宮忠義站","decorType":"bus_stop"},{"id":"node-3820884893","lat":25.135557,"lon":121.478903,"name":"萊爾富","decorType":"convenience"},{"id":"node-3826769575","lat":25.133245,"lon":121.470372,"name":"藝大咖啡","decorType":"cafe"},{"id":"node-3826769576","lat":25.135179,"lon":121.471112,"name":"魯旦川鍋","decorType":"restaurant"},{"id":"node-3826769577","lat":25.133461,"lon":121.471312,"name":"Luguo Cafe / Z Space","decorType":"cafe"},{"id":"node-3834637279","lat":25.13767,"lon":121.472054,"name":"光武山","decorType":"mountain"},{"id":"node-4329768672","lat":25.136548,"lon":121.480872,"name":"北投聖玄宮","decorType":"shrine"},{"id":"node-4329769479","lat":25.135371,"lon":121.478671,"name":"未命名郵局","decorType":"post_office"},{"id":"node-4329769542","lat":25.136068,"lon":121.480015,"name":"順聖宮","decorType":"shrine"},{"id":"node-7794355421","lat":25.133603,"lon":121.47594,"name":"粟厝","decorType":"restaurant"},{"id":"node-7794355422","lat":25.135257,"lon":121.478271,"name":"桃源早餐吧","decorType":"restaurant"},{"id":"node-7794386296","lat":25.132965,"lon":121.475176,"name":"幸子菓","decorType":"sweetshop"},{"id":"node-8118014981","lat":25.132469,"lon":121.470498,"name":"OK超商","decorType":"convenience"},{"id":"node-8432400191","lat":25.147718,"lon":121.48143,"name":"吳仔厝","decorType":"bus_stop"},{"id":"node-8432400194","lat":25.147866,"lon":121.481756,"name":"吳仔厝","decorType":"bus_stop"},{"id":"node-10763594228","lat":25.137167,"lon":121.476336,"name":"靈應公","decorType":"shrine"},{"id":"way-88196486","lat":25.13278,"lon":121.478695,"name":"未命名水邊","decorType":"waterside"},{"id":"way-88196489","lat":25.132483,"lon":121.478068,"name":"未命名水邊","decorType":"waterside"},{"id":"way-256161743","lat":25.133697,"lon":121.471963,"name":"北藝大圖書館","decorType":"university"},{"id":"way-256161744","lat":25.136717,"lon":121.473558,"name":"游泳館","decorType":"university"},{"id":"way-256161747","lat":25.134292,"lon":121.47158,"name":"美術系館","decorType":"university"},{"id":"way-256161748","lat":25.133382,"lon":121.470229,"name":"學生活動中心","decorType":"university"},{"id":"way-256161749","lat":25.133282,"lon":121.470441,"name":"未命名大學&學院","decorType":"university"},{"id":"way-256161766","lat":25.134101,"lon":121.470375,"name":"行政大樓","decorType":"university"},{"id":"way-256161773","lat":25.13345,"lon":121.471499,"name":"關渡美術館","decorType":"university"},{"id":"way-332661251","lat":25.134635,"lon":121.471169,"name":"未命名橋樑","decorType":"bridge"},{"id":"way-334206463","lat":25.132497,"lon":121.475047,"name":"未命名橋樑","decorType":"bridge"},{"id":"way-377649921","lat":25.138291,"lon":121.482714,"name":"桃源原生植物公園","decorType":"park"},{"id":"way-436266089","lat":25.134552,"lon":121.471126,"name":"未命名水邊","decorType":"waterside"},{"id":"way-436266151","lat":25.140182,"lon":121.473736,"name":"福德宮","decorType":"shrine"},{"id":"way-461697242","lat":25.136439,"lon":121.47107,"name":"立體機車停車場","decorType":"university"},{"id":"way-461697246","lat":25.136137,"lon":121.470309,"name":"財經大樓","decorType":"university"},{"id":"way-461697247","lat":25.135537,"lon":121.470306,"name":"電機系館","decorType":"university"},{"id":"way-547017647","lat":25.134683,"lon":121.470978,"name":"學生餐廳","decorType":"restaurant"},{"id":"way-548483187","lat":25.136956,"lon":121.478259,"name":"行天宮北投分宮圖書室","decorType":"library"},{"id":"way-548483379","lat":25.138023,"lon":121.476256,"name":"福慈宮","decorType":"shrine"},{"id":"way-942321742","lat":25.141415,"lon":121.473531,"name":"未命名水邊","decorType":"waterside"},{"id":"way-942450965","lat":25.147208,"lon":121.472226,"name":"未命名森林","decorType":"forest"},{"id":"way-962687460","lat":25.136189,"lon":121.473661,"name":"未命名大學&學院","decorType":"university"},{"id":"way-1091688729","lat":25.133091,"lon":121.477887,"name":"未命名森林","decorType":"forest"},{"id":"way-1392479435","lat":25.133418,"lon":121.482486,"name":"未命名水邊","decorType":"waterside"},{"id":"way-1414912453","lat":25.143417,"lon":121.472859,"name":"未命名水邊","decorType":"waterside"},{"id":"way-1416663593","lat":25.146208,"lon":121.473315,"name":"妙覺寺","decorType":"shrine"},{"id":"way-1443788093","lat":25.144375,"lon":121.470756,"name":"樹梅坑溪","decorType":"waterside"},{"id":"way-1443788094","lat":25.14646,"lon":121.471865,"name":"樹梅坑溪","decorType":"waterside"},{"id":"way-1443788097","lat":25.142393,"lon":121.473031,"name":"未命名水邊","decorType":"waterside"},{"id":"way-1443788098","lat":25.142239,"lon":121.472923,"name":"未命名水邊","decorType":"waterside"}]}