{"bbox":{"south":25.147975,"north":25.163581,"west":121.587313,"east":121.600344},"pois":[{"id":"way-575410348","lat":25.148337,"lon":121.591035,"name":"未命名水邊","decorType":"waterside"},{"id":"way-575410349","lat":25.148863,"lon":121.59207,"name":"未命名水邊","decorType":"waterside"},{"id":"node-2299778882","lat":25.16064,"lon":121.587535,"name":"石梯嶺","decorType":"mountain"},{"id":"node-2482646849","lat":25.151519,"lon":121.588277,"name":"高頂山","decorType":"mountain"},{"id":"node-2482647225","lat":25.1508,"lon":121.591314,"name":"北頂山","decorType":"mountain"},{"id":"node-2482647239","lat":25.153432,"lon":121.588599,"name":"北五指山","decorType":"mountain"},{"id":"node-2482647255","lat":25.155264,"lon":121.591627,"name":"杏林山","decorType":"mountain"},{"id":"node-5585727565","lat":25.148847,"lon":121.593861,"name":"頂山","decorType":"mountain"},{"id":"node-10750611001","lat":25.158017,"lon":121.589752,"name":"杏林山北","decorType":"mountain"},{"id":"way-344196499","lat":25.155203,"lon":121.600015,"name":"未命名水邊","decorType":"waterside"},{"id":"way-344196501","lat":25.155003,"lon":121.600256,"name":"未命名水邊","decorType":"waterside"},{"id":"way-344196503","lat":25.154902,"lon":121.599693,"name":"未命名水邊","decorType":"waterside"},{"id":"way-344196505","lat":25.155339,"lon":121.599973,"name":"未命名水邊","decorType":"waterside"},{"id":"way-575410347","lat":25.149131,"lon":121.593283,"name":"未命名水邊","decorType":"waterside"},{"id":"way-1450364849","lat":25.157247,"lon":121.598686,"name":"瑪鋉溪","decorType":"waterside"}]}