{"bbox":{"south":25.147975,"north":25.16358125,"west":121.5873125,"east":121.60034375},"pois":[{"id":"way-575410348","lat":25.1483366,"lon":121.591035,"name":"未命名水邊","decorType":"waterside"},{"id":"way-575410349","lat":25.1488629,"lon":121.5920704,"name":"未命名水邊","decorType":"waterside"},{"id":"node-2299778882","lat":25.1606402,"lon":121.587535,"name":"石梯嶺","decorType":"mountain"},{"id":"node-2482646849","lat":25.1515189,"lon":121.5882767,"name":"高頂山","decorType":"mountain"},{"id":"node-2482647225","lat":25.1507996,"lon":121.5913144,"name":"北頂山","decorType":"mountain"},{"id":"node-2482647239","lat":25.1534318,"lon":121.5885985,"name":"北五指山","decorType":"mountain"},{"id":"node-2482647255","lat":25.1552642,"lon":121.591627,"name":"杏林山","decorType":"mountain"},{"id":"node-5585727565","lat":25.1488471,"lon":121.5938609,"name":"頂山","decorType":"mountain"},{"id":"node-10750611001","lat":25.1580167,"lon":121.5897524,"name":"杏林山北","decorType":"mountain"},{"id":"way-344196499","lat":25.1552034,"lon":121.6000152,"name":"未命名水邊","decorType":"waterside"},{"id":"way-344196501","lat":25.1550031,"lon":121.6002555,"name":"未命名水邊","decorType":"waterside"},{"id":"way-344196503","lat":25.154902,"lon":121.5996926,"name":"未命名水邊","decorType":"waterside"},{"id":"way-344196505","lat":25.1553386,"lon":121.5999733,"name":"未命名水邊","decorType":"waterside"},{"id":"way-575410347","lat":25.1491306,"lon":121.5932833,"name":"未命名水邊","decorType":"waterside"},{"id":"way-1450364849","lat":25.1572465,"lon":121.5986856,"name":"瑪鋉溪","decorType":"waterside"}]}