{"bbox":{"south":25.163581,"north":25.179188,"west":121.600344,"east":121.613375},"pois":[{"id":"node-2319980873","lat":25.176743,"lon":121.606318,"name":"磺嘴山","decorType":"mountain"},{"id":"node-2482626166","lat":25.168721,"lon":121.612864,"name":"鹿堀坪山","decorType":"mountain"},{"id":"node-12025479538","lat":25.176327,"lon":121.604225,"name":"未命名山丘","decorType":"mountain"},{"id":"way-568853320","lat":25.178489,"lon":121.604865,"name":"磺嘴山舊火山口","decorType":"mountain"},{"id":"way-575244572","lat":25.166278,"lon":121.613125,"name":"未命名水邊","decorType":"waterside"},{"id":"way-575244573","lat":25.165899,"lon":121.609584,"name":"未命名水邊","decorType":"waterside"},{"id":"way-1231795141","lat":25.1785,"lon":121.60457,"name":"未命名森林","decorType":"forest"},{"id":"way-1231795143","lat":25.177148,"lon":121.60516,"name":"未命名森林","decorType":"forest"}]}