{"bbox":{"south":25.16358125,"north":25.1791875,"west":121.60034375,"east":121.61337499999999},"pois":[{"id":"node-2319980873","lat":25.1767431,"lon":121.6063179,"name":"ç£ºå˜´å±±","decorType":"mountain","decorName":"å±±ä¸˜","decorIcon":"â›°ï¸"},{"id":"node-2482626166","lat":25.1687211,"lon":121.612864,"name":"é¹¿å €åªå±±","decorType":"mountain","decorName":"å±±ä¸˜","decorIcon":"â›°ï¸"},{"id":"node-12025479538","lat":25.1763271,"lon":121.6042251,"name":"æœªå‘½åå±±ä¸˜","decorType":"mountain","decorName":"å±±ä¸˜","decorIcon":"â›°ï¸"},{"id":"way-568853320","lat":25.1784891,"lon":121.6048654,"name":"ç£ºå˜´å±±èˆŠç«å±±å£","decorType":"mountain","decorName":"å±±ä¸˜","decorIcon":"â›°ï¸"},{"id":"way-575244572","lat":25.166278,"lon":121.613125,"name":"æœªå‘½åæ°´é‚Š","decorType":"waterside","decorName":"æ°´é‚Š","decorIcon":"ğŸŒŠ"},{"id":"way-575244573","lat":25.1658986,"lon":121.6095844,"name":"æœªå‘½åæ°´é‚Š","decorType":"waterside","decorName":"æ°´é‚Š","decorIcon":"ğŸŒŠ"},{"id":"way-1231795141","lat":25.1784996,"lon":121.6045702,"name":"æœªå‘½åæ£®æ—","decorType":"forest","decorName":"æ£®æ—","decorIcon":"ğŸŒ²"},{"id":"way-1231795143","lat":25.1771481,"lon":121.6051604,"name":"æœªå‘½åæ£®æ—","decorType":"forest","decorName":"æ£®æ—","decorIcon":"ğŸŒ²"}]}