{"bbox":{"south":25.1791875,"north":25.19479375,"west":121.52215625,"east":121.53518749999999},"pois":[{"id":"node-2432586930","lat":25.1860871,"lon":121.5256236,"name":"二子坪","decorType":"bus_stop"},{"id":"node-2482626197","lat":25.1888981,"lon":121.533044,"name":"小觀音山西峰","decorType":"mountain"},{"id":"node-2949195384","lat":25.1828794,"lon":121.5300553,"name":"鞍部","decorType":"bus_stop"},{"id":"node-4307465176","lat":25.1860863,"lon":121.5252146,"name":"二子坪合作社","decorType":"convenience"},{"id":"node-4791401844","lat":25.190689,"lon":121.5324094,"name":"小觀音山西西峰","decorType":"mountain"},{"id":"node-5920783568","lat":25.1938359,"lon":121.5335859,"name":"清風崙","decorType":"mountain"},{"id":"node-11826431458","lat":25.1867652,"lon":121.5351865,"name":"小觀音山西南峰","decorType":"mountain"},{"id":"node-11827893095","lat":25.1897721,"lon":121.522266,"name":"菜公坑山","decorType":"mountain"},{"id":"way-230730615","lat":25.1868376,"lon":121.5227931,"name":"未命名水邊","decorType":"waterside"},{"id":"way-293151415","lat":25.1863825,"lon":121.5225784,"name":"大屯自然公園","decorType":"park"},{"id":"way-428367644","lat":25.1913818,"lon":121.5263984,"name":"大屯溪","decorType":"waterside"},{"id":"way-428367648","lat":25.1941603,"lon":121.5350876,"name":"未命名水邊","decorType":"waterside"},{"id":"way-1232567110","lat":25.1888496,"lon":121.534575,"name":"未命名森林","decorType":"forest"},{"id":"way-1301523333","lat":25.1829239,"lon":121.5302267,"name":"大屯溪","decorType":"waterside"},{"id":"way-1301523334","lat":25.1830355,"lon":121.5306935,"name":"大屯溪","decorType":"waterside"}]}