{"bbox":{"south":25.1791875,"north":25.19479375,"west":121.57428125,"east":121.5873125},"pois":[{"id":"node-2482646334","lat":25.1874861,"lon":121.5776693,"name":"下七股山","decorType":"mountain"},{"id":"node-3377419332","lat":25.1796174,"lon":121.582615,"name":"上磺溪橋","decorType":"bus_stop"},{"id":"node-3377419333","lat":25.1797265,"lon":121.582459,"name":"上磺溪橋","decorType":"bus_stop"},{"id":"node-3377419338","lat":25.1797819,"lon":121.5797029,"name":"大油坑","decorType":"bus_stop"},{"id":"node-3377419339","lat":25.1798286,"lon":121.5797918,"name":"大油坑","decorType":"bus_stop"},{"id":"node-4371458199","lat":25.1868,"lon":121.5855865,"name":"頂八煙","decorType":"bus_stop"},{"id":"node-4371458200","lat":25.1869056,"lon":121.5857227,"name":"頂八煙","decorType":"bus_stop"},{"id":"way-87104539","lat":25.1795198,"lon":121.5822753,"name":"上磺溪橋","decorType":"bridge"},{"id":"way-327384078","lat":25.1886399,"lon":121.585601,"name":"未命名森林","decorType":"forest"},{"id":"way-622555935","lat":25.1936038,"lon":121.5753728,"name":"未命名水邊","decorType":"waterside"},{"id":"way-1104487034","lat":25.179528,"lon":121.5822774,"name":"上磺溪橋","decorType":"bridge"},{"id":"way-1434020476","lat":25.1947606,"lon":121.5813147,"name":"鹿角坑溪","decorType":"waterside"},{"id":"way-1434020477","lat":25.1945422,"lon":121.5749095,"name":"鹿角坑溪","decorType":"waterside"},{"id":"way-1434020479","lat":25.1944029,"lon":121.5787815,"name":"鹿角坑溪","decorType":"waterside"}]}