{"bbox":{"south":25.1791875,"north":25.19479375,"west":121.62640624999999,"east":121.6394375},"pois":[{"id":"node-2482626164","lat":25.186921,"lon":121.6315891,"name":"èµ¤çŸ³å…­å±±","decorType":"mountain","decorName":"å±±ä¸˜","decorIcon":"â›°ï¸"},{"id":"node-12025479541","lat":25.1870171,"lon":121.629608,"name":"æœªå‘½åå±±ä¸˜","decorType":"mountain","decorName":"å±±ä¸˜","decorIcon":"â›°ï¸"},{"id":"way-230933206","lat":25.1929209,"lon":121.6308294,"name":"æ¸…æ°´æºª","decorType":"waterside","decorName":"æ°´é‚Š","decorIcon":"ğŸŒŠ"},{"id":"way-230933208","lat":25.1819339,"lon":121.630964,"name":"å“¡æ½­æºª","decorType":"waterside","decorName":"æ°´é‚Š","decorIcon":"ğŸŒŠ"},{"id":"way-890987538","lat":25.1877458,"lon":121.6388896,"name":"æœªå‘½åæ°´é‚Š","decorType":"waterside","decorName":"æ°´é‚Š","decorIcon":"ğŸŒŠ"},{"id":"way-890987569","lat":25.1880297,"lon":121.6374527,"name":"é”å¤©è·¯","decorType":"bridge","decorName":"æ©‹æ¨‘","decorIcon":"ğŸŒ‰"}]}