{"bbox":{"south":25.179188,"north":25.194794,"west":121.626406,"east":121.639438},"pois":[{"id":"node-2482626164","lat":25.186921,"lon":121.631589,"name":"赤石六山","decorType":"mountain"},{"id":"node-12025479541","lat":25.187017,"lon":121.629608,"name":"未命名山丘","decorType":"mountain"},{"id":"way-230933206","lat":25.192921,"lon":121.630829,"name":"清水溪","decorType":"waterside"},{"id":"way-230933208","lat":25.181934,"lon":121.630964,"name":"員潭溪","decorType":"waterside"},{"id":"way-890987538","lat":25.187746,"lon":121.63889,"name":"未命名水邊","decorType":"waterside"},{"id":"way-890987569","lat":25.18803,"lon":121.637453,"name":"達天路","decorType":"bridge"}]}