{"bbox":{"south":25.1791875,"north":25.19479375,"west":121.62640624999999,"east":121.6394375},"pois":[{"id":"node-2482626164","lat":25.186921,"lon":121.6315891,"name":"赤石六山","decorType":"mountain"},{"id":"node-12025479541","lat":25.1870171,"lon":121.629608,"name":"未命名山丘","decorType":"mountain"},{"id":"way-230933206","lat":25.1929209,"lon":121.6308294,"name":"清水溪","decorType":"waterside"},{"id":"way-230933208","lat":25.1819339,"lon":121.630964,"name":"員潭溪","decorType":"waterside"},{"id":"way-890987538","lat":25.1877458,"lon":121.6388896,"name":"未命名水邊","decorType":"waterside"},{"id":"way-890987569","lat":25.1880297,"lon":121.6374527,"name":"達天路","decorType":"bridge"}]}