{"bbox":{"south":25.179188,"north":25.194794,"west":121.522156,"east":121.535187},"pois":[{"id":"node-2432586930","lat":25.186087,"lon":121.525624,"name":"二子坪","decorType":"bus_stop"},{"id":"node-2482626197","lat":25.188898,"lon":121.533044,"name":"小觀音山西峰","decorType":"mountain"},{"id":"node-2949195384","lat":25.182879,"lon":121.530055,"name":"鞍部","decorType":"bus_stop"},{"id":"node-4307465176","lat":25.186086,"lon":121.525215,"name":"二子坪合作社","decorType":"convenience"},{"id":"node-4791401844","lat":25.190689,"lon":121.532409,"name":"小觀音山西西峰","decorType":"mountain"},{"id":"node-5920783568","lat":25.193836,"lon":121.533586,"name":"清風崙","decorType":"mountain"},{"id":"node-11826431458","lat":25.186765,"lon":121.535187,"name":"小觀音山西南峰","decorType":"mountain"},{"id":"node-11827893095","lat":25.189772,"lon":121.522266,"name":"菜公坑山","decorType":"mountain"},{"id":"way-230730615","lat":25.186838,"lon":121.522793,"name":"未命名水邊","decorType":"waterside"},{"id":"way-293151415","lat":25.186383,"lon":121.522578,"name":"大屯自然公園","decorType":"park"},{"id":"way-428367644","lat":25.191382,"lon":121.526398,"name":"大屯溪","decorType":"waterside"},{"id":"way-428367648","lat":25.19416,"lon":121.535088,"name":"未命名水邊","decorType":"waterside"},{"id":"way-1232567110","lat":25.18885,"lon":121.534575,"name":"未命名森林","decorType":"forest"},{"id":"way-1301523333","lat":25.182924,"lon":121.530227,"name":"大屯溪","decorType":"waterside"},{"id":"way-1301523334","lat":25.183036,"lon":121.530694,"name":"大屯溪","decorType":"waterside"}]}