{"bbox":{"south":25.179188,"north":25.194794,"west":121.574281,"east":121.587313},"pois":[{"id":"node-2482646334","lat":25.187486,"lon":121.577669,"name":"下七股山","decorType":"mountain"},{"id":"node-3377419332","lat":25.179617,"lon":121.582615,"name":"上磺溪橋","decorType":"bus_stop"},{"id":"node-3377419333","lat":25.179727,"lon":121.582459,"name":"上磺溪橋","decorType":"bus_stop"},{"id":"node-3377419338","lat":25.179782,"lon":121.579703,"name":"大油坑","decorType":"bus_stop"},{"id":"node-3377419339","lat":25.179829,"lon":121.579792,"name":"大油坑","decorType":"bus_stop"},{"id":"node-4371458199","lat":25.1868,"lon":121.585587,"name":"頂八煙","decorType":"bus_stop"},{"id":"node-4371458200","lat":25.186906,"lon":121.585723,"name":"頂八煙","decorType":"bus_stop"},{"id":"way-87104539","lat":25.17952,"lon":121.582275,"name":"上磺溪橋","decorType":"bridge"},{"id":"way-327384078","lat":25.18864,"lon":121.585601,"name":"未命名森林","decorType":"forest"},{"id":"way-622555935","lat":25.193604,"lon":121.575373,"name":"未命名水邊","decorType":"waterside"},{"id":"way-1104487034","lat":25.179528,"lon":121.582277,"name":"上磺溪橋","decorType":"bridge"},{"id":"way-1434020476","lat":25.194761,"lon":121.581315,"name":"鹿角坑溪","decorType":"waterside"},{"id":"way-1434020477","lat":25.194542,"lon":121.57491,"name":"鹿角坑溪","decorType":"waterside"},{"id":"way-1434020479","lat":25.194403,"lon":121.578782,"name":"鹿角坑溪","decorType":"waterside"}]}