{"bbox":{"south":25.1791875,"north":25.19479375,"west":121.52215625,"east":121.53518749999999},"pois":[{"id":"node-2432586930","lat":25.1860871,"lon":121.5256236,"name":"äºŒå­åª","decorType":"bus_stop","decorName":"å…¬è»Šç«™","decorIcon":"ğŸšŒ"},{"id":"node-2482626197","lat":25.1888981,"lon":121.533044,"name":"å°è§€éŸ³å±±è¥¿å³°","decorType":"mountain","decorName":"å±±ä¸˜","decorIcon":"â›°ï¸"},{"id":"node-2949195384","lat":25.1828794,"lon":121.5300553,"name":"ééƒ¨","decorType":"bus_stop","decorName":"å…¬è»Šç«™","decorIcon":"ğŸšŒ"},{"id":"node-4307465176","lat":25.1860863,"lon":121.5252146,"name":"äºŒå­åªåˆä½œç¤¾","decorType":"convenience","decorName":"ä¾¿åˆ©å•†åº—","decorIcon":"ğŸª"},{"id":"node-4791401844","lat":25.190689,"lon":121.5324094,"name":"å°è§€éŸ³å±±è¥¿è¥¿å³°","decorType":"mountain","decorName":"å±±ä¸˜","decorIcon":"â›°ï¸"},{"id":"node-5920783568","lat":25.1938359,"lon":121.5335859,"name":"æ¸…é¢¨å´™","decorType":"mountain","decorName":"å±±ä¸˜","decorIcon":"â›°ï¸"},{"id":"node-11826431458","lat":25.1867652,"lon":121.5351865,"name":"å°è§€éŸ³å±±è¥¿å—å³°","decorType":"mountain","decorName":"å±±ä¸˜","decorIcon":"â›°ï¸"},{"id":"node-11827893095","lat":25.1897721,"lon":121.522266,"name":"èœå…¬å‘å±±","decorType":"mountain","decorName":"å±±ä¸˜","decorIcon":"â›°ï¸"},{"id":"way-230730615","lat":25.1868376,"lon":121.5227931,"name":"æœªå‘½åæ°´é‚Š","decorType":"waterside","decorName":"æ°´é‚Š","decorIcon":"ğŸŒŠ"},{"id":"way-293151415","lat":25.1863825,"lon":121.5225784,"name":"å¤§å±¯è‡ªç„¶å…¬åœ’","decorType":"park","decorName":"å…¬åœ’","decorIcon":"ğŸ€"},{"id":"way-428367644","lat":25.1913818,"lon":121.5263984,"name":"å¤§å±¯æºª","decorType":"waterside","decorName":"æ°´é‚Š","decorIcon":"ğŸŒŠ"},{"id":"way-428367648","lat":25.1941603,"lon":121.5350876,"name":"æœªå‘½åæ°´é‚Š","decorType":"waterside","decorName":"æ°´é‚Š","decorIcon":"ğŸŒŠ"},{"id":"way-1232567110","lat":25.1888496,"lon":121.534575,"name":"æœªå‘½åæ£®æ—","decorType":"forest","decorName":"æ£®æ—","decorIcon":"ğŸŒ²"},{"id":"way-1301523333","lat":25.1829239,"lon":121.5302267,"name":"å¤§å±¯æºª","decorType":"waterside","decorName":"æ°´é‚Š","decorIcon":"ğŸŒŠ"},{"id":"way-1301523334","lat":25.1830355,"lon":121.5306935,"name":"å¤§å±¯æºª","decorType":"waterside","decorName":"æ°´é‚Š","decorIcon":"ğŸŒŠ"}]}