{"bbox":{"south":25.19479375,"north":25.2104,"west":121.457,"east":121.47003124999999},"pois":[{"id":"node-8432400064","lat":25.195086,"lon":121.466543,"name":"大王廟","decorType":"bus_stop"},{"id":"node-8432400088","lat":25.195182,"lon":121.469776,"name":"大竹圍","decorType":"bus_stop"},{"id":"node-8432400203","lat":25.205148,"lon":121.4682534,"name":"康華別墅","decorType":"bus_stop"},{"id":"node-8432400204","lat":25.205046,"lon":121.4683017,"name":"康華別墅","decorType":"bus_stop"},{"id":"node-8432400249","lat":25.205175,"lon":121.4602188,"name":"奎柔山路295號","decorType":"bus_stop"},{"id":"node-8432400784","lat":25.204709,"lon":121.463766,"name":"水汴頭","decorType":"bus_stop"},{"id":"node-8432400790","lat":25.195087,"lon":121.4664322,"name":"大王廟","decorType":"bus_stop"},{"id":"node-8432400797","lat":25.19925,"lon":121.467163,"name":"埤島里9鄰","decorType":"bus_stop"},{"id":"node-8432400798","lat":25.199253,"lon":121.46813,"name":"埤島里9鄰","decorType":"bus_stop"},{"id":"node-8432400800","lat":25.196183,"lon":121.4608333,"name":"埤島里總站","decorType":"bus_stop"},{"id":"node-8432400801","lat":25.2000452,"lon":121.4608765,"name":"埤島里","decorType":"bus_stop"},{"id":"node-8432400802","lat":25.199953,"lon":121.4608711,"name":"埤島里","decorType":"bus_stop"},{"id":"way-327399202","lat":25.2062832,"lon":121.4691056,"name":"未命名水邊","decorType":"waterside"},{"id":"way-344949719","lat":25.2054602,"lon":121.4620297,"name":"未命名森林","decorType":"forest"},{"id":"way-627318927","lat":25.1976947,"lon":121.4614753,"name":"未命名橋樑","decorType":"bridge"},{"id":"way-627318930","lat":25.1977683,"lon":121.4618858,"name":"未命名橋樑","decorType":"bridge"},{"id":"way-627318932","lat":25.1973163,"lon":121.4627101,"name":"水尾橋","decorType":"bridge"},{"id":"way-627327983","lat":25.2014781,"lon":121.4613973,"name":"未命名橋樑","decorType":"bridge"},{"id":"way-761966897","lat":25.2028963,"lon":121.458985,"name":"未命名水邊","decorType":"waterside"},{"id":"way-839343222","lat":25.2029823,"lon":121.4588171,"name":"未命名橋樑","decorType":"bridge"}]}