{"bbox":{"south":25.194794,"north":25.2104,"west":121.652469,"east":121.6655},"pois":[{"id":"node-3436602871","lat":25.20716,"lon":121.659678,"name":"台電北展館","decorType":"bus_stop"},{"id":"node-3436602872","lat":25.207325,"lon":121.659859,"name":"台電北展館","decorType":"bus_stop"},{"id":"node-3436603196","lat":25.209456,"lon":121.656395,"name":"頂寮","decorType":"bus_stop"},{"id":"node-3436603197","lat":25.20962,"lon":121.656368,"name":"頂寮","decorType":"bus_stop"},{"id":"node-4524864120","lat":25.209894,"lon":121.656795,"name":"順天府","decorType":"shrine"},{"id":"node-4535740790","lat":25.20968,"lon":121.656873,"name":"全家便利商店","decorType":"convenience"},{"id":"node-5602810122","lat":25.209171,"lon":121.654805,"name":"豆花王","decorType":"burger"},{"id":"node-8267319249","lat":25.209295,"lon":121.6549,"name":"玉珍珠現烤玉米","decorType":"restaurant"},{"id":"node-11363813694","lat":25.208937,"lon":121.654772,"name":"是味檸檬汁","decorType":"burger"},{"id":"node-11363820626","lat":25.208951,"lon":121.654865,"name":"知味鄉玉米","decorType":"restaurant"},{"id":"way-200118425","lat":25.19494,"lon":121.660347,"name":"太和宮","decorType":"shrine"},{"id":"way-207641192","lat":25.215845,"lon":121.655499,"name":"未命名海邊","decorType":"beach"},{"id":"way-236056320","lat":25.208399,"lon":121.66306,"name":"核二廠冷卻水出水口","decorType":"waterside"},{"id":"way-395738023","lat":25.205803,"lon":121.660496,"name":"未命名森林","decorType":"forest"},{"id":"way-395738024","lat":25.201116,"lon":121.658069,"name":"未命名森林","decorType":"forest"},{"id":"way-395738025","lat":25.206148,"lon":121.654994,"name":"未命名森林","decorType":"forest"},{"id":"way-395738030","lat":25.204382,"lon":121.660531,"name":"未命名森林","decorType":"forest"},{"id":"way-395738036","lat":25.197582,"lon":121.660294,"name":"未命名森林","decorType":"forest"},{"id":"way-395738045","lat":25.201862,"lon":121.653478,"name":"未命名森林","decorType":"forest"},{"id":"way-536718884","lat":25.206557,"lon":121.658802,"name":"台電北部展示館","decorType":"art_gallery"},{"id":"way-1284808133","lat":25.197396,"lon":121.658741,"name":"未命名水邊","decorType":"waterside"},{"id":"way-1284808134","lat":25.197376,"lon":121.657124,"name":"未命名水邊","decorType":"waterside"},{"id":"way-1348647869","lat":25.209257,"lon":121.657296,"name":"頂寮公園","decorType":"park"}]}