{"bbox":{"south":25.194794,"north":25.2104,"west":121.587313,"east":121.600344},"pois":[{"id":"node-4107778589","lat":25.199164,"lon":121.596506,"name":"金山金法林","decorType":"shrine"},{"id":"node-4371456880","lat":25.206975,"lon":121.59459,"name":"強薪(陽明山水、八煙溫泉)","decorType":"bus_stop"},{"id":"node-4371456881","lat":25.206999,"lon":121.594397,"name":"強薪(陽明山水、八煙溫泉)","decorType":"bus_stop"},{"id":"node-4371456884","lat":25.209463,"lon":121.597709,"name":"林莊","decorType":"bus_stop"},{"id":"node-4371456885","lat":25.209589,"lon":121.597323,"name":"林莊","decorType":"bus_stop"},{"id":"node-4371458197","lat":25.196742,"lon":121.595032,"name":"金山農場(天籟溫泉會館)","decorType":"bus_stop"},{"id":"node-4371458198","lat":25.197559,"lon":121.595131,"name":"金山農場(天籟溫泉會館)","decorType":"bus_stop"},{"id":"node-8267333547","lat":25.198642,"lon":121.597409,"name":"風之庭餐坊","decorType":"restaurant"},{"id":"node-8267333573","lat":25.209562,"lon":121.596914,"name":"奇峰石溫泉餐廳","decorType":"restaurant"},{"id":"way-199077926","lat":25.202806,"lon":121.592345,"name":"八煙溫泉會館","decorType":"hotel"},{"id":"way-228885786","lat":25.206497,"lon":121.594016,"name":"陽明山水","decorType":"hotel"},{"id":"way-286408355","lat":25.197666,"lon":121.589008,"name":"野溪溫泉","decorType":"waterside"},{"id":"way-286408366","lat":25.195561,"lon":121.589713,"name":"未命名水邊","decorType":"waterside"},{"id":"way-286408370","lat":25.208031,"lon":121.593614,"name":"未命名橋樑","decorType":"bridge"},{"id":"way-286408373","lat":25.208544,"lon":121.593199,"name":"未命名橋樑","decorType":"bridge"},{"id":"way-327384091","lat":25.210254,"lon":121.590145,"name":"未命名水邊","decorType":"waterside"},{"id":"way-333838638","lat":25.210847,"lon":121.593767,"name":"未命名森林","decorType":"forest"},{"id":"way-380665324","lat":25.197498,"lon":121.595749,"name":"秀峰橋","decorType":"bridge"},{"id":"way-380665332","lat":25.196961,"lon":121.595219,"name":"未命名公園","decorType":"park"},{"id":"way-380665333","lat":25.19767,"lon":121.595187,"name":"三重橋","decorType":"bridge"},{"id":"way-428367661","lat":25.20928,"lon":121.594104,"name":"未命名水邊","decorType":"waterside"},{"id":"way-428367662","lat":25.210306,"lon":121.594982,"name":"磺溪","decorType":"waterside"},{"id":"way-1115861557","lat":25.20205,"lon":121.595278,"name":"陽明山天籟渡假酒店","decorType":"hotel"},{"id":"way-1115861567","lat":25.200882,"lon":121.599323,"name":"出霧溫泉","decorType":"hotel"},{"id":"way-1318240891","lat":25.208739,"lon":121.588862,"name":"未命名橋樑","decorType":"bridge"},{"id":"way-1318240893","lat":25.209325,"lon":121.58966,"name":"未命名橋樑","decorType":"bridge"},{"id":"way-1441613760","lat":25.200037,"lon":121.591753,"name":"八煙溪","decorType":"waterside"},{"id":"way-1441613761","lat":25.199917,"lon":121.591875,"name":"八煙溪","decorType":"waterside"},{"id":"way-1441613802","lat":25.1986,"lon":121.594016,"name":"八煙溪","decorType":"waterside"},{"id":"way-1441613803","lat":25.197291,"lon":121.596151,"name":"八煙溪","decorType":"waterside"}]}