{"bbox":{"south":25.19479375,"north":25.2104,"west":121.65246875,"east":121.6655},"pois":[{"id":"node-3436602871","lat":25.2071597,"lon":121.659678,"name":"台電北展館","decorType":"bus_stop"},{"id":"node-3436602872","lat":25.2073253,"lon":121.6598589,"name":"台電北展館","decorType":"bus_stop"},{"id":"node-3436603196","lat":25.209456,"lon":121.656395,"name":"頂寮","decorType":"bus_stop"},{"id":"node-3436603197","lat":25.2096202,"lon":121.6563684,"name":"頂寮","decorType":"bus_stop"},{"id":"node-4524864120","lat":25.2098938,"lon":121.6567946,"name":"順天府","decorType":"shrine"},{"id":"node-4535740790","lat":25.2096798,"lon":121.6568731,"name":"全家便利商店","decorType":"convenience"},{"id":"node-5602810122","lat":25.2091712,"lon":121.6548054,"name":"豆花王","decorType":"burger"},{"id":"node-8267319249","lat":25.209295,"lon":121.6549,"name":"玉珍珠現烤玉米","decorType":"restaurant"},{"id":"node-11363813694","lat":25.2089365,"lon":121.6547716,"name":"是味檸檬汁","decorType":"burger"},{"id":"node-11363820626","lat":25.2089507,"lon":121.6548646,"name":"知味鄉玉米","decorType":"restaurant"},{"id":"way-200118425","lat":25.1949396,"lon":121.6603473,"name":"太和宮","decorType":"shrine"},{"id":"way-207641192","lat":25.2158446,"lon":121.6554991,"name":"未命名海邊","decorType":"beach"},{"id":"way-236056320","lat":25.2083987,"lon":121.6630595,"name":"核二廠冷卻水出水口","decorType":"waterside"},{"id":"way-395738023","lat":25.2058027,"lon":121.6604963,"name":"未命名森林","decorType":"forest"},{"id":"way-395738024","lat":25.2011156,"lon":121.6580687,"name":"未命名森林","decorType":"forest"},{"id":"way-395738025","lat":25.2061477,"lon":121.6549936,"name":"未命名森林","decorType":"forest"},{"id":"way-395738030","lat":25.2043816,"lon":121.6605308,"name":"未命名森林","decorType":"forest"},{"id":"way-395738036","lat":25.1975815,"lon":121.6602944,"name":"未命名森林","decorType":"forest"},{"id":"way-395738045","lat":25.2018617,"lon":121.6534783,"name":"未命名森林","decorType":"forest"},{"id":"way-536718884","lat":25.2065571,"lon":121.6588021,"name":"台電北部展示館","decorType":"art_gallery"},{"id":"way-1284808133","lat":25.197396,"lon":121.658741,"name":"未命名水邊","decorType":"waterside"},{"id":"way-1284808134","lat":25.1973762,"lon":121.6571243,"name":"未命名水邊","decorType":"waterside"},{"id":"way-1348647869","lat":25.2092569,"lon":121.6572961,"name":"頂寮公園","decorType":"park"}]}