{"bbox":{"south":25.19479375,"north":25.2104,"west":121.54821874999999,"east":121.56125},"pois":[{"id":"node-2482624943","lat":25.208707,"lon":121.5562751,"name":"嵩山","decorType":"mountain"},{"id":"node-2482646874","lat":25.1967091,"lon":121.5510821,"name":"小嵩山","decorType":"mountain"},{"id":"node-3833696314","lat":25.2101233,"lon":121.5596714,"name":"竹子山前峰","decorType":"mountain"},{"id":"node-10762923797","lat":25.207703,"lon":121.5548561,"name":"嵩山西南峰","decorType":"mountain"},{"id":"way-934721358","lat":25.1967513,"lon":121.5585733,"name":"未命名水邊","decorType":"waterside"},{"id":"way-1232569433","lat":25.1970291,"lon":121.5507794,"name":"未命名森林","decorType":"forest"},{"id":"way-1232569434","lat":25.1974127,"lon":121.5504866,"name":"未命名森林","decorType":"forest"},{"id":"way-1232569435","lat":25.2048356,"lon":121.5559358,"name":"未命名森林","decorType":"forest"}]}