{"bbox":{"south":25.19479375,"north":25.2104,"west":121.5873125,"east":121.60034375},"pois":[{"id":"node-4107778589","lat":25.1991644,"lon":121.5965059,"name":"金山金法林","decorType":"shrine"},{"id":"node-4371456880","lat":25.2069747,"lon":121.5945897,"name":"強薪(陽明山水、八煙溫泉)","decorType":"bus_stop"},{"id":"node-4371456881","lat":25.206999,"lon":121.5943966,"name":"強薪(陽明山水、八煙溫泉)","decorType":"bus_stop"},{"id":"node-4371456884","lat":25.2094627,"lon":121.5977087,"name":"林莊","decorType":"bus_stop"},{"id":"node-4371456885","lat":25.2095889,"lon":121.5973225,"name":"林莊","decorType":"bus_stop"},{"id":"node-4371458197","lat":25.1967417,"lon":121.5950322,"name":"金山農場(天籟溫泉會館)","decorType":"bus_stop"},{"id":"node-4371458198","lat":25.1975594,"lon":121.5951309,"name":"金山農場(天籟溫泉會館)","decorType":"bus_stop"},{"id":"node-8267333547","lat":25.198642,"lon":121.597409,"name":"風之庭餐坊","decorType":"restaurant"},{"id":"node-8267333573","lat":25.209562,"lon":121.596914,"name":"奇峰石溫泉餐廳","decorType":"restaurant"},{"id":"way-199077926","lat":25.2028061,"lon":121.5923451,"name":"八煙溫泉會館","decorType":"hotel"},{"id":"way-228885786","lat":25.2064965,"lon":121.5940159,"name":"陽明山水","decorType":"hotel"},{"id":"way-286408355","lat":25.1976658,"lon":121.5890083,"name":"野溪溫泉","decorType":"waterside"},{"id":"way-286408366","lat":25.195561,"lon":121.5897126,"name":"未命名水邊","decorType":"waterside"},{"id":"way-286408370","lat":25.2080311,"lon":121.5936137,"name":"未命名橋樑","decorType":"bridge"},{"id":"way-286408373","lat":25.2085442,"lon":121.5931985,"name":"未命名橋樑","decorType":"bridge"},{"id":"way-327384091","lat":25.2102536,"lon":121.5901452,"name":"未命名水邊","decorType":"waterside"},{"id":"way-333838638","lat":25.2108473,"lon":121.593767,"name":"未命名森林","decorType":"forest"},{"id":"way-380665324","lat":25.1974976,"lon":121.5957494,"name":"秀峰橋","decorType":"bridge"},{"id":"way-380665332","lat":25.1969608,"lon":121.5952191,"name":"未命名公園","decorType":"park"},{"id":"way-380665333","lat":25.1976695,"lon":121.5951874,"name":"三重橋","decorType":"bridge"},{"id":"way-428367661","lat":25.2092801,"lon":121.5941044,"name":"未命名水邊","decorType":"waterside"},{"id":"way-428367662","lat":25.2103056,"lon":121.5949819,"name":"磺溪","decorType":"waterside"},{"id":"way-1115861557","lat":25.2020496,"lon":121.5952784,"name":"陽明山天籟渡假酒店","decorType":"hotel"},{"id":"way-1115861567","lat":25.2008822,"lon":121.5993234,"name":"出霧溫泉","decorType":"hotel"},{"id":"way-1318240891","lat":25.2087389,"lon":121.5888623,"name":"未命名橋樑","decorType":"bridge"},{"id":"way-1318240893","lat":25.2093249,"lon":121.5896596,"name":"未命名橋樑","decorType":"bridge"},{"id":"way-1441613760","lat":25.200037,"lon":121.5917532,"name":"八煙溪","decorType":"waterside"},{"id":"way-1441613761","lat":25.1999174,"lon":121.5918748,"name":"八煙溪","decorType":"waterside"},{"id":"way-1441613802","lat":25.1986001,"lon":121.5940164,"name":"八煙溪","decorType":"waterside"},{"id":"way-1441613803","lat":25.1972907,"lon":121.5961509,"name":"八煙溪","decorType":"waterside"}]}