{"bbox":{"south":25.194794,"north":25.2104,"west":121.548219,"east":121.56125},"pois":[{"id":"node-2482624943","lat":25.208707,"lon":121.556275,"name":"嵩山","decorType":"mountain"},{"id":"node-2482646874","lat":25.196709,"lon":121.551082,"name":"小嵩山","decorType":"mountain"},{"id":"node-3833696314","lat":25.210123,"lon":121.559671,"name":"竹子山前峰","decorType":"mountain"},{"id":"node-10762923797","lat":25.207703,"lon":121.554856,"name":"嵩山西南峰","decorType":"mountain"},{"id":"way-934721358","lat":25.196751,"lon":121.558573,"name":"未命名水邊","decorType":"waterside"},{"id":"way-1232569433","lat":25.197029,"lon":121.550779,"name":"未命名森林","decorType":"forest"},{"id":"way-1232569434","lat":25.197413,"lon":121.550487,"name":"未命名森林","decorType":"forest"},{"id":"way-1232569435","lat":25.204836,"lon":121.555936,"name":"未命名森林","decorType":"forest"}]}