{"bbox":{"south":24.97630625,"north":24.991912499999998,"west":121.56125,"east":121.57428125},"pois":[{"id":"way-55567845","lat":24.9888213,"lon":121.5698334,"name":"景美溪","decorType":"waterside"},{"id":"way-445895115","lat":24.9857541,"lon":121.564196,"name":"道南河濱公園右岸","decorType":"park"},{"id":"node-2307722945","lat":24.9866733,"lon":121.5689076,"name":"7-Eleven","decorType":"convenience"},{"id":"node-2307722953","lat":24.986765,"lon":121.5689327,"name":"永安街","decorType":"bus_stop"},{"id":"node-2307722958","lat":24.9871941,"lon":121.5707228,"name":"指南路口","decorType":"bus_stop"},{"id":"node-2307723028","lat":24.9916153,"lon":121.5741632,"name":"萬壽橋頭(秀明)","decorType":"bus_stop"},{"id":"node-2307723044","lat":24.98904,"lon":121.56263,"name":"文山一分局","decorType":"bus_stop"},{"id":"node-2307723050","lat":24.9885436,"lon":121.5666086,"name":"木柵","decorType":"bus_stop"},{"id":"node-2307723055","lat":24.9883715,"lon":121.5685467,"name":"木柵市場","decorType":"bus_stop"},{"id":"node-2307723057","lat":24.9879908,"lon":121.5686441,"name":"木柵市場","decorType":"bus_stop"},{"id":"node-2307723060","lat":24.9886267,"lon":121.5665965,"name":"麥當勞","decorType":"burger"},{"id":"node-2307723067","lat":24.9885992,"lon":121.5664024,"name":"木柵","decorType":"bus_stop"},{"id":"node-2307723073","lat":24.9886514,"lon":121.5664756,"name":"麥味登","decorType":"restaurant"},{"id":"node-2307723077","lat":24.987772,"lon":121.5699976,"name":"指南路","decorType":"bus_stop"},{"id":"node-2307723080","lat":24.9886366,"lon":121.5666892,"name":"屈臣氏","decorType":"pharmacy"},{"id":"node-2307729763","lat":24.9890394,"lon":121.562569,"name":"文山一分局","decorType":"bus_stop"},{"id":"node-2317024240","lat":24.9846572,"lon":121.5615417,"name":"忠順街口","decorType":"bus_stop"},{"id":"node-2317024241","lat":24.9843783,"lon":121.5618327,"name":"忠順街口","decorType":"bus_stop"},{"id":"node-2321753038","lat":24.988062,"lon":121.5738484,"name":"新光路口","decorType":"bus_stop"},{"id":"node-2321753039","lat":24.98809,"lon":121.5738582,"name":"阿里郎韓國小吃","decorType":"restaurant"},{"id":"node-2323942821","lat":24.9901389,"lon":121.5700968,"name":"文山行政中心","decorType":"bus_stop"},{"id":"node-2323942822","lat":24.9898289,"lon":121.5698361,"name":"文山行政中心","decorType":"bus_stop"},{"id":"node-2323943255","lat":24.9913094,"lon":121.570973,"name":"萬壽橋頭(木柵)","decorType":"bus_stop"},{"id":"node-2323943256","lat":24.9914092,"lon":121.5711513,"name":"萬壽橋頭(木柵)","decorType":"bus_stop"},{"id":"node-2333021590","lat":24.9853727,"lon":121.5706301,"name":"木南公園","decorType":"bus_stop"},{"id":"node-2333021591","lat":24.9860824,"lon":121.5706343,"name":"指南路口","decorType":"bus_stop"},{"id":"node-2333021592","lat":24.983132,"lon":121.5665415,"name":"司法新村","decorType":"bus_stop"},{"id":"node-2333021593","lat":24.9833664,"lon":121.5668562,"name":"司法新村","decorType":"bus_stop"},{"id":"node-2333021594","lat":24.9841206,"lon":121.568943,"name":"景文中學","decorType":"bus_stop"},{"id":"node-2333021595","lat":24.9825496,"lon":121.5644768,"name":"忠順廟","decorType":"bus_stop"},{"id":"node-2333021596","lat":24.9826504,"lon":121.5645265,"name":"忠順廟","decorType":"bus_stop"},{"id":"node-2333021597","lat":24.9838337,"lon":121.56854,"name":"景文中學","decorType":"bus_stop"},{"id":"node-2333021598","lat":24.9847869,"lon":121.5700959,"name":"木南公園","decorType":"bus_stop"},{"id":"node-2377024730","lat":24.9825817,"lon":121.5622914,"name":"國泰新村(興隆)","decorType":"bus_stop"},{"id":"node-2377024731","lat":24.982903,"lon":121.5623494,"name":"國泰新村(興隆)","decorType":"bus_stop"},{"id":"node-2414211313","lat":24.9895609,"lon":121.5647126,"name":"久康街口","decorType":"bus_stop"},{"id":"node-2414211314","lat":24.9897466,"lon":121.5647275,"name":"久康街口","decorType":"bus_stop"},{"id":"node-2414211315","lat":24.9916277,"lon":121.570596,"name":"木柵國小","decorType":"bus_stop"},{"id":"node-2414211316","lat":24.9917557,"lon":121.570247,"name":"木柵國小","decorType":"bus_stop"},{"id":"node-2414211318","lat":24.9906594,"lon":121.5663065,"name":"華夏六村","decorType":"bus_stop"},{"id":"node-2414211319","lat":24.9905094,"lon":121.566428,"name":"華夏六村","decorType":"bus_stop"},{"id":"node-2458048360","lat":24.9851114,"lon":121.5671223,"name":"景文中學(臺灣戲曲學院)","decorType":"bus_stop"},{"id":"node-2458048362","lat":24.9837378,"lon":121.5661004,"name":"司法新村","decorType":"bus_stop"},{"id":"node-2458048364","lat":24.9857158,"lon":121.5674236,"name":"景文中學(臺灣戲曲學院)","decorType":"bus_stop"},{"id":"node-2458048367","lat":24.9838042,"lon":121.5659677,"name":"司法新村","decorType":"bus_stop"},{"id":"node-2458066423","lat":24.9820163,"lon":121.5619322,"name":"國泰新村(木新)","decorType":"bus_stop"},{"id":"node-2458066424","lat":24.9818808,"lon":121.5616576,"name":"國泰新村(木新)","decorType":"bus_stop"},{"id":"node-2923774279","lat":24.9817652,"lon":121.5616252,"name":"羅馬蕃茄義大利麵蔬食","decorType":"restaurant"},{"id":"node-2953696792","lat":24.9885644,"lon":121.5658202,"name":"全聯福利中心","decorType":"supermarket"},{"id":"node-2953726270","lat":24.984526,"lon":121.5631015,"name":"全聯福利中心","decorType":"supermarket"},{"id":"node-2953727569","lat":24.984595,"lon":121.5626404,"name":"全家便利商店","decorType":"convenience"},{"id":"node-2953730243","lat":24.9848526,"lon":121.5617395,"name":"石二鍋","decorType":"restaurant"},{"id":"node-2953759593","lat":24.9830892,"lon":121.5639154,"name":"MEOWHOUSE 喵好時早餐號","decorType":"restaurant"},{"id":"node-2975425049","lat":24.9885509,"lon":121.5684028,"name":"全聯福利中心","decorType":"supermarket"},{"id":"node-3036510800","lat":24.9876059,"lon":121.5697243,"name":"7-Eleven","decorType":"convenience"},{"id":"node-3036519141","lat":24.9876758,"lon":121.5693029,"name":"木柵水煎包","decorType":"restaurant"},{"id":"node-3036524951","lat":24.9885261,"lon":121.5660787,"name":"八方雲集","decorType":"burger"},{"id":"node-3104849438","lat":24.9882722,"lon":121.5651675,"name":"gogopàn元氣麵包社","decorType":"bakery"},{"id":"node-3104850185","lat":24.9877206,"lon":121.5653161,"name":"紅牛屋","decorType":"restaurant"},{"id":"node-3104850230","lat":24.9882715,"lon":121.5685472,"name":"茶之初","decorType":"cafe"},{"id":"node-3104851759","lat":24.9886688,"lon":121.5669367,"name":"星巴克","decorType":"cafe"},{"id":"node-3104851856","lat":24.9885018,"lon":121.5647713,"name":"三老村","decorType":"restaurant"},{"id":"node-3104852104","lat":24.9885755,"lon":121.5645396,"name":"順園麻油雞","decorType":"restaurant"},{"id":"node-3104852743","lat":24.9877567,"lon":121.5649311,"name":"阿段烘培","decorType":"bakery"},{"id":"node-3110615805","lat":24.9884886,"lon":121.5668929,"name":"7-Eleven","decorType":"convenience"},{"id":"node-3146796069","lat":24.9875039,"lon":121.5735734,"name":"未命名咖啡廳","decorType":"cafe"},{"id":"node-3188284529","lat":24.9866062,"lon":121.5682674,"name":"保儀涼麵","decorType":"restaurant"},{"id":"node-3188285418","lat":24.9867963,"lon":121.5680646,"name":"南山小吃","decorType":"restaurant"},{"id":"node-3188285419","lat":24.9869941,"lon":121.5686521,"name":"妙豆驛站亭(永久歇業)","decorType":"restaurant"},{"id":"node-3188287387","lat":24.9856694,"lon":121.5676119,"name":"TDH 貓茶町創始店","decorType":"sweetshop"},{"id":"node-3188302646","lat":24.9874259,"lon":121.568667,"name":"牛肉河粉 越南","decorType":"restaurant"},{"id":"node-3188305865","lat":24.9881766,"lon":121.5680588,"name":"菜根香素食","decorType":"restaurant"},{"id":"node-3188315189","lat":24.9883415,"lon":121.5675832,"name":"麵疙瘩‧烤肉飯","decorType":"restaurant"},{"id":"node-3188328160","lat":24.9887669,"lon":121.567523,"name":"美味兒","decorType":"restaurant"},{"id":"node-3188329661","lat":24.9887497,"lon":121.5680852,"name":"京橋 日本料理","decorType":"restaurant"},{"id":"node-3188329662","lat":24.9891004,"lon":121.5627024,"name":"首爾小吃","decorType":"restaurant"},{"id":"node-3188336785","lat":24.9884249,"lon":121.565128,"name":"錦祥小館","decorType":"restaurant"},{"id":"node-3188336799","lat":24.985974,"lon":121.5705815,"name":"松町和風小舖","decorType":"restaurant"},{"id":"node-3188345266","lat":24.986912,"lon":121.5680037,"name":"五花馬 蛋包飯","decorType":"restaurant"},{"id":"node-3188359790","lat":24.9877672,"lon":121.5647689,"name":"御神四季創藝懷石料理","decorType":"restaurant"},{"id":"node-3188363591","lat":24.9877007,"lon":121.565514,"name":"美饍涮涮鍋","decorType":"restaurant"},{"id":"node-3296340697","lat":24.98207,"lon":121.5626123,"name":"四海遊龍","decorType":"restaurant"},{"id":"node-3384291943","lat":24.9845044,"lon":121.5621816,"name":"7-Eleven","decorType":"convenience"},{"id":"node-3384293547","lat":24.9850319,"lon":121.5616248,"name":"全聯福利中心","decorType":"supermarket"},{"id":"node-3387890570","lat":24.9861962,"lon":121.5734768,"name":"政大民族學博物館","decorType":"art_gallery"},{"id":"node-3475958693","lat":24.9892522,"lon":121.5697528,"name":"台灣基督長老教會文山教會","decorType":"shrine"},{"id":"node-3731163595","lat":24.9831717,"lon":121.5668579,"name":"全家便利商店","decorType":"convenience"},{"id":"node-3731163596","lat":24.9832574,"lon":121.5671299,"name":"佳佳冰店","decorType":"sweetshop"},{"id":"node-3731163762","lat":24.9820776,"lon":121.5629971,"name":"全家便利商店","decorType":"convenience"},{"id":"node-3835323342","lat":24.9822809,"lon":121.5626227,"name":"北平烤鴨","decorType":"restaurant"},{"id":"node-3835323343","lat":24.9824822,"lon":121.5637018,"name":"海 精緻涮涮鍋","decorType":"restaurant"},{"id":"node-3835323344","lat":24.982543,"lon":121.5639688,"name":"火鍋世家","decorType":"restaurant"},{"id":"node-3835323345","lat":24.9827542,"lon":121.5647738,"name":"能量屋 營養早餐","decorType":"restaurant"},{"id":"node-3835323347","lat":24.9830745,"lon":121.5659369,"name":"新榮平價熱炒","decorType":"restaurant"},{"id":"node-3835323348","lat":24.9832019,"lon":121.5663293,"name":"焱鬼鍋燒專門店","decorType":"restaurant"},{"id":"node-3835323349","lat":24.9832915,"lon":121.5665836,"name":"陽城燒臘快餐","decorType":"restaurant"},{"id":"node-3835323350","lat":24.9834159,"lon":121.5667851,"name":"集品鐵板燒","decorType":"restaurant"},{"id":"node-3835331461","lat":24.9813395,"lon":121.5669013,"name":"兒童溜滑梯","decorType":"park"},{"id":"node-3835339682","lat":24.982556,"lon":121.5640323,"name":"7-Eleven","decorType":"convenience"},{"id":"node-3835339684","lat":24.9833097,"lon":121.5666411,"name":"Qburger","decorType":"burger"},{"id":"node-3835339685","lat":24.9834788,"lon":121.567063,"name":"早。自己","decorType":"restaurant"},{"id":"node-3835339687","lat":24.9839373,"lon":121.5684092,"name":"軒堡早餐店","decorType":"restaurant"},{"id":"node-3835339688","lat":24.9839702,"lon":121.568493,"name":"文安堂蔘藥行","decorType":"pharmacy"},{"id":"node-3835339689","lat":24.9840012,"lon":121.5686181,"name":"BigBurger比飽嗝大漢堡早午餐","decorType":"restaurant"},{"id":"node-3835339690","lat":24.9841846,"lon":121.5688271,"name":"家樂福超市","decorType":"supermarket"},{"id":"node-3835339694","lat":24.9848404,"lon":121.5644255,"name":"巧味豆漿店","decorType":"restaurant"},{"id":"node-3835339699","lat":24.9843098,"lon":121.5618317,"name":"紅太陽早餐吧","decorType":"restaurant"},{"id":"node-3835339704","lat":24.9831065,"lon":121.5623314,"name":"佳品早餐店","decorType":"restaurant"},{"id":"node-3835342086","lat":24.9848083,"lon":121.5617588,"name":"葡萄樹","decorType":"restaurant"},{"id":"node-3835342090","lat":24.9833504,"lon":121.5622369,"name":"花猴子","decorType":"restaurant"},{"id":"node-3835342091","lat":24.9825598,"lon":121.5622369,"name":"阿卡乾麵","decorType":"restaurant"},{"id":"node-3835342092","lat":24.9821125,"lon":121.5622788,"name":"三三活力早餐","decorType":"restaurant"},{"id":"node-3835342093","lat":24.9820459,"lon":121.5618698,"name":"太子拉麵","decorType":"restaurant"},{"id":"node-3835342094","lat":24.982017,"lon":121.5617866,"name":"芮比特","decorType":"restaurant"},{"id":"node-3835342095","lat":24.9820011,"lon":121.5617065,"name":"集品18生活館","decorType":"restaurant"},{"id":"node-3835342096","lat":24.9819706,"lon":121.561595,"name":"曲家麵館","decorType":"restaurant"},{"id":"node-3835342097","lat":24.9819562,"lon":121.561549,"name":"韓首爾","decorType":"restaurant"},{"id":"node-3835345471","lat":24.9832481,"lon":121.5664458,"name":"木柵米粉湯","decorType":"restaurant"},{"id":"node-3835345472","lat":24.9834519,"lon":121.5669793,"name":"巨林美而美早餐","decorType":"restaurant"},{"id":"node-3835345473","lat":24.9835013,"lon":121.5671216,"name":"豪堡平價牛排館","decorType":"restaurant"},{"id":"node-3835345474","lat":24.9836072,"lon":121.5674031,"name":"85度C","decorType":"cafe"},{"id":"node-3835345475","lat":24.98367,"lon":121.5674982,"name":"7-Eleven","decorType":"convenience"},{"id":"node-3835345476","lat":24.9837001,"lon":121.5678099,"name":"海王居酒屋","decorType":"restaurant"},{"id":"node-3835345478","lat":24.9837907,"lon":121.5679744,"name":"Lion手工蛋餅","decorType":"restaurant"},{"id":"node-3835345479","lat":24.9838507,"lon":121.5681832,"name":"如意小吃","decorType":"restaurant"},{"id":"node-3835345480","lat":24.9838645,"lon":121.5682137,"name":"劉家鹽酥雞","decorType":"restaurant"},{"id":"node-3835345481","lat":24.9839681,"lon":121.5685979,"name":"台南木新店","decorType":"restaurant"},{"id":"node-3835345482","lat":24.9840275,"lon":121.5687068,"name":"玉口香扁食園","decorType":"restaurant"},{"id":"node-3835345483","lat":24.9836143,"lon":121.566496,"name":"劉哥牛肉麵","decorType":"restaurant"},{"id":"node-3835345484","lat":24.9836991,"lon":121.5663537,"name":"雜糧店","decorType":"restaurant"},{"id":"node-3835345485","lat":24.9837986,"lon":121.5663822,"name":"11便當","decorType":"restaurant"},{"id":"node-3835345486","lat":24.9838538,"lon":121.5663131,"name":"好鄰居小吃店","decorType":"restaurant"},{"id":"node-3835345487","lat":24.9839018,"lon":121.5662399,"name":"永旺水餃","decorType":"restaurant"},{"id":"node-3835345488","lat":24.9840786,"lon":121.5663659,"name":"景文快餐便當","decorType":"restaurant"},{"id":"node-3835345489","lat":24.984215,"lon":121.5664675,"name":"心飲咖啡輕食館","decorType":"restaurant"},{"id":"node-3835345490","lat":24.9849999,"lon":121.5657602,"name":"牛肉麵","decorType":"restaurant"},{"id":"node-3835345492","lat":24.983279,"lon":121.5638656,"name":"雅風音樂咖啡餐廳","decorType":"restaurant"},{"id":"node-3835345493","lat":24.98279,"lon":121.5624367,"name":"滷大鼎","decorType":"restaurant"},{"id":"node-3835345494","lat":24.9824755,"lon":121.562552,"name":"舒咖啡","decorType":"restaurant"},{"id":"node-3835346555","lat":24.9817185,"lon":121.5612676,"name":"清心福全","decorType":"cafe"},{"id":"node-3835349529","lat":24.9850944,"lon":121.5615546,"name":"禮莎烘焙坊","decorType":"bakery"},{"id":"node-3835349531","lat":24.984539,"lon":121.5613436,"name":"老頭家客家菜","decorType":"restaurant"},{"id":"node-3835351384","lat":24.9819234,"lon":121.5620791,"name":"屈臣氏","decorType":"pharmacy"},{"id":"node-3835358922","lat":24.9813195,"lon":121.5613296,"name":"朵明哥咖啡館","decorType":"cafe"},{"id":"node-3835377570","lat":24.9839036,"lon":121.5689129,"name":"萊爾富","decorType":"convenience"},{"id":"node-3835377571","lat":24.9838682,"lon":121.5686749,"name":"晨間廚房早午餐木柵景文店","decorType":"restaurant"},{"id":"node-3835377572","lat":24.9835494,"lon":121.5679685,"name":"康迪麥早餐店","decorType":"restaurant"},{"id":"node-3835377573","lat":24.9834805,"lon":121.5677254,"name":"捷白自助洗衣","decorType":"laundry"},{"id":"node-3835377574","lat":24.9833867,"lon":121.5675026,"name":"大愛幸福藥局","decorType":"pharmacy"},{"id":"node-3835377575","lat":24.9833244,"lon":121.56733,"name":"華娜飯盒","decorType":"restaurant"},{"id":"node-3835377576","lat":24.983316,"lon":121.5672926,"name":"ALPHA TOAST-文山美食-早餐-餐廳","decorType":"restaurant"},{"id":"node-3835377577","lat":24.9832968,"lon":121.567219,"name":"萬華莊家班麻油雞 木新店","decorType":"restaurant"},{"id":"node-3835377578","lat":24.9831128,"lon":121.5666728,"name":"7-Eleven","decorType":"convenience"},{"id":"node-3835377579","lat":24.9830821,"lon":121.5665902,"name":"木柵區農會信用部","decorType":"restaurant"},{"id":"node-3846207450","lat":24.983099,"lon":121.5667916,"name":"食餓知餓甜不辣","decorType":"restaurant"},{"id":"node-3846208507","lat":24.9829447,"lon":121.5668857,"name":"水果行","decorType":"supermarket"},{"id":"node-3846209332","lat":24.9826621,"lon":121.5670296,"name":"全聯福利中心","decorType":"supermarket"},{"id":"node-3846209735","lat":24.9830191,"lon":121.5667818,"name":"恆光街香酥雞","decorType":"restaurant"},{"id":"node-3846211918","lat":24.9827915,"lon":121.5667744,"name":"五行手工黑豬肉水餃專賣店","decorType":"restaurant"},{"id":"node-3846213192","lat":24.9826299,"lon":121.5652567,"name":"麵包大亨","decorType":"bakery"},{"id":"node-3846213484","lat":24.9826589,"lon":121.5652169,"name":"綠森林早餐吧","decorType":"restaurant"},{"id":"node-3846213485","lat":24.9826038,"lon":121.5650278,"name":"老爹鵝肉","decorType":"restaurant"},{"id":"node-3846214361","lat":24.9825671,"lon":121.5648719,"name":"生炒花枝","decorType":"restaurant"},{"id":"node-3846215057","lat":24.982485,"lon":121.5645946,"name":"morning熊早餐","decorType":"restaurant"},{"id":"node-3846215060","lat":24.9823703,"lon":121.5643129,"name":"一粒醣蛋糕坊 Low Calorie Dessert","decorType":"bakery"},{"id":"node-3846215748","lat":24.9823238,"lon":121.5639086,"name":"純補碳燒羊肉爐","decorType":"restaurant"},{"id":"node-3846216568","lat":24.9822731,"lon":121.5637518,"name":"香屋咖啡 香屋素食西餐","decorType":"restaurant"},{"id":"node-3846216569","lat":24.9822644,"lon":121.56369,"name":"LI RA 義大利廚房","decorType":"restaurant"},{"id":"node-3846216587","lat":24.9822114,"lon":121.5635115,"name":"My Home 早餐專賣店","decorType":"restaurant"},{"id":"node-4103079071","lat":24.9799953,"lon":121.5717115,"name":"自強十舍","decorType":"bus_stop"},{"id":"node-4232903590","lat":24.9887178,"lon":121.5641034,"name":"鼎松五金工具","decorType":"hardware"},{"id":"node-4293261201","lat":24.9867265,"lon":121.568154,"name":"上蓋好3C手機配件館 木柵店","decorType":"electronics"},{"id":"node-4293261215","lat":24.9815113,"lon":121.5718231,"name":"文山政大郵局","decorType":"post_office"},{"id":"node-4293261223","lat":24.9820192,"lon":121.5727858,"name":"百年樓","decorType":"bus_stop"},{"id":"node-4293261224","lat":24.9822455,"lon":121.5734447,"name":"百年樓","decorType":"bus_stop"},{"id":"node-4293261226","lat":24.9865564,"lon":121.5701717,"name":"立欣生鮮便利商店","decorType":"convenience"},{"id":"node-4293261278","lat":24.9812255,"lon":121.5721437,"name":"未命名郵局","decorType":"post_office"},{"id":"node-4293261279","lat":24.9817996,"lon":121.5727398,"name":"未命名郵局","decorType":"post_office"},{"id":"node-4293261305","lat":24.9917606,"lon":121.5738156,"name":"未命名郵局","decorType":"post_office"},{"id":"node-4293261312","lat":24.9803493,"lon":121.5699206,"name":"好漢坡","decorType":"bus_stop"},{"id":"node-4293261313","lat":24.9803501,"lon":121.5703956,"name":"好漢坡","decorType":"bus_stop"},{"id":"node-4293261314","lat":24.9813339,"lon":121.5719269,"name":"藝文中心","decorType":"bus_stop"},{"id":"node-4293261315","lat":24.9812868,"lon":121.57214,"name":"藝文中心","decorType":"bus_stop"},{"id":"node-4293261323","lat":24.9891284,"lon":121.5629361,"name":"7-Eleven","decorType":"convenience"},{"id":"node-4293261324","lat":24.9915573,"lon":121.5741641,"name":"7-Eleven","decorType":"convenience"},{"id":"node-4325693930","lat":24.9822511,"lon":121.5622905,"name":"泰喜廚房","decorType":"restaurant"},{"id":"node-4325693954","lat":24.9786027,"lon":121.5738693,"name":"大草坪(自強宿舍)","decorType":"bus_stop"},{"id":"node-4572867289","lat":24.9830975,"lon":121.566745,"name":"恆光橋控肉飯","decorType":"restaurant"},{"id":"node-4996817887","lat":24.9803608,"lon":121.5718625,"name":"巨流政大書局","decorType":"library"},{"id":"node-4996817888","lat":24.9802186,"lon":121.5718728,"name":"萊爾富","decorType":"convenience"},{"id":"node-4996818947","lat":24.9796064,"lon":121.5713517,"name":"安九食堂","decorType":"restaurant"},{"id":"node-5015984540","lat":24.9886447,"lon":121.5667677,"name":"路易莎咖啡","decorType":"cafe"},{"id":"node-5289030821","lat":24.9867707,"lon":121.5686494,"name":"海天小館","decorType":"restaurant"},{"id":"node-5466056566","lat":24.988802,"lon":121.5687106,"name":"全家便利商店","decorType":"convenience"},{"id":"node-6024333532","lat":24.984606,"lon":121.5618066,"name":"康是美","decorType":"pharmacy"},{"id":"node-6255729857","lat":24.9783235,"lon":121.5740475,"name":"大草坪(自強宿舍)","decorType":"bus_stop"},{"id":"node-6522577784","lat":24.9890689,"lon":121.5624398,"name":"必勝客","decorType":"restaurant"},{"id":"node-6551068541","lat":24.9899868,"lon":121.5629402,"name":"全家便利商店","decorType":"convenience"},{"id":"node-6843906374","lat":24.9841375,"lon":121.561686,"name":"OK超商","decorType":"convenience"},{"id":"node-6865327428","lat":24.9889539,"lon":121.5689375,"name":"金福記餅店","decorType":"sweetshop"},{"id":"node-6987688023","lat":24.9843379,"lon":121.5615991,"name":"咖哩空間","decorType":"restaurant"},{"id":"node-6987688026","lat":24.9839623,"lon":121.5617131,"name":"鴨肉飯麵水餃便當","decorType":"restaurant"},{"id":"node-7102080147","lat":24.9821231,"lon":121.5628103,"name":"德意事歐事美食屋","decorType":"restaurant"},{"id":"node-7194693212","lat":24.9909379,"lon":121.5735342,"name":"漢堡寶活力早餐店","decorType":"restaurant"},{"id":"node-7194693217","lat":24.9861755,"lon":121.5734726,"name":"15 cafe","decorType":"restaurant"},{"id":"node-7194693226","lat":24.9894901,"lon":121.5738114,"name":"喔嗨唷早餐店","decorType":"restaurant"},{"id":"node-7194693232","lat":24.988577,"lon":121.5737601,"name":"大鬍子老爹麵店","decorType":"restaurant"},{"id":"node-7194693238","lat":24.9905283,"lon":121.5737739,"name":"蔬福創意蔬食料理【純素、奶素】","decorType":"restaurant"},{"id":"node-7194706690","lat":24.9909055,"lon":121.5735514,"name":"米粉湯滷肉飯","decorType":"restaurant"},{"id":"node-7194706703","lat":24.9893258,"lon":121.5739104,"name":"新光路無名麵攤","decorType":"restaurant"},{"id":"node-7194706717","lat":24.9905109,"lon":121.5737988,"name":"早安找點","decorType":"restaurant"},{"id":"node-7194706722","lat":24.9897672,"lon":121.5736348,"name":"Trattoria al Sole","decorType":"restaurant"},{"id":"node-7194706735","lat":24.9884738,"lon":121.5738367,"name":"大腕玉里麵","decorType":"restaurant"},{"id":"node-7194706767","lat":24.9910873,"lon":121.5738154,"name":"美式早餐屋","decorType":"restaurant"},{"id":"node-7194706787","lat":24.9888796,"lon":121.5736335,"name":"里克德義廚房","decorType":"restaurant"},{"id":"node-7194706795","lat":24.9907814,"lon":121.5738591,"name":"新光小吃店","decorType":"restaurant"},{"id":"node-7194706803","lat":24.9896809,"lon":121.5736404,"name":"巴東蜀味","decorType":"restaurant"},{"id":"node-7194706816","lat":24.9882269,"lon":121.5734446,"name":"加賀日式料理","decorType":"restaurant"},{"id":"node-7194706848","lat":24.991005,"lon":121.5737838,"name":"味新飲食店","decorType":"restaurant"},{"id":"node-7194706868","lat":24.9892924,"lon":121.5738495,"name":"韓大佬韓式精緻料理","decorType":"restaurant"},{"id":"node-7194706876","lat":24.9905734,"lon":121.5738305,"name":"小鴨藥膳加熱滷味","decorType":"restaurant"},{"id":"node-7194706884","lat":24.9899228,"lon":121.5738004,"name":"敘緣小館","decorType":"restaurant"},{"id":"node-7194706930","lat":24.9913562,"lon":121.5738115,"name":"三媽臭臭鍋","decorType":"restaurant"},{"id":"node-7194706942","lat":24.9796646,"lon":121.5711686,"name":"極鮮滷味","decorType":"restaurant"},{"id":"node-7194706950","lat":24.9891247,"lon":121.5736405,"name":"津喜甜不辣","decorType":"restaurant"},{"id":"node-7194706957","lat":24.9886195,"lon":121.5737522,"name":"京華小吃","decorType":"restaurant"},{"id":"node-7194706964","lat":24.9898346,"lon":121.5736397,"name":"蘭亭池上便當","decorType":"restaurant"},{"id":"node-7194706981","lat":24.9882134,"lon":121.5735467,"name":"小曼谷泰國雲南料理 政大店","decorType":"restaurant"},{"id":"node-7194707008","lat":24.9912629,"lon":121.5738089,"name":"龎舍炸物","decorType":"restaurant"},{"id":"node-7220601355","lat":24.9885864,"lon":121.569179,"name":"木柵分館","decorType":"library"},{"id":"node-7559959741","lat":24.989763,"lon":121.56591,"name":"清鳳宮","decorType":"shrine"},{"id":"node-7559959747","lat":24.989012,"lon":121.5661379,"name":"Mr.田","decorType":"restaurant"},{"id":"node-7559959762","lat":24.9893655,"lon":121.5635456,"name":"信義會聖道堂","decorType":"shrine"},{"id":"node-7559959771","lat":24.9895582,"lon":121.5621908,"name":"楠興宮","decorType":"shrine"},{"id":"node-7597631114","lat":24.9876478,"lon":121.5621754,"name":"全家便利商店","decorType":"convenience"},{"id":"node-7698686116","lat":24.9801354,"lon":121.5718297,"name":"異饗食堂","decorType":"restaurant"},{"id":"node-7699355909","lat":24.986543,"lon":121.5682309,"name":"綠果思漢堡/太空城飲料炸雞","decorType":"restaurant"},{"id":"node-7699355910","lat":24.9863701,"lon":121.5681427,"name":"晨間戀人早餐店","decorType":"restaurant"},{"id":"node-7699355911","lat":24.9865079,"lon":121.5679986,"name":"小貓咪早餐店","decorType":"restaurant"},{"id":"node-7699355912","lat":24.9869117,"lon":121.5679267,"name":"饌鈺坊 蛋包飯","decorType":"restaurant"},{"id":"node-7699355914","lat":24.9883675,"lon":121.564853,"name":"老店牛肉麵","decorType":"restaurant"},{"id":"node-7699355915","lat":24.9884294,"lon":121.564596,"name":"源士林","decorType":"restaurant"},{"id":"node-7699355916","lat":24.988493,"lon":121.5649877,"name":"孫東寶","decorType":"restaurant"},{"id":"node-7699355917","lat":24.9885033,"lon":121.5649042,"name":"大興雞腿王","decorType":"restaurant"},{"id":"node-7699355918","lat":24.988499,"lon":121.5648464,"name":"945鍋","decorType":"restaurant"},{"id":"node-7699355919","lat":24.9885566,"lon":121.564633,"name":"辛王記涼麵美食專賣店","decorType":"restaurant"},{"id":"node-7699355920","lat":24.9887345,"lon":121.5646501,"name":"咖在有哩","decorType":"restaurant"},{"id":"node-7699355921","lat":24.9888103,"lon":121.5638591,"name":"大禾養生蔬食","decorType":"restaurant"},{"id":"node-7699355922","lat":24.9888802,"lon":121.5636749,"name":"誠鵝肉專賣","decorType":"restaurant"},{"id":"node-7699355923","lat":24.9889449,"lon":121.5635041,"name":"港式榮旺飯麵小館","decorType":"restaurant"},{"id":"node-7699355924","lat":24.9891132,"lon":121.5628098,"name":"滷味小舖","decorType":"restaurant"},{"id":"node-7699355925","lat":24.9888369,"lon":121.5637891,"name":"山姆叔叔元氣早午餐","decorType":"restaurant"},{"id":"node-7699355926","lat":24.9885907,"lon":121.5613248,"name":"阿家壽司","decorType":"restaurant"},{"id":"node-7699355937","lat":24.9889292,"lon":121.5615803,"name":"胖老爹美式炸雞","decorType":"burger"},{"id":"node-7699355939","lat":24.9890033,"lon":121.5618917,"name":"好棒棒食堂","decorType":"restaurant"},{"id":"node-7699355940","lat":24.9890213,"lon":121.5620419,"name":"家好自助餐","decorType":"restaurant"},{"id":"node-7749819272","lat":24.9859391,"lon":121.5707453,"name":"北平餡餅粥","decorType":"restaurant"},{"id":"node-7749819275","lat":24.984516,"lon":121.5696249,"name":"燕樓小館","decorType":"restaurant"},{"id":"node-7749819276","lat":24.9876699,"lon":121.5704188,"name":"葉記鴨肉飯","decorType":"restaurant"},{"id":"node-7749819279","lat":24.9840686,"lon":121.5692941,"name":"品佳牛肉麵","decorType":"restaurant"},{"id":"node-7749819280","lat":24.9844321,"lon":121.5700563,"name":"三一活力早餐","decorType":"restaurant"},{"id":"node-7749819282","lat":24.9866727,"lon":121.5705779,"name":"木柵串霸","decorType":"restaurant"},{"id":"node-7749821085","lat":24.9843699,"lon":121.5700184,"name":"浪漫滿屋食坊卡拉OK","decorType":"restaurant"},{"id":"node-7749821093","lat":24.9857997,"lon":121.561408,"name":"麥味登","decorType":"restaurant"},{"id":"node-7749821095","lat":24.9856569,"lon":121.5614609,"name":"食安唯雞","decorType":"restaurant"},{"id":"node-7749821098","lat":24.9862332,"lon":121.5705377,"name":"有喜居酒屋","decorType":"restaurant"},{"id":"node-7749821101","lat":24.9876284,"lon":121.5699178,"name":"橘子屋素食","decorType":"restaurant"},{"id":"node-7749821102","lat":24.9851688,"lon":121.5615501,"name":"忠順美","decorType":"restaurant"},{"id":"node-7749821104","lat":24.9875811,"lon":121.5710143,"name":"Jonnobi 關東煮 + 酒場","decorType":"restaurant"},{"id":"node-7749821105","lat":24.9847757,"lon":121.5703208,"name":"愛琴海咖啡.簡餐.飲料","decorType":"restaurant"},{"id":"node-7749821107","lat":24.9825674,"lon":121.5678466,"name":"浣熊與愛美麗手工鍋貼","decorType":"restaurant"},{"id":"node-7801913866","lat":24.9811704,"lon":121.5619616,"name":"十里香華","decorType":"restaurant"},{"id":"node-8030231523","lat":24.9885153,"lon":121.5660123,"name":"未命名麵包店","decorType":"bakery"},{"id":"node-8276575340","lat":24.9801883,"lon":121.5719571,"name":"Eco cafe","decorType":"cafe"},{"id":"node-8385313316","lat":24.9838927,"lon":121.5687417,"name":"八方雲集","decorType":"burger"},{"id":"node-8385313380","lat":24.984753,"lon":121.56272,"name":"八方雲集","decorType":"burger"},{"id":"node-8399992379","lat":24.9907126,"lon":121.5737665,"name":"來來豆漿","decorType":"restaurant"},{"id":"node-8399992885","lat":24.9881252,"lon":121.5739326,"name":"龍角 Dragon Horn 文山政大店","decorType":"cafe"},{"id":"node-8400037341","lat":24.988678,"lon":121.5736684,"name":"7-Eleven","decorType":"convenience"},{"id":"node-8432400681","lat":24.9900381,"lon":121.570869,"name":"文山行政中心(木新)","decorType":"bus_stop"},{"id":"node-8432400682","lat":24.9894443,"lon":121.5706212,"name":"文山行政中心(木新)","decorType":"bus_stop"},{"id":"node-8518273541","lat":24.987614,"lon":121.569761,"name":"指南路","decorType":"bus_stop"},{"id":"node-8518273542","lat":24.9868117,"lon":121.5696484,"name":"永安街","decorType":"bus_stop"},{"id":"node-8738031029","lat":24.9828578,"lon":121.5659746,"name":"麥味登","decorType":"restaurant"},{"id":"node-8738031030","lat":24.9827437,"lon":121.5656458,"name":"永和豆漿大王","decorType":"burger"},{"id":"node-8867973095","lat":24.9833879,"lon":121.5622295,"name":"See Food 無國界料理","decorType":"restaurant"},{"id":"node-8972399037","lat":24.9825335,"lon":121.5647316,"name":"文山樟腳里郵局","decorType":"post_office"},{"id":"node-9141665902","lat":24.9792307,"lon":121.5664863,"name":"福德宮","decorType":"shrine"},{"id":"node-9401545422","lat":24.9872484,"lon":121.5686624,"name":"蝦皮店到店","decorType":"convenience"},{"id":"node-9401545423","lat":24.9873602,"lon":121.5685005,"name":"全家便利商店","decorType":"convenience"},{"id":"node-9401545426","lat":24.9890158,"lon":121.5619963,"name":"蝦皮店到店","decorType":"convenience"},{"id":"node-9565751905","lat":24.98206,"lon":121.5627353,"name":"未命名餐廳","decorType":"restaurant"},{"id":"node-9589431608","lat":24.9825388,"lon":121.5669114,"name":"邁可船釣生魚片","decorType":"restaurant"},{"id":"node-9589434827","lat":24.9830456,"lon":121.5668914,"name":"20年老店-楊媽媽臭豆腐","decorType":"restaurant"},{"id":"node-9765983611","lat":24.989027,"lon":121.5620901,"name":"皇興藥師藥局","decorType":"pharmacy"},{"id":"node-9768711997","lat":24.9889159,"lon":121.5635807,"name":"品奕餅店","decorType":"sweetshop"},{"id":"node-9768711998","lat":24.9887975,"lon":121.5638931,"name":"新竹光復饅頭店","decorType":"bakery"},{"id":"node-9768712001","lat":24.9886919,"lon":121.5641717,"name":"日式珍珠紅豆餅","decorType":"sweetshop"},{"id":"node-10859528401","lat":24.9820357,"lon":121.56252,"name":"漢堡王","decorType":"burger"},{"id":"node-11377581695","lat":24.9794366,"lon":121.5708504,"name":"山居學習中心","decorType":"bus_stop"},{"id":"node-11775194293","lat":24.9892331,"lon":121.5633297,"name":"蛙奶ㄟ呷厚拎","decorType":"cafe"},{"id":"node-11775194294","lat":24.9892224,"lon":121.5633025,"name":"烤雞霸葷","decorType":"burger"},{"id":"node-11969327696","lat":24.9796532,"lon":121.5674832,"name":"恒光橋崙","decorType":"mountain"},{"id":"node-12343143756","lat":24.9880525,"lon":121.5652799,"name":"DoDo Cafe","decorType":"cafe"},{"id":"node-12525788981","lat":24.9779489,"lon":121.5643889,"name":"恒光山","decorType":"mountain"},{"id":"node-13130475071","lat":24.9882192,"lon":121.5734991,"name":"老味道鍋物","decorType":"restaurant"},{"id":"node-13130475076","lat":24.9888145,"lon":121.5736444,"name":"芳妮髮型工作室","decorType":"hair_salon"},{"id":"node-13130475077","lat":24.9881745,"lon":121.57372,"name":"蛋蛋的幸福 蔬食料理","decorType":"cafe"},{"id":"node-13131122549","lat":24.987889,"lon":121.5742258,"name":"專品藥局 政大店","decorType":"pharmacy"},{"id":"node-13131122550","lat":24.9879045,"lon":121.5740815,"name":"私房麵","decorType":"restaurant"},{"id":"node-13131122556","lat":24.9878835,"lon":121.5742618,"name":"素還真","decorType":"restaurant"},{"id":"node-13131122562","lat":24.9883699,"lon":121.5737347,"name":"海熊咖啡","decorType":"cafe"},{"id":"node-13131122563","lat":24.9884953,"lon":121.573745,"name":"梅林美髮工作室","decorType":"hair_salon"},{"id":"node-13131122570","lat":24.9887415,"lon":121.5738766,"name":"如玉莊","decorType":"art_gallery"},{"id":"node-13131122571","lat":24.9887315,"lon":121.5737846,"name":"小靖子可麗餅","decorType":"sweetshop"},{"id":"node-13131122573","lat":24.9859408,"lon":121.5709287,"name":"自由·之丘","decorType":"cafe"},{"id":"node-13131122574","lat":24.986085,"lon":121.5706018,"name":"尪公祖養生早餐","decorType":"restaurant"},{"id":"node-13134450076","lat":24.9877807,"lon":121.5710609,"name":"唯今蛋糕 Weijincake","decorType":"sweetshop"},{"id":"node-13134450081","lat":24.9875925,"lon":121.5712692,"name":"好啤氣 Temper","decorType":"restaurant"},{"id":"node-13134450082","lat":24.9873844,"lon":121.5704902,"name":"富麗乾洗名店","decorType":"laundry"},{"id":"node-13134450083","lat":24.9873226,"lon":121.5705521,"name":"緯宏電器行","decorType":"electronics"},{"id":"node-13134450084","lat":24.9876813,"lon":121.5701854,"name":"愛美美甲美睫","decorType":"cosmetics"},{"id":"node-13134450087","lat":24.9877088,"lon":121.5696323,"name":"天香食品店","decorType":"supermarket"},{"id":"node-13134450088","lat":24.9876645,"lon":121.570074,"name":"泰媽早午餐","decorType":"restaurant"},{"id":"node-13134450089","lat":24.9876572,"lon":121.5699909,"name":"木柵水煎包","decorType":"restaurant"},{"id":"node-13134450090","lat":24.9876485,"lon":121.5699563,"name":"活力旺早餐店","decorType":"restaurant"},{"id":"node-13134450091","lat":24.9876629,"lon":121.5700334,"name":"泰味娘","decorType":"restaurant"},{"id":"node-13134450092","lat":24.9876909,"lon":121.5694024,"name":"鼎順專業收購 龍銀 勞力士 老酒 字畫","decorType":"art_gallery"},{"id":"node-13134450093","lat":24.9875742,"lon":121.5694098,"name":"富康活力藥局-睦柵店","decorType":"pharmacy"},{"id":"node-13134450094","lat":24.9875989,"lon":121.5695892,"name":"海天小館","decorType":"restaurant"},{"id":"node-13134450095","lat":24.9876722,"lon":121.5689824,"name":"絲工藝坊","decorType":"art_gallery"},{"id":"node-13134450096","lat":24.9878654,"lon":121.568661,"name":"人人健保藥局","decorType":"pharmacy"},{"id":"node-13134450097","lat":24.9876992,"lon":121.5687835,"name":"高家阿婆麵線","decorType":"restaurant"},{"id":"node-13134450098","lat":24.9878068,"lon":121.5694653,"name":"福軒麵包店","decorType":"bakery"},{"id":"node-13134450099","lat":24.9884704,"lon":121.5691232,"name":"玲の百貨行","decorType":"clothing"},{"id":"node-13134450100","lat":24.9884626,"lon":121.5690596,"name":"禾品精品皮件","decorType":"clothing"},{"id":"node-13134459201","lat":24.9885147,"lon":121.5702457,"name":"彌敦道愛剪不剪","decorType":"hair_salon"},{"id":"node-13134459202","lat":24.9884926,"lon":121.570039,"name":"美采藝術指甲","decorType":"cosmetics"},{"id":"node-13134459203","lat":24.9884804,"lon":121.5699614,"name":"黛比童舖子","decorType":"clothing"},{"id":"node-13134459204","lat":24.9882584,"lon":121.5694552,"name":"成發雜糧行","decorType":"supermarket"},{"id":"node-13134459209","lat":24.9868845,"lon":121.5705264,"name":"萬明企業社","decorType":"hardware"},{"id":"node-13134459212","lat":24.9828864,"lon":121.5670159,"name":"雞蛋碰雞蛋 包餡雞蛋糕","decorType":"sweetshop"},{"id":"node-13134459214","lat":24.9834224,"lon":121.5675808,"name":"大霖電器","decorType":"electronics"},{"id":"node-13134459218","lat":24.9834315,"lon":121.5669325,"name":"Yumi hair salon 質感髮廊","decorType":"hair_salon"},{"id":"node-13134459219","lat":24.9830023,"lon":121.5669125,"name":"全家服乾洗商店","decorType":"laundry"},{"id":"node-13134459220","lat":24.9829575,"lon":121.5669269,"name":"香菇肉粥","decorType":"restaurant"},{"id":"node-13134459221","lat":24.9825274,"lon":121.5668757,"name":"恆光街炒飯炒麵","decorType":"restaurant"},{"id":"node-13134459222","lat":24.9827369,"lon":121.5668684,"name":"恆光橋臭豆腐","decorType":"restaurant"},{"id":"node-13134459223","lat":24.9826906,"lon":121.5668929,"name":"恆光街水煎包蔥油餅","decorType":"restaurant"},{"id":"node-13134459224","lat":24.9827316,"lon":121.5668482,"name":"梅小月刈包","decorType":"restaurant"},{"id":"node-13134459225","lat":24.9830064,"lon":121.5667273,"name":"Nail Rosy","decorType":"cosmetics"},{"id":"node-13134459226","lat":24.9828527,"lon":121.5668346,"name":"無骨鳳爪","decorType":"restaurant"},{"id":"node-13134459227","lat":24.9828974,"lon":121.5670452,"name":"26鹽水雞木柵店","decorType":"restaurant"},{"id":"node-13134459228","lat":24.9816384,"lon":121.5668481,"name":"15號院子咖啡","decorType":"cafe"},{"id":"node-13134459232","lat":24.9827183,"lon":121.5655234,"name":"高Smile","decorType":"restaurant"},{"id":"node-13134459233","lat":24.9828136,"lon":121.5658057,"name":"鵝肉世家","decorType":"restaurant"},{"id":"node-13134459234","lat":24.982873,"lon":121.566036,"name":"躍獅奕新藥局","decorType":"pharmacy"},{"id":"node-13134459235","lat":24.9828318,"lon":121.5659143,"name":"活蝦八八","decorType":"restaurant"},{"id":"node-13134459239","lat":24.9829655,"lon":121.5662548,"name":"巧妃髮園","decorType":"hair_salon"},{"id":"node-13134459240","lat":24.9830168,"lon":121.5663923,"name":"老饒牛肉麵店","decorType":"restaurant"},{"id":"node-13134459241","lat":24.9830674,"lon":121.5665325,"name":"柔柔の炸語","decorType":"restaurant"},{"id":"node-13134459242","lat":24.9830967,"lon":121.5660173,"name":"山的另一邊","decorType":"restaurant"},{"id":"node-13134459243","lat":24.9831165,"lon":121.5660721,"name":"茶聚CHAGE","decorType":"cafe"},{"id":"node-13134459244","lat":24.9831609,"lon":121.5662092,"name":"粥大福","decorType":"restaurant"},{"id":"node-13134459246","lat":24.983267,"lon":121.5665211,"name":"上頡創意沙龍(保儀店)","decorType":"hair_salon"},{"id":"node-13134459247","lat":24.9835278,"lon":121.5665367,"name":"美麗的麵線","decorType":"restaurant"},{"id":"node-13134459248","lat":24.9831072,"lon":121.5656183,"name":"純地瓜球","decorType":"sweetshop"},{"id":"node-13134459251","lat":24.9869024,"lon":121.5693571,"name":"進恩水電材料有限公司","decorType":"hardware"},{"id":"node-13134459252","lat":24.9869032,"lon":121.5703036,"name":"toko indo pondok indah","decorType":"supermarket"},{"id":"node-13134459257","lat":24.9872207,"lon":121.5705984,"name":"開運壽司涼麵","decorType":"restaurant"},{"id":"node-13134459258","lat":24.9838517,"lon":121.5685122,"name":"鞋全家福","decorType":"clothing"},{"id":"node-13134459259","lat":24.9836721,"lon":121.568316,"name":"藝饗天地設計工作室","decorType":"art_gallery"},{"id":"node-13134459260","lat":24.9836912,"lon":121.5684012,"name":"La New","decorType":"clothing"},{"id":"node-13134459261","lat":24.983646,"lon":121.5682463,"name":"世新男士理髮","decorType":"hair_salon"},{"id":"node-13134459264","lat":24.983662,"lon":121.5682854,"name":"Beauty19th hair salon","decorType":"hair_salon"},{"id":"node-13134459266","lat":24.9838267,"lon":121.5681274,"name":"鐵頭之屋","decorType":"hair_salon"},{"id":"node-13134459270","lat":24.9837823,"lon":121.5679478,"name":"可口美食 炒飯炒麵","decorType":"restaurant"},{"id":"node-13134459271","lat":24.9839481,"lon":121.5684384,"name":"儷髮苑 木柵店","decorType":"hair_salon"},{"id":"node-13134459274","lat":24.9836915,"lon":121.5676674,"name":"藤香厚工豆花","decorType":"sweetshop"},{"id":"node-13136578066","lat":24.9842217,"lon":121.5696571,"name":"台灣主婦聯盟生活消費合作社木柵站","decorType":"supermarket"},{"id":"node-13136578068","lat":24.9841093,"lon":121.5693847,"name":"小酌串烤","decorType":"restaurant"},{"id":"node-13136578069","lat":24.9840122,"lon":121.5691041,"name":"岳鴻水電五金","decorType":"hardware"},{"id":"node-13136578070","lat":24.9839828,"lon":121.5690286,"name":"甄好味食堂","decorType":"restaurant"},{"id":"node-13136578071","lat":24.9839726,"lon":121.568976,"name":"家家樂早餐","decorType":"restaurant"},{"id":"node-13136578081","lat":24.9829572,"lon":121.5634095,"name":"Lazy Pâtisserie 徠集 手工法式甜點","decorType":"sweetshop"},{"id":"node-13136578083","lat":24.9833641,"lon":121.5637026,"name":"瑄達芳療頌缽坊（附設熱蠟除毛）","decorType":"cosmetics"},{"id":"node-13136578085","lat":24.9825318,"lon":121.5639278,"name":"錢都涮涮鍋","decorType":"restaurant"},{"id":"node-13136578089","lat":24.9823441,"lon":121.5640526,"name":"食光閣","decorType":"restaurant"},{"id":"node-13136578090","lat":24.9823615,"lon":121.5641743,"name":"北一藥師藥局","decorType":"pharmacy"},{"id":"node-13136578092","lat":24.9821934,"lon":121.5633999,"name":"震天下 鮮蚵．蛤蠣 虱目魚專賣","decorType":"restaurant"},{"id":"node-13136578094","lat":24.9824046,"lon":121.5634193,"name":"芸苑流行服飾","decorType":"clothing"},{"id":"node-13136578096","lat":24.9827441,"lon":121.5647381,"name":"夯胖 Bakaroti","decorType":"bakery"},{"id":"node-13136578097","lat":24.9825838,"lon":121.5649247,"name":"柳廚食堂","decorType":"restaurant"},{"id":"node-13136578098","lat":24.9826183,"lon":121.5651053,"name":"正記中藥 正記生醫","decorType":"pharmacy"},{"id":"node-13136578100","lat":24.9827381,"lon":121.5646602,"name":"咚｜關東煮 麻辣燙","decorType":"restaurant"},{"id":"node-13136580201","lat":24.9827247,"lon":121.5645889,"name":"雅登美髮","decorType":"hair_salon"},{"id":"node-13136580213","lat":24.9858312,"lon":121.5707112,"name":"沐麗專業洗衣","decorType":"laundry"},{"id":"node-13140997290","lat":24.9864279,"lon":121.5681734,"name":"奇谷食堂","decorType":"restaurant"},{"id":"node-13140997293","lat":24.9824278,"lon":121.5616568,"name":"狠MAN男士剪髮","decorType":"hair_salon"},{"id":"node-13140997294","lat":24.9866427,"lon":121.56829,"name":"咖啡超人茶飲專賣店","decorType":"cafe"},{"id":"node-13140997295","lat":24.9866968,"lon":121.5683365,"name":"丼滋料理","decorType":"restaurant"},{"id":"node-13140997296","lat":24.9867799,"lon":121.5684749,"name":"戀滷滷味","decorType":"restaurant"},{"id":"node-13140997299","lat":24.9867965,"lon":121.5677162,"name":"金椰子鮮果專賣廣場_木柵店(24H)","decorType":"supermarket"},{"id":"node-13140997300","lat":24.9867946,"lon":121.5678215,"name":"昇咖啡｜會議包廂・空間租借","decorType":"cafe"},{"id":"node-13141006301","lat":24.9869148,"lon":121.5680739,"name":"沙茶魷魚羹","decorType":"restaurant"},{"id":"node-13141006303","lat":24.9869715,"lon":121.5683318,"name":"東峰果汁吧","decorType":"burger"},{"id":"node-13141006304","lat":24.9869585,"lon":121.5683355,"name":"日船章魚小丸子","decorType":"sweetshop"},{"id":"node-13141006305","lat":24.9870068,"lon":121.5683579,"name":"啟文書局","decorType":"library"},{"id":"node-13141006306","lat":24.9870768,"lon":121.5684017,"name":"越南大食館","decorType":"restaurant"},{"id":"node-13141006307","lat":24.9870471,"lon":121.5683829,"name":"李記紅茶冰","decorType":"cafe"},{"id":"node-13141006308","lat":24.9873169,"lon":121.5684951,"name":"永進雜糧行","decorType":"supermarket"},{"id":"node-13141006309","lat":24.9872673,"lon":121.5684943,"name":"阿明師傅 -匠人手作-","decorType":"bakery"},{"id":"node-13141006310","lat":24.9870616,"lon":121.5685931,"name":"50嵐","decorType":"cafe"},{"id":"node-13141006311","lat":24.9869994,"lon":121.5685427,"name":"麵匡匡拉麵食堂","decorType":"restaurant"},{"id":"node-13141006312","lat":24.9869609,"lon":121.5685214,"name":"豐京通訊","decorType":"electronics"},{"id":"node-13141006313","lat":24.9868663,"lon":121.5688914,"name":"吉諾烘豆坊 Gino Roasters","decorType":"cafe"},{"id":"node-13141006316","lat":24.9869165,"lon":121.5689611,"name":"Baksa 手工窯烤披薩","decorType":"restaurant"},{"id":"node-13141006317","lat":24.9866622,"lon":121.5690956,"name":"木柵天和宮","decorType":"shrine"},{"id":"node-13141006318","lat":24.9866732,"lon":121.5689906,"name":"匠記日式食堂","decorType":"restaurant"},{"id":"node-13142340379","lat":24.9881562,"lon":121.5686755,"name":"美迦藥局","decorType":"pharmacy"},{"id":"node-13142340380","lat":24.9880489,"lon":121.5686737,"name":"秀Show.Nail 美甲 蜜蠟除毛","decorType":"cosmetics"},{"id":"node-13142340382","lat":24.9877359,"lon":121.5686778,"name":"威利鞋店","decorType":"clothing"},{"id":"node-13142340384","lat":24.9873223,"lon":121.5686591,"name":"台南虱目魚肚粥","decorType":"restaurant"},{"id":"node-13142340386","lat":24.9874608,"lon":121.5686644,"name":"山多檳榔行","decorType":"restaurant"},{"id":"node-13142340388","lat":24.9876826,"lon":121.5692416,"name":"老徐滷味","decorType":"restaurant"},{"id":"node-13142340389","lat":24.9876849,"lon":121.5691427,"name":"豆漿餡餅專賣店","decorType":"restaurant"},{"id":"node-13142340390","lat":24.9875784,"lon":121.5690019,"name":"有德鑰匙刻印五金行","decorType":"hardware"},{"id":"node-13142340394","lat":24.9882549,"lon":121.5686789,"name":"池上原味香便當保儀店","decorType":"restaurant"},{"id":"node-13142340395","lat":24.9882897,"lon":121.5688758,"name":"卜國登炸雞","decorType":"restaurant"},{"id":"node-13142340396","lat":24.9882661,"lon":121.5684911,"name":"3Q脆皮雞排（文山保儀店)","decorType":"restaurant"},{"id":"node-13142340397","lat":24.9883907,"lon":121.5684879,"name":"呷尚宝","decorType":"restaurant"},{"id":"node-13142340399","lat":24.9882908,"lon":121.568688,"name":"街角小吃","decorType":"restaurant"},{"id":"node-13142341001","lat":24.9882546,"lon":121.5684434,"name":"五春朝食專賣店 Brunch&Cafe","decorType":"restaurant"},{"id":"node-13142341002","lat":24.9882349,"lon":121.5683448,"name":"吃香原味牛肉麵食館","decorType":"restaurant"},{"id":"node-13142341003","lat":24.9882597,"lon":121.5679598,"name":"咖啡租界鮮焙咖啡舖","decorType":"cafe"},{"id":"node-13142341006","lat":24.9882069,"lon":121.5682206,"name":"玖二重慶麵館","decorType":"restaurant"},{"id":"node-13142341007","lat":24.9881824,"lon":121.5681014,"name":"米拉圖早午餐（夏一跳2.0）","decorType":"restaurant"},{"id":"node-13142341008","lat":24.988221,"lon":121.5682911,"name":"張媽媽小吃店","decorType":"restaurant"},{"id":"node-13142341011","lat":24.9882364,"lon":121.5678383,"name":"三盛三豆花","decorType":"sweetshop"},{"id":"node-13142341012","lat":24.9882469,"lon":121.5679026,"name":"紅麵線","decorType":"restaurant"},{"id":"node-13142341013","lat":24.9882135,"lon":121.5676458,"name":"合宜美容美甲沙龍","decorType":"cosmetics"},{"id":"node-13142341016","lat":24.9882698,"lon":121.5680185,"name":"明錀棉衣店","decorType":"art_gallery"},{"id":"node-13142341021","lat":24.9884491,"lon":121.5674102,"name":"滿豐牛肉麵","decorType":"restaurant"},{"id":"node-13142341022","lat":24.988648,"lon":121.567415,"name":"昇記小吃店","decorType":"restaurant"},{"id":"node-13142341024","lat":24.9883044,"lon":121.5675948,"name":"老骨闆-藥燉專門店","decorType":"restaurant"},{"id":"node-13142341026","lat":24.9883932,"lon":121.5675749,"name":"泰國小普吉","decorType":"restaurant"},{"id":"node-13142341027","lat":24.988533,"lon":121.567541,"name":"巧藝美甲","decorType":"cosmetics"},{"id":"node-13142341030","lat":24.9889149,"lon":121.5687574,"name":"貴夫人手染服飾","decorType":"clothing"},{"id":"node-13142341031","lat":24.9890459,"lon":121.5691534,"name":"芙蕾雅美甲/美睫/紋繡","decorType":"cosmetics"},{"id":"node-13142341032","lat":24.9890647,"lon":121.5692856,"name":"翡翠坊","decorType":"art_gallery"},{"id":"node-13142341033","lat":24.9890502,"lon":121.5692046,"name":"費媽媽 不用急/ 義式美食","decorType":"restaurant"},{"id":"node-13142341034","lat":24.9889399,"lon":121.5688571,"name":"金來來皮鞋店","decorType":"clothing"},{"id":"node-13142341036","lat":24.9889919,"lon":121.5698573,"name":"阿段烘焙","decorType":"bakery"},{"id":"node-13142341040","lat":24.9889744,"lon":121.5694617,"name":"文如越南食品行","decorType":"supermarket"},{"id":"node-13142341043","lat":24.988991,"lon":121.5695992,"name":"尹曼妮美粧名店","decorType":"cosmetics"},{"id":"node-13142341044","lat":24.9889977,"lon":121.5697309,"name":"好麵膳（葉記鴨肉）","decorType":"restaurant"},{"id":"node-13142341045","lat":24.9889993,"lon":121.5697672,"name":"潮mini","decorType":"restaurant"},{"id":"node-13142341048","lat":24.9889894,"lon":121.5697691,"name":"潮飯小吃館","decorType":"restaurant"},{"id":"node-13142341049","lat":24.9889813,"lon":121.5695218,"name":"依蓮精品服飾店","decorType":"clothing"},{"id":"node-13142341050","lat":24.9889612,"lon":121.5689738,"name":"妙益菓菜行","decorType":"supermarket"},{"id":"node-13142341053","lat":24.9889248,"lon":121.5682516,"name":"7-Eleven","decorType":"convenience"},{"id":"node-13142341054","lat":24.9887185,"lon":121.5684687,"name":"萬波島嶼紅茶","decorType":"cafe"},{"id":"node-13142341056","lat":24.9887116,"lon":121.5686301,"name":"宜康藥局","decorType":"pharmacy"},{"id":"node-13142341057","lat":24.9887635,"lon":121.5684598,"name":"Annie","decorType":"clothing"},{"id":"node-13142341058","lat":24.9888073,"lon":121.5683102,"name":"蜜雪兒","decorType":"clothing"},{"id":"node-13142341059","lat":24.9887764,"lon":121.5682188,"name":"八方雲集","decorType":"burger"},{"id":"node-13142341060","lat":24.9888772,"lon":121.5680367,"name":"彩翊服飾店","decorType":"clothing"},{"id":"node-13142341062","lat":24.9888469,"lon":121.5679186,"name":"傳家寶典玉石寶石設計工作坊","decorType":"art_gallery"},{"id":"node-13142341063","lat":24.988742,"lon":121.5679406,"name":"J plus髮型 木柵店","decorType":"hair_salon"},{"id":"node-13142341065","lat":24.9886519,"lon":121.5684876,"name":"澧莎西點麵包坊","decorType":"bakery"},{"id":"node-13142341067","lat":24.9891145,"lon":121.5679179,"name":"呼嚕小酒館","decorType":"restaurant"},{"id":"node-13142341069","lat":24.9888486,"lon":121.5678979,"name":"保元蔘藥行","decorType":"pharmacy"},{"id":"node-13142341070","lat":24.988733,"lon":121.5678981,"name":"KIKI MASTINA","decorType":"clothing"},{"id":"node-13142341072","lat":24.9887036,"lon":121.5677544,"name":"HAPPYHAIR 台北木柵店","decorType":"hair_salon"},{"id":"node-13142341074","lat":24.9886829,"lon":121.5676604,"name":"大樹連鎖藥局","decorType":"pharmacy"},{"id":"node-13142341076","lat":24.9886515,"lon":121.5675341,"name":"阿慶水果X梨山家慶果園","decorType":"supermarket"},{"id":"node-13142341078","lat":24.9887199,"lon":121.5678163,"name":"杏一醫療用品","decorType":"pharmacy"},{"id":"node-13142341105","lat":24.9868477,"lon":121.5696985,"name":"振大藥局","decorType":"pharmacy"},{"id":"node-13142341106","lat":24.986832,"lon":121.5698381,"name":"銘軒西餅","decorType":"bakery"},{"id":"node-13142341108","lat":24.9868697,"lon":121.5695437,"name":"香末自助洗衣店","decorType":"laundry"},{"id":"node-13142341114","lat":24.9867698,"lon":121.568537,"name":"佳品豆漿店","decorType":"restaurant"},{"id":"node-13142341119","lat":24.9862021,"lon":121.5689678,"name":"牡丹藝術基地 Moudan art studio","decorType":"art_gallery"},{"id":"node-13142341120","lat":24.9862087,"lon":121.5688919,"name":"上弘電器行","decorType":"electronics"},{"id":"node-13142341121","lat":24.9862118,"lon":121.568631,"name":"重生禮拜堂","decorType":"shrine"},{"id":"way-55744065","lat":24.9835898,"lon":121.5734282,"name":"景美溪左岸自行車道","decorType":"bridge"},{"id":"way-106535626","lat":24.9808337,"lon":121.5674422,"name":"恆光橋","decorType":"bridge"},{"id":"way-106535646","lat":24.9799362,"lon":121.5676596,"name":"恆光橋","decorType":"bridge"},{"id":"way-111484731","lat":24.991615,"lon":121.5721027,"name":"萬壽橋","decorType":"bridge"},{"id":"way-222662505","lat":24.987005,"lon":121.5742538,"name":"新聞館","decorType":"university"},{"id":"way-223254511","lat":24.9871278,"lon":121.5735117,"name":"大仁樓","decorType":"university"},{"id":"way-223254512","lat":24.9867385,"lon":121.573665,"name":"大勇樓","decorType":"university"},{"id":"way-223254513","lat":24.9874916,"lon":121.5735968,"name":"大智樓","decorType":"university"},{"id":"way-226025515","lat":24.9864306,"lon":121.5736385,"name":"綜合院館北棟","decorType":"university"},{"id":"way-226025516","lat":24.9858879,"lon":121.5735835,"name":"綜合院館南棟","decorType":"university"},{"id":"way-233079053","lat":24.9917059,"lon":121.5721276,"name":"萬壽橋","decorType":"bridge"},{"id":"way-260765015","lat":24.9893932,"lon":121.5645378,"name":"久康公園","decorType":"park"},{"id":"way-260887590","lat":24.9898264,"lon":121.5704171,"name":"文山公園","decorType":"park"},{"id":"way-261084893","lat":24.9854123,"lon":121.5664592,"name":"恆光國小預定地","decorType":"park"},{"id":"way-261084894","lat":24.9886391,"lon":121.565407,"name":"木柵郵局","decorType":"post_office"},{"id":"way-261322982","lat":24.9817913,"lon":121.5719051,"name":"藝文中心","decorType":"university"},{"id":"way-261655718","lat":24.9879817,"lon":121.5724132,"name":"未命名橋樑","decorType":"bridge"},{"id":"way-261655731","lat":24.9912185,"lon":121.5705059,"name":"未命名森林","decorType":"forest"},{"id":"way-266863045","lat":24.9817149,"lon":121.573765,"name":"百年樓","decorType":"university"},{"id":"way-277005393","lat":24.9812228,"lon":121.5730972,"name":"季陶樓","decorType":"university"},{"id":"way-277005394","lat":24.980997,"lon":121.5723251,"name":"國際大樓","decorType":"university"},{"id":"way-277005395","lat":24.9826149,"lon":121.5738395,"name":"道藩樓","decorType":"university"},{"id":"way-280186383","lat":24.9875857,"lon":121.5625715,"name":"前庭","decorType":"waterside"},{"id":"way-291865748","lat":24.9835852,"lon":121.5634493,"name":"保儀公園","decorType":"park"},{"id":"way-291866355","lat":24.9835373,"lon":121.5635849,"name":"未命名水邊","decorType":"waterside"},{"id":"way-331698696","lat":24.9866629,"lon":121.5709088,"name":"木南公園","decorType":"park"},{"id":"way-369322348","lat":24.9777414,"lon":121.5691541,"name":"木柵混元宮","decorType":"shrine"},{"id":"way-380192657","lat":24.9818129,"lon":121.5650126,"name":"樟腳里公園","decorType":"park"},{"id":"way-380192877","lat":24.9834641,"lon":121.5703415,"name":"新榮公園","decorType":"park"},{"id":"way-380193315","lat":24.9824436,"lon":121.5675853,"name":"恆光公園","decorType":"park"},{"id":"way-380193499","lat":24.9846496,"lon":121.568737,"name":"木榮公園","decorType":"park"},{"id":"way-397787060","lat":24.9812049,"lon":121.5736939,"name":"醉夢湖","decorType":"waterside"},{"id":"way-430062400","lat":24.9872616,"lon":121.5683512,"name":"木柵集應廟","decorType":"shrine"},{"id":"way-430624110","lat":24.9874921,"lon":121.5704103,"name":"天主教木柵復活堂","decorType":"shrine"},{"id":"way-430624112","lat":24.9883912,"lon":121.563923,"name":"木柵福德宮","decorType":"shrine"},{"id":"way-430624114","lat":24.9880741,"lon":121.574169,"name":"萬興福德宮","decorType":"shrine"},{"id":"way-481306343","lat":24.9787462,"lon":121.5623273,"name":"未命名水邊","decorType":"waterside"},{"id":"way-493736530","lat":24.9787671,"lon":121.5688399,"name":"未命名橋樑","decorType":"bridge"},{"id":"way-493736532","lat":24.9787893,"lon":121.5689134,"name":"未命名橋樑","decorType":"bridge"},{"id":"way-495967896","lat":24.9876479,"lon":121.5728309,"name":"景美溪左岸自行車道","decorType":"bridge"},{"id":"way-497482178","lat":24.987851,"lon":121.5701934,"name":"渡船頭福德宮","decorType":"shrine"},{"id":"way-497972728","lat":24.9915382,"lon":121.5723338,"name":"景美溪左岸自行車道","decorType":"bridge"},{"id":"way-497972730","lat":24.9915343,"lon":121.5725401,"name":"未命名橋樑","decorType":"bridge"},{"id":"way-497972732","lat":24.9902761,"lon":121.5714321,"name":"景美溪右岸自行車道","decorType":"bridge"},{"id":"way-497972745","lat":24.9820834,"lon":121.5697122,"name":"未命名公園","decorType":"park"},{"id":"way-497972875","lat":24.9811208,"lon":121.5668657,"name":"未命名公園","decorType":"park"},{"id":"way-510739849","lat":24.9808404,"lon":121.5724048,"name":"未命名橋樑","decorType":"bridge"},{"id":"way-510803716","lat":24.9902244,"lon":121.573537,"name":"南苑","decorType":"university"},{"id":"way-510803717","lat":24.9906116,"lon":121.5735225,"name":"新苑","decorType":"university"},{"id":"way-510803718","lat":24.9900576,"lon":121.5739239,"name":"學苑","decorType":"university"},{"id":"way-510889874","lat":24.9891707,"lon":121.5739042,"name":"校長之家","decorType":"university"},{"id":"way-573632770","lat":24.9866661,"lon":121.5648192,"name":"忠順萊茵公園","decorType":"park"},{"id":"way-573632771","lat":24.9861571,"lon":121.5645303,"name":"順興公園綠地","decorType":"park"},{"id":"way-574537653","lat":24.980756,"lon":121.5741545,"name":"未命名水邊","decorType":"waterside"},{"id":"way-590528964","lat":24.9909723,"lon":121.5729499,"name":"萬興櫻花生態景觀公園","decorType":"park"},{"id":"way-607703547","lat":24.9861587,"lon":121.5735519,"name":"未命名大學&學院","decorType":"university"},{"id":"way-610513427","lat":24.9885713,"lon":121.5729542,"name":"木柵便以利教會","decorType":"shrine"},{"id":"way-718132106","lat":24.9836606,"lon":121.5646565,"name":"忠順廟","decorType":"shrine"},{"id":"way-771596380","lat":24.9873811,"lon":121.5631786,"name":"梅花池","decorType":"waterside"},{"id":"way-808458657","lat":24.9893461,"lon":121.5675252,"name":"臺北市召會第十聚會所","decorType":"shrine"},{"id":"way-808458670","lat":24.9900259,"lon":121.5631056,"name":"未命名公園","decorType":"park"},{"id":"way-816699947","lat":24.9917739,"lon":121.5720917,"name":"未命名橋樑","decorType":"bridge"},{"id":"way-839459459","lat":24.9881337,"lon":121.5651262,"name":"未命名公園","decorType":"park"},{"id":"way-839459460","lat":24.9881523,"lon":121.5649774,"name":"未命名公園","decorType":"park"},{"id":"way-839459461","lat":24.9882265,"lon":121.5647077,"name":"未命名公園","decorType":"park"},{"id":"way-839459462","lat":24.988141,"lon":121.5648792,"name":"未命名公園","decorType":"park"},{"id":"way-839459463","lat":24.9882127,"lon":121.5646229,"name":"未命名公園","decorType":"park"},{"id":"way-839838422","lat":24.9874857,"lon":121.5674044,"name":"未命名公園","decorType":"park"},{"id":"way-839838423","lat":24.9873736,"lon":121.5674283,"name":"未命名公園","decorType":"park"},{"id":"way-839838424","lat":24.9872664,"lon":121.5674533,"name":"未命名公園","decorType":"park"},{"id":"way-844033558","lat":24.9878927,"lon":121.5724425,"name":"道南橋","decorType":"bridge"},{"id":"way-844033562","lat":24.9880871,"lon":121.5733041,"name":"未命名橋樑","decorType":"bridge"},{"id":"way-844033563","lat":24.9878378,"lon":121.5723651,"name":"未命名橋樑","decorType":"bridge"},{"id":"way-844033567","lat":24.9878574,"lon":121.5723242,"name":"道南橋","decorType":"bridge"},{"id":"way-893576019","lat":24.9811266,"lon":121.5737233,"name":"未命名橋樑","decorType":"bridge"},{"id":"way-915460990","lat":24.9795525,"lon":121.5619983,"name":"未命名水邊","decorType":"waterside"},{"id":"way-915460991","lat":24.9792273,"lon":121.5621026,"name":"未命名水邊","decorType":"waterside"},{"id":"way-962265332","lat":24.9916614,"lon":121.572369,"name":"萬壽橋","decorType":"bridge"},{"id":"way-989067760","lat":24.9782536,"lon":121.5681157,"name":"混元橋","decorType":"bridge"},{"id":"way-990854942","lat":24.9816401,"lon":121.5661286,"name":"未命名橋樑","decorType":"bridge"},{"id":"way-1003197786","lat":24.9811927,"lon":121.567391,"name":"恆光橋","decorType":"bridge"},{"id":"way-1033463709","lat":24.9878285,"lon":121.5717466,"name":"木棧便橋","decorType":"bridge"},{"id":"way-1033463710","lat":24.9879281,"lon":121.5723133,"name":"未命名橋樑","decorType":"bridge"},{"id":"way-1033463717","lat":24.9883448,"lon":121.5717755,"name":"未命名橋樑","decorType":"bridge"},{"id":"way-1033463718","lat":24.9882646,"lon":121.5716565,"name":"景美溪右岸自行車道","decorType":"bridge"},{"id":"way-1033463720","lat":24.9901516,"lon":121.5716154,"name":"未命名橋樑","decorType":"bridge"},{"id":"way-1033463738","lat":24.991546,"lon":121.5720637,"name":"未命名橋樑","decorType":"bridge"},{"id":"way-1033830621","lat":24.982059,"lon":121.5671526,"name":"恆光橋","decorType":"bridge"},{"id":"way-1034201106","lat":24.9812953,"lon":121.567591,"name":"未命名公園","decorType":"park"},{"id":"way-1034201126","lat":24.9870889,"lon":121.5722507,"name":"未命名橋樑","decorType":"bridge"},{"id":"way-1034201127","lat":24.9870911,"lon":121.5720972,"name":"景美溪右岸自行車道","decorType":"bridge"},{"id":"way-1034455148","lat":24.9817433,"lon":121.5672936,"name":"未命名橋樑","decorType":"bridge"},{"id":"way-1034455149","lat":24.9817139,"lon":121.5671792,"name":"未命名橋樑","decorType":"bridge"},{"id":"way-1034455150","lat":24.9808318,"lon":121.567509,"name":"未命名橋樑","decorType":"bridge"},{"id":"way-1034455151","lat":24.9808126,"lon":121.5673866,"name":"未命名橋樑","decorType":"bridge"},{"id":"way-1036552605","lat":24.9812137,"lon":121.5670889,"name":"未命名公園","decorType":"park"},{"id":"way-1036552606","lat":24.9812976,"lon":121.5663004,"name":"未命名公園","decorType":"park"},{"id":"way-1036552607","lat":24.9814566,"lon":121.5658141,"name":"未命名公園","decorType":"park"},{"id":"way-1036552608","lat":24.981368,"lon":121.5660659,"name":"未命名公園","decorType":"park"},{"id":"way-1284845354","lat":24.9843896,"lon":121.5653143,"name":"未命名公園","decorType":"park"},{"id":"way-1287776030","lat":24.9884045,"lon":121.5729698,"name":"未命名橋樑","decorType":"bridge"},{"id":"way-1287776035","lat":24.9883432,"lon":121.5638026,"name":"未命名公園","decorType":"park"},{"id":"way-1290978592","lat":24.9818835,"lon":121.5717217,"name":"未命名橋樑","decorType":"bridge"},{"id":"way-1295723607","lat":24.9829065,"lon":121.5648211,"name":"中崙路","decorType":"bridge"},{"id":"way-1353601690","lat":24.978369,"lon":121.5633271,"name":"埤仔湖福德宮","decorType":"shrine"},{"id":"way-1362022238","lat":24.9909058,"lon":121.5637578,"name":"未命名橋樑","decorType":"bridge"},{"id":"way-1362022240","lat":24.9909266,"lon":121.5638388,"name":"未命名橋樑","decorType":"bridge"},{"id":"way-1362022241","lat":24.990899,"lon":121.5636885,"name":"未命名水邊","decorType":"waterside"},{"id":"way-1362022242","lat":24.9910144,"lon":121.5638728,"name":"未命名水邊","decorType":"waterside"},{"id":"way-1429740906","lat":24.9811958,"lon":121.5664611,"name":"未命名公園","decorType":"park"},{"id":"way-1429740907","lat":24.9811908,"lon":121.5665844,"name":"未命名公園","decorType":"park"},{"id":"way-1429740908","lat":24.9811367,"lon":121.5666897,"name":"未命名公園","decorType":"park"},{"id":"way-1458076871","lat":24.9765237,"lon":121.5656874,"name":"未命名森林","decorType":"forest"}]}