{"bbox":{"south":24.97630625,"north":24.991912499999998,"west":121.52215625,"east":121.53518749999999},"pois":[{"id":"node-1870220622","lat":24.9879502,"lon":121.523518,"name":"尖山","decorType":"mountain"},{"id":"node-1882978603","lat":24.9817484,"lon":121.523512,"name":"未命名郵局","decorType":"post_office"},{"id":"node-1882978609","lat":24.9809026,"lon":121.5288028,"name":"未命名郵局","decorType":"post_office"},{"id":"node-1882978612","lat":24.9858868,"lon":121.5333981,"name":"未命名郵局","decorType":"post_office"},{"id":"node-1882978614","lat":24.99105,"lon":121.534214,"name":"未命名郵局","decorType":"post_office"},{"id":"node-2083320436","lat":24.9903315,"lon":121.5249012,"name":"秀朗橋","decorType":"station"},{"id":"node-2402006229","lat":24.9878718,"lon":121.5336956,"name":"赤肉胡椒餅","decorType":"restaurant"},{"id":"node-2407137752","lat":24.9905773,"lon":121.5341336,"name":"中正環河路口","decorType":"bus_stop"},{"id":"node-2407137753","lat":24.9902258,"lon":121.5245393,"name":"捷運秀朗橋站","decorType":"bus_stop"},{"id":"node-2443290814","lat":24.9763102,"lon":121.5351311,"name":"耕莘醫院(中正路)","decorType":"bus_stop"},{"id":"node-2454118986","lat":24.9774478,"lon":121.5328555,"name":"中央路","decorType":"bus_stop"},{"id":"node-2454118989","lat":24.977599,"lon":121.5326764,"name":"中央路","decorType":"bus_stop"},{"id":"node-2454118994","lat":24.9780108,"lon":121.5341531,"name":"廿張路","decorType":"bus_stop"},{"id":"node-2454118997","lat":24.9781835,"lon":121.5342412,"name":"廿張路","decorType":"bus_stop"},{"id":"node-2454119012","lat":24.9821055,"lon":121.5337021,"name":"花開富貴","decorType":"bus_stop"},{"id":"node-2454119015","lat":24.982195,"lon":121.5338752,"name":"花開富貴","decorType":"bus_stop"},{"id":"node-2454119018","lat":24.9835916,"lon":121.5337843,"name":"遠東工業城","decorType":"bus_stop"},{"id":"node-2454119021","lat":24.9842957,"lon":121.5334783,"name":"遠東工業城","decorType":"bus_stop"},{"id":"node-2454119024","lat":24.9874485,"lon":121.5336098,"name":"莊敬中學","decorType":"bus_stop"},{"id":"node-2454119027","lat":24.9864334,"lon":121.5336553,"name":"莊敬中學","decorType":"bus_stop"},{"id":"node-2454119051","lat":24.990873,"lon":121.5339477,"name":"中正環河路口","decorType":"bus_stop"},{"id":"node-2507924075","lat":24.9880132,"lon":121.5343221,"name":"莊敬中學","decorType":"bus_stop"},{"id":"node-2563163580","lat":24.9779943,"lon":121.523875,"name":"湯泉櫻花(中山路口)","decorType":"bus_stop"},{"id":"node-2563163581","lat":24.9833124,"lon":121.5253833,"name":"北新游泳池","decorType":"bus_stop"},{"id":"node-2563163582","lat":24.9794087,"lon":121.523428,"name":"湯泉社區","decorType":"bus_stop"},{"id":"node-2563163583","lat":24.9866813,"lon":121.5289454,"name":"溪園路101巷","decorType":"bus_stop"},{"id":"node-2563163617","lat":24.981872,"lon":121.5235824,"name":"蘭莊","decorType":"bus_stop"},{"id":"node-2563901899","lat":24.982643,"lon":121.5345101,"name":"鍋爸涮涮鍋","decorType":"restaurant"},{"id":"node-2563901901","lat":24.9829454,"lon":121.5341976,"name":"台東東河包子","decorType":"restaurant"},{"id":"node-2621123840","lat":24.9829712,"lon":121.5338968,"name":"麥當勞","decorType":"burger"},{"id":"node-2663477280","lat":24.9905172,"lon":121.5248819,"name":"捷運秀朗橋站","decorType":"bus_stop"},{"id":"node-2663477281","lat":24.9913792,"lon":121.5260291,"name":"秀景里","decorType":"bus_stop"},{"id":"node-2663477282","lat":24.9913744,"lon":121.5258569,"name":"秀景里","decorType":"bus_stop"},{"id":"node-2820063992","lat":24.9878166,"lon":121.5342453,"name":"莊敬中學","decorType":"bus_stop"},{"id":"node-2866571173","lat":24.9844703,"lon":121.5275892,"name":"十四張","decorType":"station"},{"id":"node-2910183734","lat":24.9870962,"lon":121.5334172,"name":"古早傳說飲食雜誌館","decorType":"restaurant"},{"id":"node-2931294190","lat":24.977924,"lon":121.5241006,"name":"全家便利商店","decorType":"convenience"},{"id":"node-2931294191","lat":24.9778431,"lon":121.5239991,"name":"家樂福超市","decorType":"supermarket"},{"id":"node-2931294192","lat":24.9791502,"lon":121.5234989,"name":"全家便利商店","decorType":"convenience"},{"id":"node-3065313954","lat":24.9825967,"lon":121.5339017,"name":"未命名咖啡廳","decorType":"cafe"},{"id":"node-3080436555","lat":24.9795098,"lon":121.5338786,"name":"廿張路口","decorType":"bus_stop"},{"id":"node-3100255043","lat":24.9770119,"lon":121.5326784,"name":"全家便利商店","decorType":"convenience"},{"id":"node-3104991580","lat":24.9911215,"lon":121.5260483,"name":"7-Eleven","decorType":"convenience"},{"id":"node-3108633901","lat":24.9913918,"lon":121.524008,"name":"7-Eleven","decorType":"convenience"},{"id":"node-3114460967","lat":24.9915787,"lon":121.526155,"name":"伊豆咖啡","decorType":"cafe"},{"id":"node-3180206784","lat":24.9806063,"lon":121.5231296,"name":"溪園路255巷口","decorType":"bus_stop"},{"id":"node-3294413269","lat":24.9909366,"lon":121.5343002,"name":"大鵬福利站","decorType":"supermarket"},{"id":"node-3446345896","lat":24.9793882,"lon":121.5235874,"name":"湯泉基督教會","decorType":"shrine"},{"id":"node-3519842832","lat":24.9877536,"lon":121.5341177,"name":"一之軒","decorType":"bakery"},{"id":"node-3519842837","lat":24.9876998,"lon":121.5344914,"name":"168水果大賣場","decorType":"supermarket"},{"id":"node-3811445898","lat":24.9899357,"lon":121.5341609,"name":"7-Eleven","decorType":"convenience"},{"id":"node-3826876818","lat":24.9774312,"lon":121.5329398,"name":"全多麥早餐","decorType":"restaurant"},{"id":"node-3836822100","lat":24.9780391,"lon":121.5344165,"name":"燦坤3C","decorType":"electronics"},{"id":"node-3836823087","lat":24.9831351,"lon":121.5338738,"name":"7-Eleven","decorType":"convenience"},{"id":"node-3891423034","lat":24.9782497,"lon":121.5343571,"name":"雅文髮型設計","decorType":"hair_salon"},{"id":"node-4018219665","lat":24.9841531,"lon":121.533376,"name":"7-Eleven","decorType":"convenience"},{"id":"node-4080958997","lat":24.991607,"lon":121.5261138,"name":"早餐店","decorType":"restaurant"},{"id":"node-4202524080","lat":24.9826349,"lon":121.5347944,"name":"明德素食園","decorType":"restaurant"},{"id":"node-4233184578","lat":24.9830725,"lon":121.53358,"name":"新店水尾郵局","decorType":"post_office"},{"id":"node-4267530915","lat":24.9780837,"lon":121.5343693,"name":"全家便利商店","decorType":"convenience"},{"id":"node-4269986518","lat":24.9836215,"lon":121.5335548,"name":"周老爸時尚餅舖","decorType":"sweetshop"},{"id":"node-4340694016","lat":24.9851635,"lon":121.533414,"name":"全家便利商店","decorType":"convenience"},{"id":"node-4340695089","lat":24.985375,"lon":121.5333872,"name":"萊爾富","decorType":"convenience"},{"id":"node-4524344027","lat":24.982987,"lon":121.534633,"name":"悅喀西餐","decorType":"restaurant"},{"id":"node-4587504596","lat":24.9793424,"lon":121.5340198,"name":"廿張路口","decorType":"bus_stop"},{"id":"node-4724505187","lat":24.9781917,"lon":121.5343586,"name":"阿蘭姐薑母鴨","decorType":"restaurant"},{"id":"node-4827002330","lat":24.9790855,"lon":121.5238719,"name":"湯泉美地","decorType":"bus_stop"},{"id":"node-4834782530","lat":24.9778849,"lon":121.5344734,"name":"新店蕭府王爺廟","decorType":"shrine"},{"id":"node-4834782610","lat":24.9772804,"lon":121.5327722,"name":"未命名郵局","decorType":"post_office"},{"id":"node-4834782611","lat":24.9768662,"lon":121.5325788,"name":"保安宮","decorType":"shrine"},{"id":"node-5101629277","lat":24.985618,"lon":121.5337524,"name":"7-Eleven","decorType":"convenience"},{"id":"node-5119528621","lat":24.9911664,"lon":121.5241829,"name":"八方雲集","decorType":"burger"},{"id":"node-6176758327","lat":24.9763806,"lon":121.5351641,"name":"紅林包子鋪","decorType":"restaurant"},{"id":"node-6259165474","lat":24.982361,"lon":121.5271918,"name":"和平社區","decorType":"bus_stop"},{"id":"node-6259165476","lat":24.9807327,"lon":121.529439,"name":"斯馨祠","decorType":"bus_stop"},{"id":"node-6973572085","lat":24.9911627,"lon":121.5244313,"name":"全聯中和秀朗店","decorType":"supermarket"},{"id":"node-7093499164","lat":24.9775875,"lon":121.534498,"name":"全家便利商店","decorType":"convenience"},{"id":"node-7189264822","lat":24.9905509,"lon":121.5253555,"name":"捷運秀朗橋站1號出口","decorType":"station"},{"id":"node-7189264823","lat":24.9905556,"lon":121.5249524,"name":"捷運秀朗橋站2號出口","decorType":"station"},{"id":"node-7191222740","lat":24.9831809,"lon":121.5297696,"name":"捷運十四張站1號出口","decorType":"station"},{"id":"node-7260936141","lat":24.9826329,"lon":121.5343918,"name":"NT精剪","decorType":"hair_salon"},{"id":"node-8024462004","lat":24.9831115,"lon":121.5335996,"name":"大苑子","decorType":"cafe"},{"id":"node-8024462005","lat":24.9831867,"lon":121.5338667,"name":"路易莎咖啡","decorType":"cafe"},{"id":"node-8041597963","lat":24.9843634,"lon":121.5273077,"name":"十四張","decorType":"station"},{"id":"node-8385313319","lat":24.984556,"lon":121.533525,"name":"八方雲集","decorType":"burger"},{"id":"node-8385313693","lat":24.990144,"lon":121.534156,"name":"八方雲集","decorType":"burger"},{"id":"node-8432400477","lat":24.9900986,"lon":121.5321967,"name":"復興路秀朗橋下","decorType":"bus_stop"},{"id":"node-8432400478","lat":24.984276,"lon":121.5277094,"name":"捷運十四張站(民權路)","decorType":"bus_stop"},{"id":"node-8432400499","lat":24.983777,"lon":121.526079,"name":"十四張路口","decorType":"bus_stop"},{"id":"node-8432400500","lat":24.9824628,"lon":121.5260815,"name":"央北社會住宅","decorType":"bus_stop"},{"id":"node-8432400516","lat":24.984536,"lon":121.527121,"name":"捷運十四張站","decorType":"bus_stop"},{"id":"node-8432401017","lat":24.99076,"lon":121.52296,"name":"尖山腳","decorType":"bus_stop"},{"id":"node-9760911234","lat":24.9812594,"lon":121.5262467,"name":"7-Eleven","decorType":"convenience"},{"id":"node-9760911235","lat":24.9821485,"lon":121.5262412,"name":"全家便利商店","decorType":"convenience"},{"id":"node-9781069242","lat":24.9771936,"lon":121.532772,"name":"呷尚寶","decorType":"burger"},{"id":"node-10151899679","lat":24.9899766,"lon":121.5344345,"name":"美廉社","decorType":"supermarket"},{"id":"node-12102715582","lat":24.9901785,"lon":121.5248238,"name":"捷運秀朗橋站天橋","decorType":"station"},{"id":"node-12287301501","lat":24.9837021,"lon":121.5335455,"name":"三緣居蔬食餐坊","decorType":"restaurant"},{"id":"way-24836723","lat":24.9899317,"lon":121.5310334,"name":"未命名橋樑","decorType":"bridge"},{"id":"way-33547926","lat":24.9895402,"lon":121.5283147,"name":"未命名橋樑","decorType":"bridge"},{"id":"way-33547929","lat":24.9895829,"lon":121.5306077,"name":"未命名橋樑","decorType":"bridge"},{"id":"way-160596730","lat":24.9782952,"lon":121.523497,"name":"湯泉陸橋","decorType":"bridge"},{"id":"way-160597866","lat":24.9770415,"lon":121.5236065,"name":"未命名橋樑","decorType":"bridge"},{"id":"way-176910563","lat":24.9816348,"lon":121.5225966,"name":"中安大橋","decorType":"bridge"},{"id":"way-197214079","lat":24.9785368,"lon":121.5239291,"name":"未命名公園","decorType":"park"},{"id":"way-237014531","lat":24.990298,"lon":121.5328326,"name":"玄聖宮","decorType":"shrine"},{"id":"way-288220919","lat":24.9840122,"lon":121.5261387,"name":"未命名橋樑","decorType":"bridge"},{"id":"way-288220920","lat":24.9839336,"lon":121.5260358,"name":"未命名橋樑","decorType":"bridge"},{"id":"way-288220921","lat":24.9842849,"lon":121.5258963,"name":"未命名橋樑","decorType":"bridge"},{"id":"way-288220925","lat":24.9886268,"lon":121.5293535,"name":"未命名橋樑","decorType":"bridge"},{"id":"way-288220926","lat":24.9893459,"lon":121.5288298,"name":"慢車道","decorType":"bridge"},{"id":"way-288220927","lat":24.988727,"lon":121.5311334,"name":"慢車道","decorType":"bridge"},{"id":"way-303126340","lat":24.9816828,"lon":121.5225909,"name":"中安大橋","decorType":"bridge"},{"id":"way-303634191","lat":24.9892464,"lon":121.5299889,"name":"秀朗大橋","decorType":"bridge"},{"id":"way-310670714","lat":24.989161,"lon":121.5298487,"name":"秀朗大橋","decorType":"bridge"},{"id":"way-352252813","lat":24.984779,"lon":121.5259464,"name":"秀朗清溪河濱公園","decorType":"park"},{"id":"way-383637309","lat":24.9824408,"lon":121.5266741,"name":"新店和平福德宮","decorType":"shrine"},{"id":"way-461682084","lat":24.9885653,"lon":121.5300453,"name":"未命名橋樑","decorType":"bridge"},{"id":"way-471201709","lat":24.9776292,"lon":121.522793,"name":"未命名水邊","decorType":"waterside"},{"id":"way-471201714","lat":24.978251,"lon":121.5230546,"name":"未命名橋樑","decorType":"bridge"},{"id":"way-501528447","lat":24.9904648,"lon":121.5280134,"name":"多功能兒童練習場","decorType":"park"},{"id":"way-504696941","lat":24.9893727,"lon":121.5296924,"name":"慢車道","decorType":"bridge"},{"id":"way-504696950","lat":24.9895988,"lon":121.528886,"name":"未命名橋樑","decorType":"bridge"},{"id":"way-518151266","lat":24.9857522,"lon":121.5349628,"name":"未命名水邊","decorType":"waterside"},{"id":"way-518151271","lat":24.985765,"lon":121.5350015,"name":"未命名橋樑","decorType":"bridge"},{"id":"way-525679919","lat":24.9848213,"lon":121.5267095,"name":"安坑輕軌","decorType":"bridge"},{"id":"way-525679922","lat":24.9847545,"lon":121.5266876,"name":"安坑輕軌","decorType":"bridge"},{"id":"way-548059091","lat":24.9913588,"lon":121.5333159,"name":"未命名公園","decorType":"park"},{"id":"way-548072120","lat":24.9908584,"lon":121.5308981,"name":"未命名水邊","decorType":"waterside"},{"id":"way-548595402","lat":24.97981,"lon":121.5279916,"name":"十四張歷史公園","decorType":"park"},{"id":"way-548596659","lat":24.9796231,"lon":121.5276786,"name":"未命名公園","decorType":"park"},{"id":"way-555370217","lat":24.9829344,"lon":121.533159,"name":"矽谷溫泉會館","decorType":"hotel"},{"id":"way-673048165","lat":24.9804421,"lon":121.5224186,"name":"未命名橋樑","decorType":"bridge"},{"id":"way-759407253","lat":24.9775552,"lon":121.5289224,"name":"中山里森林秘境","decorType":"forest"},{"id":"way-769172752","lat":24.982707,"lon":121.5296906,"name":"十四張斯馨祠","decorType":"shrine"},{"id":"way-769401426","lat":24.9890107,"lon":121.5305525,"name":"秀朗大橋","decorType":"bridge"},{"id":"way-783785015","lat":24.9837948,"lon":121.528149,"name":"捷運安坑輕軌線小碧潭延伸段(非正式路線)","decorType":"bridge"},{"id":"way-783785016","lat":24.983736,"lon":121.5281095,"name":"捷運安坑輕軌線小碧潭延伸段(非正式路線)","decorType":"bridge"},{"id":"way-801035621","lat":24.9878377,"lon":121.5322295,"name":"白鴿廣場","decorType":"park"},{"id":"way-801035623","lat":24.9870165,"lon":121.5318758,"name":"未命名水邊","decorType":"waterside"},{"id":"way-801035624","lat":24.9873022,"lon":121.5321327,"name":"神獸獬豸水池","decorType":"waterside"},{"id":"way-801035625","lat":24.9878671,"lon":121.5320718,"name":"未命名水邊","decorType":"waterside"},{"id":"way-801035626","lat":24.9879576,"lon":121.5319463,"name":"未命名水邊","decorType":"waterside"},{"id":"way-1021360859","lat":24.9840095,"lon":121.5276694,"name":"未命名橋樑","decorType":"bridge"},{"id":"way-1029630125","lat":24.9897872,"lon":121.5275409,"name":"景平路","decorType":"bridge"},{"id":"way-1064552155","lat":24.9809615,"lon":121.526448,"name":"未命名森林","decorType":"forest"},{"id":"way-1064552156","lat":24.9797374,"lon":121.5253635,"name":"未命名森林","decorType":"forest"},{"id":"way-1064570004","lat":24.9816577,"lon":121.5265852,"name":"未命名橋樑","decorType":"bridge"},{"id":"way-1064570007","lat":24.9816613,"lon":121.5258793,"name":"未命名橋樑","decorType":"bridge"},{"id":"way-1137755919","lat":24.9840597,"lon":121.5278067,"name":"未命名橋樑","decorType":"bridge"},{"id":"way-1137755920","lat":24.9851896,"lon":121.5247839,"name":"安心橋","decorType":"bridge"},{"id":"way-1137756551","lat":24.9850248,"lon":121.5264973,"name":"未命名橋樑","decorType":"bridge"},{"id":"way-1137756552","lat":24.9850113,"lon":121.5265145,"name":"未命名橋樑","decorType":"bridge"},{"id":"way-1198202534","lat":24.9912451,"lon":121.5269675,"name":"未命名公園","decorType":"park"},{"id":"way-1210726625","lat":24.9781688,"lon":121.52305,"name":"陽光橋","decorType":"bridge"},{"id":"way-1228832741","lat":24.9843809,"lon":121.5275836,"name":"未命名公車站","decorType":"bus_stop"},{"id":"way-1228832742","lat":24.9844795,"lon":121.527678,"name":"未命名公車站","decorType":"bus_stop"},{"id":"way-1271030661","lat":24.9843769,"lon":121.5273028,"name":"未命名公車站","decorType":"bus_stop"},{"id":"way-1274452620","lat":24.9855379,"lon":121.524195,"name":"安坑輕軌","decorType":"bridge"},{"id":"way-1274452621","lat":24.9855903,"lon":121.5242027,"name":"安坑輕軌","decorType":"bridge"},{"id":"way-1300197059","lat":24.9827096,"lon":121.5280973,"name":"未命名水邊","decorType":"waterside"},{"id":"way-1300197060","lat":24.98891,"lon":121.5319982,"name":"未命名水邊","decorType":"waterside"},{"id":"way-1300197061","lat":24.9881239,"lon":121.5316428,"name":"未命名水邊","decorType":"waterside"},{"id":"way-1300197062","lat":24.9886545,"lon":121.5318826,"name":"未命名水邊","decorType":"waterside"},{"id":"way-1300197063","lat":24.9884427,"lon":121.5317964,"name":"未命名水邊","decorType":"waterside"},{"id":"way-1300197064","lat":24.9868214,"lon":121.5308359,"name":"未命名水邊","decorType":"waterside"},{"id":"way-1306879102","lat":24.9906686,"lon":121.5244004,"name":"未命名公園","decorType":"park"},{"id":"way-1306879103","lat":24.9906236,"lon":121.5244004,"name":"未命名公園","decorType":"park"},{"id":"way-1375724185","lat":24.9861639,"lon":121.5224324,"name":"尖山景福宮","decorType":"shrine"},{"id":"way-1424057336","lat":24.9898884,"lon":121.5276849,"name":"秀朗大橋","decorType":"bridge"}]}