{"bbox":{"south":24.976306,"north":24.991912,"west":121.522156,"east":121.535187},"pois":[{"id":"node-1870220622","lat":24.98795,"lon":121.523518,"name":"尖山","decorType":"mountain"},{"id":"node-1882978603","lat":24.981748,"lon":121.523512,"name":"未命名郵局","decorType":"post_office"},{"id":"node-1882978609","lat":24.980903,"lon":121.528803,"name":"未命名郵局","decorType":"post_office"},{"id":"node-1882978612","lat":24.985887,"lon":121.533398,"name":"未命名郵局","decorType":"post_office"},{"id":"node-1882978614","lat":24.99105,"lon":121.534214,"name":"未命名郵局","decorType":"post_office"},{"id":"node-2083320436","lat":24.990332,"lon":121.524901,"name":"秀朗橋","decorType":"station"},{"id":"node-2402006229","lat":24.987872,"lon":121.533696,"name":"赤肉胡椒餅","decorType":"restaurant"},{"id":"node-2407137752","lat":24.990577,"lon":121.534134,"name":"中正環河路口","decorType":"bus_stop"},{"id":"node-2407137753","lat":24.990226,"lon":121.524539,"name":"捷運秀朗橋站","decorType":"bus_stop"},{"id":"node-2443290814","lat":24.97631,"lon":121.535131,"name":"耕莘醫院(中正路)","decorType":"bus_stop"},{"id":"node-2454118986","lat":24.977448,"lon":121.532856,"name":"中央路","decorType":"bus_stop"},{"id":"node-2454118989","lat":24.977599,"lon":121.532676,"name":"中央路","decorType":"bus_stop"},{"id":"node-2454118994","lat":24.978011,"lon":121.534153,"name":"廿張路","decorType":"bus_stop"},{"id":"node-2454118997","lat":24.978184,"lon":121.534241,"name":"廿張路","decorType":"bus_stop"},{"id":"node-2454119012","lat":24.982106,"lon":121.533702,"name":"花開富貴","decorType":"bus_stop"},{"id":"node-2454119015","lat":24.982195,"lon":121.533875,"name":"花開富貴","decorType":"bus_stop"},{"id":"node-2454119018","lat":24.983592,"lon":121.533784,"name":"遠東工業城","decorType":"bus_stop"},{"id":"node-2454119021","lat":24.984296,"lon":121.533478,"name":"遠東工業城","decorType":"bus_stop"},{"id":"node-2454119024","lat":24.987449,"lon":121.53361,"name":"莊敬中學","decorType":"bus_stop"},{"id":"node-2454119027","lat":24.986433,"lon":121.533655,"name":"莊敬中學","decorType":"bus_stop"},{"id":"node-2454119051","lat":24.990873,"lon":121.533948,"name":"中正環河路口","decorType":"bus_stop"},{"id":"node-2507924075","lat":24.988013,"lon":121.534322,"name":"莊敬中學","decorType":"bus_stop"},{"id":"node-2563163580","lat":24.977994,"lon":121.523875,"name":"湯泉櫻花(中山路口)","decorType":"bus_stop"},{"id":"node-2563163581","lat":24.983312,"lon":121.525383,"name":"北新游泳池","decorType":"bus_stop"},{"id":"node-2563163582","lat":24.979409,"lon":121.523428,"name":"湯泉社區","decorType":"bus_stop"},{"id":"node-2563163583","lat":24.986681,"lon":121.528945,"name":"溪園路101巷","decorType":"bus_stop"},{"id":"node-2563163617","lat":24.981872,"lon":121.523582,"name":"蘭莊","decorType":"bus_stop"},{"id":"node-2563901899","lat":24.982643,"lon":121.53451,"name":"鍋爸涮涮鍋","decorType":"restaurant"},{"id":"node-2563901901","lat":24.982945,"lon":121.534198,"name":"台東東河包子","decorType":"restaurant"},{"id":"node-2621123840","lat":24.982971,"lon":121.533897,"name":"麥當勞","decorType":"burger"},{"id":"node-2663477280","lat":24.990517,"lon":121.524882,"name":"捷運秀朗橋站","decorType":"bus_stop"},{"id":"node-2663477281","lat":24.991379,"lon":121.526029,"name":"秀景里","decorType":"bus_stop"},{"id":"node-2663477282","lat":24.991374,"lon":121.525857,"name":"秀景里","decorType":"bus_stop"},{"id":"node-2820063992","lat":24.987817,"lon":121.534245,"name":"莊敬中學","decorType":"bus_stop"},{"id":"node-2866571173","lat":24.98447,"lon":121.527589,"name":"十四張","decorType":"station"},{"id":"node-2910183734","lat":24.987096,"lon":121.533417,"name":"古早傳說飲食雜誌館","decorType":"restaurant"},{"id":"node-2931294190","lat":24.977924,"lon":121.524101,"name":"全家便利商店","decorType":"convenience"},{"id":"node-2931294191","lat":24.977843,"lon":121.523999,"name":"家樂福超市","decorType":"supermarket"},{"id":"node-2931294192","lat":24.97915,"lon":121.523499,"name":"全家便利商店","decorType":"convenience"},{"id":"node-3065313954","lat":24.982597,"lon":121.533902,"name":"未命名咖啡廳","decorType":"cafe"},{"id":"node-3080436555","lat":24.97951,"lon":121.533879,"name":"廿張路口","decorType":"bus_stop"},{"id":"node-3100255043","lat":24.977012,"lon":121.532678,"name":"全家便利商店","decorType":"convenience"},{"id":"node-3104991580","lat":24.991122,"lon":121.526048,"name":"7-Eleven","decorType":"convenience"},{"id":"node-3108633901","lat":24.991392,"lon":121.524008,"name":"7-Eleven","decorType":"convenience"},{"id":"node-3114460967","lat":24.991579,"lon":121.526155,"name":"伊豆咖啡","decorType":"cafe"},{"id":"node-3180206784","lat":24.980606,"lon":121.52313,"name":"溪園路255巷口","decorType":"bus_stop"},{"id":"node-3294413269","lat":24.990937,"lon":121.5343,"name":"大鵬福利站","decorType":"supermarket"},{"id":"node-3446345896","lat":24.979388,"lon":121.523587,"name":"湯泉基督教會","decorType":"shrine"},{"id":"node-3519842832","lat":24.987754,"lon":121.534118,"name":"一之軒","decorType":"bakery"},{"id":"node-3519842837","lat":24.9877,"lon":121.534491,"name":"168水果大賣場","decorType":"supermarket"},{"id":"node-3811445898","lat":24.989936,"lon":121.534161,"name":"7-Eleven","decorType":"convenience"},{"id":"node-3826876818","lat":24.977431,"lon":121.53294,"name":"全多麥早餐","decorType":"restaurant"},{"id":"node-3836822100","lat":24.978039,"lon":121.534417,"name":"燦坤3C","decorType":"electronics"},{"id":"node-3836823087","lat":24.983135,"lon":121.533874,"name":"7-Eleven","decorType":"convenience"},{"id":"node-3891423034","lat":24.97825,"lon":121.534357,"name":"雅文髮型設計","decorType":"hair_salon"},{"id":"node-4018219665","lat":24.984153,"lon":121.533376,"name":"7-Eleven","decorType":"convenience"},{"id":"node-4080958997","lat":24.991607,"lon":121.526114,"name":"早餐店","decorType":"restaurant"},{"id":"node-4202524080","lat":24.982635,"lon":121.534794,"name":"明德素食園","decorType":"restaurant"},{"id":"node-4233184578","lat":24.983073,"lon":121.53358,"name":"新店水尾郵局","decorType":"post_office"},{"id":"node-4267530915","lat":24.978084,"lon":121.534369,"name":"全家便利商店","decorType":"convenience"},{"id":"node-4269986518","lat":24.983622,"lon":121.533555,"name":"周老爸時尚餅舖","decorType":"sweetshop"},{"id":"node-4340694016","lat":24.985164,"lon":121.533414,"name":"全家便利商店","decorType":"convenience"},{"id":"node-4340695089","lat":24.985375,"lon":121.533387,"name":"萊爾富","decorType":"convenience"},{"id":"node-4524344027","lat":24.982987,"lon":121.534633,"name":"悅喀西餐","decorType":"restaurant"},{"id":"node-4587504596","lat":24.979342,"lon":121.53402,"name":"廿張路口","decorType":"bus_stop"},{"id":"node-4724505187","lat":24.978192,"lon":121.534359,"name":"阿蘭姐薑母鴨","decorType":"restaurant"},{"id":"node-4827002330","lat":24.979086,"lon":121.523872,"name":"湯泉美地","decorType":"bus_stop"},{"id":"node-4834782530","lat":24.977885,"lon":121.534473,"name":"新店蕭府王爺廟","decorType":"shrine"},{"id":"node-4834782610","lat":24.97728,"lon":121.532772,"name":"未命名郵局","decorType":"post_office"},{"id":"node-4834782611","lat":24.976866,"lon":121.532579,"name":"保安宮","decorType":"shrine"},{"id":"node-5101629277","lat":24.985618,"lon":121.533752,"name":"7-Eleven","decorType":"convenience"},{"id":"node-5119528621","lat":24.991166,"lon":121.524183,"name":"八方雲集","decorType":"burger"},{"id":"node-6176758327","lat":24.976381,"lon":121.535164,"name":"紅林包子鋪","decorType":"restaurant"},{"id":"node-6259165474","lat":24.982361,"lon":121.527192,"name":"和平社區","decorType":"bus_stop"},{"id":"node-6259165476","lat":24.980733,"lon":121.529439,"name":"斯馨祠","decorType":"bus_stop"},{"id":"node-6973572085","lat":24.991163,"lon":121.524431,"name":"全聯中和秀朗店","decorType":"supermarket"},{"id":"node-7093499164","lat":24.977588,"lon":121.534498,"name":"全家便利商店","decorType":"convenience"},{"id":"node-7189264822","lat":24.990551,"lon":121.525356,"name":"捷運秀朗橋站1號出口","decorType":"station"},{"id":"node-7189264823","lat":24.990556,"lon":121.524952,"name":"捷運秀朗橋站2號出口","decorType":"station"},{"id":"node-7191222740","lat":24.983181,"lon":121.52977,"name":"捷運十四張站1號出口","decorType":"station"},{"id":"node-7260936141","lat":24.982633,"lon":121.534392,"name":"NT精剪","decorType":"hair_salon"},{"id":"node-8024462004","lat":24.983112,"lon":121.5336,"name":"大苑子","decorType":"cafe"},{"id":"node-8024462005","lat":24.983187,"lon":121.533867,"name":"路易莎咖啡","decorType":"cafe"},{"id":"node-8041597963","lat":24.984363,"lon":121.527308,"name":"十四張","decorType":"station"},{"id":"node-8385313319","lat":24.984556,"lon":121.533525,"name":"八方雲集","decorType":"burger"},{"id":"node-8385313693","lat":24.990144,"lon":121.534156,"name":"八方雲集","decorType":"burger"},{"id":"node-8432400477","lat":24.990099,"lon":121.532197,"name":"復興路秀朗橋下","decorType":"bus_stop"},{"id":"node-8432400478","lat":24.984276,"lon":121.527709,"name":"捷運十四張站(民權路)","decorType":"bus_stop"},{"id":"node-8432400499","lat":24.983777,"lon":121.526079,"name":"十四張路口","decorType":"bus_stop"},{"id":"node-8432400500","lat":24.982463,"lon":121.526082,"name":"央北社會住宅","decorType":"bus_stop"},{"id":"node-8432400516","lat":24.984536,"lon":121.527121,"name":"捷運十四張站","decorType":"bus_stop"},{"id":"node-8432401017","lat":24.99076,"lon":121.52296,"name":"尖山腳","decorType":"bus_stop"},{"id":"node-9760911234","lat":24.981259,"lon":121.526247,"name":"7-Eleven","decorType":"convenience"},{"id":"node-9760911235","lat":24.982149,"lon":121.526241,"name":"全家便利商店","decorType":"convenience"},{"id":"node-9781069242","lat":24.977194,"lon":121.532772,"name":"呷尚寶","decorType":"burger"},{"id":"node-10151899679","lat":24.989977,"lon":121.534435,"name":"美廉社","decorType":"supermarket"},{"id":"node-12102715582","lat":24.990179,"lon":121.524824,"name":"捷運秀朗橋站天橋","decorType":"station"},{"id":"node-12287301501","lat":24.983702,"lon":121.533546,"name":"三緣居蔬食餐坊","decorType":"restaurant"},{"id":"way-24836723","lat":24.989932,"lon":121.531033,"name":"未命名橋樑","decorType":"bridge"},{"id":"way-33547926","lat":24.98954,"lon":121.528315,"name":"未命名橋樑","decorType":"bridge"},{"id":"way-33547929","lat":24.989583,"lon":121.530608,"name":"未命名橋樑","decorType":"bridge"},{"id":"way-160596730","lat":24.978295,"lon":121.523497,"name":"湯泉陸橋","decorType":"bridge"},{"id":"way-160597866","lat":24.977042,"lon":121.523607,"name":"未命名橋樑","decorType":"bridge"},{"id":"way-176910563","lat":24.981635,"lon":121.522597,"name":"中安大橋","decorType":"bridge"},{"id":"way-197214079","lat":24.978537,"lon":121.523929,"name":"未命名公園","decorType":"park"},{"id":"way-237014531","lat":24.990298,"lon":121.532833,"name":"玄聖宮","decorType":"shrine"},{"id":"way-288220919","lat":24.984012,"lon":121.526139,"name":"未命名橋樑","decorType":"bridge"},{"id":"way-288220920","lat":24.983934,"lon":121.526036,"name":"未命名橋樑","decorType":"bridge"},{"id":"way-288220921","lat":24.984285,"lon":121.525896,"name":"未命名橋樑","decorType":"bridge"},{"id":"way-288220925","lat":24.988627,"lon":121.529354,"name":"未命名橋樑","decorType":"bridge"},{"id":"way-288220926","lat":24.989346,"lon":121.52883,"name":"慢車道","decorType":"bridge"},{"id":"way-288220927","lat":24.988727,"lon":121.531133,"name":"慢車道","decorType":"bridge"},{"id":"way-303126340","lat":24.981683,"lon":121.522591,"name":"中安大橋","decorType":"bridge"},{"id":"way-303634191","lat":24.989246,"lon":121.529989,"name":"秀朗大橋","decorType":"bridge"},{"id":"way-310670714","lat":24.989161,"lon":121.529849,"name":"秀朗大橋","decorType":"bridge"},{"id":"way-352252813","lat":24.984779,"lon":121.525946,"name":"秀朗清溪河濱公園","decorType":"park"},{"id":"way-383637309","lat":24.982441,"lon":121.526674,"name":"新店和平福德宮","decorType":"shrine"},{"id":"way-461682084","lat":24.988565,"lon":121.530045,"name":"未命名橋樑","decorType":"bridge"},{"id":"way-471201709","lat":24.977629,"lon":121.522793,"name":"未命名水邊","decorType":"waterside"},{"id":"way-471201714","lat":24.978251,"lon":121.523055,"name":"未命名橋樑","decorType":"bridge"},{"id":"way-501528447","lat":24.990465,"lon":121.528013,"name":"多功能兒童練習場","decorType":"park"},{"id":"way-504696941","lat":24.989373,"lon":121.529692,"name":"慢車道","decorType":"bridge"},{"id":"way-504696950","lat":24.989599,"lon":121.528886,"name":"未命名橋樑","decorType":"bridge"},{"id":"way-518151266","lat":24.985752,"lon":121.534963,"name":"未命名水邊","decorType":"waterside"},{"id":"way-518151271","lat":24.985765,"lon":121.535002,"name":"未命名橋樑","decorType":"bridge"},{"id":"way-525679919","lat":24.984821,"lon":121.52671,"name":"安坑輕軌","decorType":"bridge"},{"id":"way-525679922","lat":24.984755,"lon":121.526688,"name":"安坑輕軌","decorType":"bridge"},{"id":"way-548059091","lat":24.991359,"lon":121.533316,"name":"未命名公園","decorType":"park"},{"id":"way-548072120","lat":24.990858,"lon":121.530898,"name":"未命名水邊","decorType":"waterside"},{"id":"way-548595402","lat":24.97981,"lon":121.527992,"name":"十四張歷史公園","decorType":"park"},{"id":"way-548596659","lat":24.979623,"lon":121.527679,"name":"未命名公園","decorType":"park"},{"id":"way-555370217","lat":24.982934,"lon":121.533159,"name":"矽谷溫泉會館","decorType":"hotel"},{"id":"way-673048165","lat":24.980442,"lon":121.522419,"name":"未命名橋樑","decorType":"bridge"},{"id":"way-759407253","lat":24.977555,"lon":121.528922,"name":"中山里森林秘境","decorType":"forest"},{"id":"way-769172752","lat":24.982707,"lon":121.529691,"name":"十四張斯馨祠","decorType":"shrine"},{"id":"way-769401426","lat":24.989011,"lon":121.530553,"name":"秀朗大橋","decorType":"bridge"},{"id":"way-783785015","lat":24.983795,"lon":121.528149,"name":"捷運安坑輕軌線小碧潭延伸段(非正式路線)","decorType":"bridge"},{"id":"way-783785016","lat":24.983736,"lon":121.52811,"name":"捷運安坑輕軌線小碧潭延伸段(非正式路線)","decorType":"bridge"},{"id":"way-801035621","lat":24.987838,"lon":121.53223,"name":"白鴿廣場","decorType":"park"},{"id":"way-801035623","lat":24.987017,"lon":121.531876,"name":"未命名水邊","decorType":"waterside"},{"id":"way-801035624","lat":24.987302,"lon":121.532133,"name":"神獸獬豸水池","decorType":"waterside"},{"id":"way-801035625","lat":24.987867,"lon":121.532072,"name":"未命名水邊","decorType":"waterside"},{"id":"way-801035626","lat":24.987958,"lon":121.531946,"name":"未命名水邊","decorType":"waterside"},{"id":"way-1021360859","lat":24.98401,"lon":121.527669,"name":"未命名橋樑","decorType":"bridge"},{"id":"way-1029630125","lat":24.989787,"lon":121.527541,"name":"景平路","decorType":"bridge"},{"id":"way-1064552155","lat":24.980962,"lon":121.526448,"name":"未命名森林","decorType":"forest"},{"id":"way-1064552156","lat":24.979737,"lon":121.525364,"name":"未命名森林","decorType":"forest"},{"id":"way-1064570004","lat":24.981658,"lon":121.526585,"name":"未命名橋樑","decorType":"bridge"},{"id":"way-1064570007","lat":24.981661,"lon":121.525879,"name":"未命名橋樑","decorType":"bridge"},{"id":"way-1137755919","lat":24.98406,"lon":121.527807,"name":"未命名橋樑","decorType":"bridge"},{"id":"way-1137755920","lat":24.98519,"lon":121.524784,"name":"安心橋","decorType":"bridge"},{"id":"way-1137756551","lat":24.985025,"lon":121.526497,"name":"未命名橋樑","decorType":"bridge"},{"id":"way-1137756552","lat":24.985011,"lon":121.526515,"name":"未命名橋樑","decorType":"bridge"},{"id":"way-1198202534","lat":24.991245,"lon":121.526968,"name":"未命名公園","decorType":"park"},{"id":"way-1210726625","lat":24.978169,"lon":121.52305,"name":"陽光橋","decorType":"bridge"},{"id":"way-1228832741","lat":24.984381,"lon":121.527584,"name":"未命名公車站","decorType":"bus_stop"},{"id":"way-1228832742","lat":24.98448,"lon":121.527678,"name":"未命名公車站","decorType":"bus_stop"},{"id":"way-1271030661","lat":24.984377,"lon":121.527303,"name":"未命名公車站","decorType":"bus_stop"},{"id":"way-1274452620","lat":24.985538,"lon":121.524195,"name":"安坑輕軌","decorType":"bridge"},{"id":"way-1274452621","lat":24.98559,"lon":121.524203,"name":"安坑輕軌","decorType":"bridge"},{"id":"way-1300197059","lat":24.98271,"lon":121.528097,"name":"未命名水邊","decorType":"waterside"},{"id":"way-1300197060","lat":24.98891,"lon":121.531998,"name":"未命名水邊","decorType":"waterside"},{"id":"way-1300197061","lat":24.988124,"lon":121.531643,"name":"未命名水邊","decorType":"waterside"},{"id":"way-1300197062","lat":24.988655,"lon":121.531883,"name":"未命名水邊","decorType":"waterside"},{"id":"way-1300197063","lat":24.988443,"lon":121.531796,"name":"未命名水邊","decorType":"waterside"},{"id":"way-1300197064","lat":24.986821,"lon":121.530836,"name":"未命名水邊","decorType":"waterside"},{"id":"way-1306879102","lat":24.990669,"lon":121.5244,"name":"未命名公園","decorType":"park"},{"id":"way-1306879103","lat":24.990624,"lon":121.5244,"name":"未命名公園","decorType":"park"},{"id":"way-1375724185","lat":24.986164,"lon":121.522432,"name":"尖山景福宮","decorType":"shrine"},{"id":"way-1424057336","lat":24.989888,"lon":121.527685,"name":"秀朗大橋","decorType":"bridge"}]}