{"bbox":{"south":24.976306,"north":24.991912,"west":121.56125,"east":121.574281},"pois":[{"id":"way-55567845","lat":24.988821,"lon":121.569833,"name":"景美溪","decorType":"waterside"},{"id":"way-445895115","lat":24.985754,"lon":121.564196,"name":"道南河濱公園右岸","decorType":"park"},{"id":"node-2307722945","lat":24.986673,"lon":121.568908,"name":"7-Eleven","decorType":"convenience"},{"id":"node-2307722953","lat":24.986765,"lon":121.568933,"name":"永安街","decorType":"bus_stop"},{"id":"node-2307722958","lat":24.987194,"lon":121.570723,"name":"指南路口","decorType":"bus_stop"},{"id":"node-2307723028","lat":24.991615,"lon":121.574163,"name":"萬壽橋頭(秀明)","decorType":"bus_stop"},{"id":"node-2307723044","lat":24.98904,"lon":121.56263,"name":"文山一分局","decorType":"bus_stop"},{"id":"node-2307723050","lat":24.988544,"lon":121.566609,"name":"木柵","decorType":"bus_stop"},{"id":"node-2307723055","lat":24.988372,"lon":121.568547,"name":"木柵市場","decorType":"bus_stop"},{"id":"node-2307723057","lat":24.987991,"lon":121.568644,"name":"木柵市場","decorType":"bus_stop"},{"id":"node-2307723060","lat":24.988627,"lon":121.566597,"name":"麥當勞","decorType":"burger"},{"id":"node-2307723067","lat":24.988599,"lon":121.566402,"name":"木柵","decorType":"bus_stop"},{"id":"node-2307723073","lat":24.988651,"lon":121.566476,"name":"麥味登","decorType":"restaurant"},{"id":"node-2307723077","lat":24.987772,"lon":121.569998,"name":"指南路","decorType":"bus_stop"},{"id":"node-2307723080","lat":24.988637,"lon":121.566689,"name":"屈臣氏","decorType":"pharmacy"},{"id":"node-2307729763","lat":24.989039,"lon":121.562569,"name":"文山一分局","decorType":"bus_stop"},{"id":"node-2317024240","lat":24.984657,"lon":121.561542,"name":"忠順街口","decorType":"bus_stop"},{"id":"node-2317024241","lat":24.984378,"lon":121.561833,"name":"忠順街口","decorType":"bus_stop"},{"id":"node-2321753038","lat":24.988062,"lon":121.573848,"name":"新光路口","decorType":"bus_stop"},{"id":"node-2321753039","lat":24.98809,"lon":121.573858,"name":"阿里郎韓國小吃","decorType":"restaurant"},{"id":"node-2323942821","lat":24.990139,"lon":121.570097,"name":"文山行政中心","decorType":"bus_stop"},{"id":"node-2323942822","lat":24.989829,"lon":121.569836,"name":"文山行政中心","decorType":"bus_stop"},{"id":"node-2323943255","lat":24.991309,"lon":121.570973,"name":"萬壽橋頭(木柵)","decorType":"bus_stop"},{"id":"node-2323943256","lat":24.991409,"lon":121.571151,"name":"萬壽橋頭(木柵)","decorType":"bus_stop"},{"id":"node-2333021590","lat":24.985373,"lon":121.57063,"name":"木南公園","decorType":"bus_stop"},{"id":"node-2333021591","lat":24.986082,"lon":121.570634,"name":"指南路口","decorType":"bus_stop"},{"id":"node-2333021592","lat":24.983132,"lon":121.566542,"name":"司法新村","decorType":"bus_stop"},{"id":"node-2333021593","lat":24.983366,"lon":121.566856,"name":"司法新村","decorType":"bus_stop"},{"id":"node-2333021594","lat":24.984121,"lon":121.568943,"name":"景文中學","decorType":"bus_stop"},{"id":"node-2333021595","lat":24.98255,"lon":121.564477,"name":"忠順廟","decorType":"bus_stop"},{"id":"node-2333021596","lat":24.98265,"lon":121.564527,"name":"忠順廟","decorType":"bus_stop"},{"id":"node-2333021597","lat":24.983834,"lon":121.56854,"name":"景文中學","decorType":"bus_stop"},{"id":"node-2333021598","lat":24.984787,"lon":121.570096,"name":"木南公園","decorType":"bus_stop"},{"id":"node-2377024730","lat":24.982582,"lon":121.562291,"name":"國泰新村(興隆)","decorType":"bus_stop"},{"id":"node-2377024731","lat":24.982903,"lon":121.562349,"name":"國泰新村(興隆)","decorType":"bus_stop"},{"id":"node-2414211313","lat":24.989561,"lon":121.564713,"name":"久康街口","decorType":"bus_stop"},{"id":"node-2414211314","lat":24.989747,"lon":121.564728,"name":"久康街口","decorType":"bus_stop"},{"id":"node-2414211315","lat":24.991628,"lon":121.570596,"name":"木柵國小","decorType":"bus_stop"},{"id":"node-2414211316","lat":24.991756,"lon":121.570247,"name":"木柵國小","decorType":"bus_stop"},{"id":"node-2414211318","lat":24.990659,"lon":121.566307,"name":"華夏六村","decorType":"bus_stop"},{"id":"node-2414211319","lat":24.990509,"lon":121.566428,"name":"華夏六村","decorType":"bus_stop"},{"id":"node-2458048360","lat":24.985111,"lon":121.567122,"name":"景文中學(臺灣戲曲學院)","decorType":"bus_stop"},{"id":"node-2458048362","lat":24.983738,"lon":121.5661,"name":"司法新村","decorType":"bus_stop"},{"id":"node-2458048364","lat":24.985716,"lon":121.567424,"name":"景文中學(臺灣戲曲學院)","decorType":"bus_stop"},{"id":"node-2458048367","lat":24.983804,"lon":121.565968,"name":"司法新村","decorType":"bus_stop"},{"id":"node-2458066423","lat":24.982016,"lon":121.561932,"name":"國泰新村(木新)","decorType":"bus_stop"},{"id":"node-2458066424","lat":24.981881,"lon":121.561658,"name":"國泰新村(木新)","decorType":"bus_stop"},{"id":"node-2923774279","lat":24.981765,"lon":121.561625,"name":"羅馬蕃茄義大利麵蔬食","decorType":"restaurant"},{"id":"node-2953696792","lat":24.988564,"lon":121.56582,"name":"全聯福利中心","decorType":"supermarket"},{"id":"node-2953726270","lat":24.984526,"lon":121.563102,"name":"全聯福利中心","decorType":"supermarket"},{"id":"node-2953727569","lat":24.984595,"lon":121.56264,"name":"全家便利商店","decorType":"convenience"},{"id":"node-2953730243","lat":24.984853,"lon":121.56174,"name":"石二鍋","decorType":"restaurant"},{"id":"node-2953759593","lat":24.983089,"lon":121.563915,"name":"MEOWHOUSE 喵好時早餐號","decorType":"restaurant"},{"id":"node-2975425049","lat":24.988551,"lon":121.568403,"name":"全聯福利中心","decorType":"supermarket"},{"id":"node-3036510800","lat":24.987606,"lon":121.569724,"name":"7-Eleven","decorType":"convenience"},{"id":"node-3036519141","lat":24.987676,"lon":121.569303,"name":"木柵水煎包","decorType":"restaurant"},{"id":"node-3036524951","lat":24.988526,"lon":121.566079,"name":"八方雲集","decorType":"burger"},{"id":"node-3104849438","lat":24.988272,"lon":121.565168,"name":"gogopàn元氣麵包社","decorType":"bakery"},{"id":"node-3104850185","lat":24.987721,"lon":121.565316,"name":"紅牛屋","decorType":"restaurant"},{"id":"node-3104850230","lat":24.988272,"lon":121.568547,"name":"茶之初","decorType":"cafe"},{"id":"node-3104851759","lat":24.988669,"lon":121.566937,"name":"星巴克","decorType":"cafe"},{"id":"node-3104851856","lat":24.988502,"lon":121.564771,"name":"三老村","decorType":"restaurant"},{"id":"node-3104852104","lat":24.988576,"lon":121.56454,"name":"順園麻油雞","decorType":"restaurant"},{"id":"node-3104852743","lat":24.987757,"lon":121.564931,"name":"阿段烘培","decorType":"bakery"},{"id":"node-3110615805","lat":24.988489,"lon":121.566893,"name":"7-Eleven","decorType":"convenience"},{"id":"node-3146796069","lat":24.987504,"lon":121.573573,"name":"未命名咖啡廳","decorType":"cafe"},{"id":"node-3188284529","lat":24.986606,"lon":121.568267,"name":"保儀涼麵","decorType":"restaurant"},{"id":"node-3188285418","lat":24.986796,"lon":121.568065,"name":"南山小吃","decorType":"restaurant"},{"id":"node-3188285419","lat":24.986994,"lon":121.568652,"name":"妙豆驛站亭(永久歇業)","decorType":"restaurant"},{"id":"node-3188287387","lat":24.985669,"lon":121.567612,"name":"TDH 貓茶町創始店","decorType":"sweetshop"},{"id":"node-3188302646","lat":24.987426,"lon":121.568667,"name":"牛肉河粉 越南","decorType":"restaurant"},{"id":"node-3188305865","lat":24.988177,"lon":121.568059,"name":"菜根香素食","decorType":"restaurant"},{"id":"node-3188315189","lat":24.988342,"lon":121.567583,"name":"麵疙瘩‧烤肉飯","decorType":"restaurant"},{"id":"node-3188328160","lat":24.988767,"lon":121.567523,"name":"美味兒","decorType":"restaurant"},{"id":"node-3188329661","lat":24.98875,"lon":121.568085,"name":"京橋 日本料理","decorType":"restaurant"},{"id":"node-3188329662","lat":24.9891,"lon":121.562702,"name":"首爾小吃","decorType":"restaurant"},{"id":"node-3188336785","lat":24.988425,"lon":121.565128,"name":"錦祥小館","decorType":"restaurant"},{"id":"node-3188336799","lat":24.985974,"lon":121.570582,"name":"松町和風小舖","decorType":"restaurant"},{"id":"node-3188345266","lat":24.986912,"lon":121.568004,"name":"五花馬 蛋包飯","decorType":"restaurant"},{"id":"node-3188359790","lat":24.987767,"lon":121.564769,"name":"御神四季創藝懷石料理","decorType":"restaurant"},{"id":"node-3188363591","lat":24.987701,"lon":121.565514,"name":"美饍涮涮鍋","decorType":"restaurant"},{"id":"node-3296340697","lat":24.98207,"lon":121.562612,"name":"四海遊龍","decorType":"restaurant"},{"id":"node-3384291943","lat":24.984504,"lon":121.562182,"name":"7-Eleven","decorType":"convenience"},{"id":"node-3384293547","lat":24.985032,"lon":121.561625,"name":"全聯福利中心","decorType":"supermarket"},{"id":"node-3387890570","lat":24.986196,"lon":121.573477,"name":"政大民族學博物館","decorType":"art_gallery"},{"id":"node-3475958693","lat":24.989252,"lon":121.569753,"name":"台灣基督長老教會文山教會","decorType":"shrine"},{"id":"node-3731163595","lat":24.983172,"lon":121.566858,"name":"全家便利商店","decorType":"convenience"},{"id":"node-3731163596","lat":24.983257,"lon":121.56713,"name":"佳佳冰店","decorType":"sweetshop"},{"id":"node-3731163762","lat":24.982078,"lon":121.562997,"name":"全家便利商店","decorType":"convenience"},{"id":"node-3835323342","lat":24.982281,"lon":121.562623,"name":"北平烤鴨","decorType":"restaurant"},{"id":"node-3835323343","lat":24.982482,"lon":121.563702,"name":"海 精緻涮涮鍋","decorType":"restaurant"},{"id":"node-3835323344","lat":24.982543,"lon":121.563969,"name":"火鍋世家","decorType":"restaurant"},{"id":"node-3835323345","lat":24.982754,"lon":121.564774,"name":"能量屋 營養早餐","decorType":"restaurant"},{"id":"node-3835323347","lat":24.983075,"lon":121.565937,"name":"新榮平價熱炒","decorType":"restaurant"},{"id":"node-3835323348","lat":24.983202,"lon":121.566329,"name":"焱鬼鍋燒專門店","decorType":"restaurant"},{"id":"node-3835323349","lat":24.983292,"lon":121.566584,"name":"陽城燒臘快餐","decorType":"restaurant"},{"id":"node-3835323350","lat":24.983416,"lon":121.566785,"name":"集品鐵板燒","decorType":"restaurant"},{"id":"node-3835331461","lat":24.98134,"lon":121.566901,"name":"兒童溜滑梯","decorType":"park"},{"id":"node-3835339682","lat":24.982556,"lon":121.564032,"name":"7-Eleven","decorType":"convenience"},{"id":"node-3835339684","lat":24.98331,"lon":121.566641,"name":"Qburger","decorType":"burger"},{"id":"node-3835339685","lat":24.983479,"lon":121.567063,"name":"早。自己","decorType":"restaurant"},{"id":"node-3835339687","lat":24.983937,"lon":121.568409,"name":"軒堡早餐店","decorType":"restaurant"},{"id":"node-3835339688","lat":24.98397,"lon":121.568493,"name":"文安堂蔘藥行","decorType":"pharmacy"},{"id":"node-3835339689","lat":24.984001,"lon":121.568618,"name":"BigBurger比飽嗝大漢堡早午餐","decorType":"restaurant"},{"id":"node-3835339690","lat":24.984185,"lon":121.568827,"name":"家樂福超市","decorType":"supermarket"},{"id":"node-3835339694","lat":24.98484,"lon":121.564426,"name":"巧味豆漿店","decorType":"restaurant"},{"id":"node-3835339699","lat":24.98431,"lon":121.561832,"name":"紅太陽早餐吧","decorType":"restaurant"},{"id":"node-3835339704","lat":24.983107,"lon":121.562331,"name":"佳品早餐店","decorType":"restaurant"},{"id":"node-3835342086","lat":24.984808,"lon":121.561759,"name":"葡萄樹","decorType":"restaurant"},{"id":"node-3835342090","lat":24.98335,"lon":121.562237,"name":"花猴子","decorType":"restaurant"},{"id":"node-3835342091","lat":24.98256,"lon":121.562237,"name":"阿卡乾麵","decorType":"restaurant"},{"id":"node-3835342092","lat":24.982113,"lon":121.562279,"name":"三三活力早餐","decorType":"restaurant"},{"id":"node-3835342093","lat":24.982046,"lon":121.56187,"name":"太子拉麵","decorType":"restaurant"},{"id":"node-3835342094","lat":24.982017,"lon":121.561787,"name":"芮比特","decorType":"restaurant"},{"id":"node-3835342095","lat":24.982001,"lon":121.561707,"name":"集品18生活館","decorType":"restaurant"},{"id":"node-3835342096","lat":24.981971,"lon":121.561595,"name":"曲家麵館","decorType":"restaurant"},{"id":"node-3835342097","lat":24.981956,"lon":121.561549,"name":"韓首爾","decorType":"restaurant"},{"id":"node-3835345471","lat":24.983248,"lon":121.566446,"name":"木柵米粉湯","decorType":"restaurant"},{"id":"node-3835345472","lat":24.983452,"lon":121.566979,"name":"巨林美而美早餐","decorType":"restaurant"},{"id":"node-3835345473","lat":24.983501,"lon":121.567122,"name":"豪堡平價牛排館","decorType":"restaurant"},{"id":"node-3835345474","lat":24.983607,"lon":121.567403,"name":"85度C","decorType":"cafe"},{"id":"node-3835345475","lat":24.98367,"lon":121.567498,"name":"7-Eleven","decorType":"convenience"},{"id":"node-3835345476","lat":24.9837,"lon":121.56781,"name":"海王居酒屋","decorType":"restaurant"},{"id":"node-3835345478","lat":24.983791,"lon":121.567974,"name":"Lion手工蛋餅","decorType":"restaurant"},{"id":"node-3835345479","lat":24.983851,"lon":121.568183,"name":"如意小吃","decorType":"restaurant"},{"id":"node-3835345480","lat":24.983865,"lon":121.568214,"name":"劉家鹽酥雞","decorType":"restaurant"},{"id":"node-3835345481","lat":24.983968,"lon":121.568598,"name":"台南木新店","decorType":"restaurant"},{"id":"node-3835345482","lat":24.984028,"lon":121.568707,"name":"玉口香扁食園","decorType":"restaurant"},{"id":"node-3835345483","lat":24.983614,"lon":121.566496,"name":"劉哥牛肉麵","decorType":"restaurant"},{"id":"node-3835345484","lat":24.983699,"lon":121.566354,"name":"雜糧店","decorType":"restaurant"},{"id":"node-3835345485","lat":24.983799,"lon":121.566382,"name":"11便當","decorType":"restaurant"},{"id":"node-3835345486","lat":24.983854,"lon":121.566313,"name":"好鄰居小吃店","decorType":"restaurant"},{"id":"node-3835345487","lat":24.983902,"lon":121.56624,"name":"永旺水餃","decorType":"restaurant"},{"id":"node-3835345488","lat":24.984079,"lon":121.566366,"name":"景文快餐便當","decorType":"restaurant"},{"id":"node-3835345489","lat":24.984215,"lon":121.566468,"name":"心飲咖啡輕食館","decorType":"restaurant"},{"id":"node-3835345490","lat":24.985,"lon":121.56576,"name":"牛肉麵","decorType":"restaurant"},{"id":"node-3835345492","lat":24.983279,"lon":121.563866,"name":"雅風音樂咖啡餐廳","decorType":"restaurant"},{"id":"node-3835345493","lat":24.98279,"lon":121.562437,"name":"滷大鼎","decorType":"restaurant"},{"id":"node-3835345494","lat":24.982476,"lon":121.562552,"name":"舒咖啡","decorType":"restaurant"},{"id":"node-3835346555","lat":24.981719,"lon":121.561268,"name":"清心福全","decorType":"cafe"},{"id":"node-3835349529","lat":24.985094,"lon":121.561555,"name":"禮莎烘焙坊","decorType":"bakery"},{"id":"node-3835349531","lat":24.984539,"lon":121.561344,"name":"老頭家客家菜","decorType":"restaurant"},{"id":"node-3835351384","lat":24.981923,"lon":121.562079,"name":"屈臣氏","decorType":"pharmacy"},{"id":"node-3835358922","lat":24.98132,"lon":121.56133,"name":"朵明哥咖啡館","decorType":"cafe"},{"id":"node-3835377570","lat":24.983904,"lon":121.568913,"name":"萊爾富","decorType":"convenience"},{"id":"node-3835377571","lat":24.983868,"lon":121.568675,"name":"晨間廚房早午餐木柵景文店","decorType":"restaurant"},{"id":"node-3835377572","lat":24.983549,"lon":121.567969,"name":"康迪麥早餐店","decorType":"restaurant"},{"id":"node-3835377573","lat":24.983481,"lon":121.567725,"name":"捷白自助洗衣","decorType":"laundry"},{"id":"node-3835377574","lat":24.983387,"lon":121.567503,"name":"大愛幸福藥局","decorType":"pharmacy"},{"id":"node-3835377575","lat":24.983324,"lon":121.56733,"name":"華娜飯盒","decorType":"restaurant"},{"id":"node-3835377576","lat":24.983316,"lon":121.567293,"name":"ALPHA TOAST-文山美食-早餐-餐廳","decorType":"restaurant"},{"id":"node-3835377577","lat":24.983297,"lon":121.567219,"name":"萬華莊家班麻油雞 木新店","decorType":"restaurant"},{"id":"node-3835377578","lat":24.983113,"lon":121.566673,"name":"7-Eleven","decorType":"convenience"},{"id":"node-3835377579","lat":24.983082,"lon":121.56659,"name":"木柵區農會信用部","decorType":"restaurant"},{"id":"node-3846207450","lat":24.983099,"lon":121.566792,"name":"食餓知餓甜不辣","decorType":"restaurant"},{"id":"node-3846208507","lat":24.982945,"lon":121.566886,"name":"水果行","decorType":"supermarket"},{"id":"node-3846209332","lat":24.982662,"lon":121.56703,"name":"全聯福利中心","decorType":"supermarket"},{"id":"node-3846209735","lat":24.983019,"lon":121.566782,"name":"恆光街香酥雞","decorType":"restaurant"},{"id":"node-3846211918","lat":24.982792,"lon":121.566774,"name":"五行手工黑豬肉水餃專賣店","decorType":"restaurant"},{"id":"node-3846213192","lat":24.98263,"lon":121.565257,"name":"麵包大亨","decorType":"bakery"},{"id":"node-3846213484","lat":24.982659,"lon":121.565217,"name":"綠森林早餐吧","decorType":"restaurant"},{"id":"node-3846213485","lat":24.982604,"lon":121.565028,"name":"老爹鵝肉","decorType":"restaurant"},{"id":"node-3846214361","lat":24.982567,"lon":121.564872,"name":"生炒花枝","decorType":"restaurant"},{"id":"node-3846215057","lat":24.982485,"lon":121.564595,"name":"morning熊早餐","decorType":"restaurant"},{"id":"node-3846215060","lat":24.98237,"lon":121.564313,"name":"一粒醣蛋糕坊 Low Calorie Dessert","decorType":"bakery"},{"id":"node-3846215748","lat":24.982324,"lon":121.563909,"name":"純補碳燒羊肉爐","decorType":"restaurant"},{"id":"node-3846216568","lat":24.982273,"lon":121.563752,"name":"香屋咖啡 香屋素食西餐","decorType":"restaurant"},{"id":"node-3846216569","lat":24.982264,"lon":121.56369,"name":"LI RA 義大利廚房","decorType":"restaurant"},{"id":"node-3846216587","lat":24.982211,"lon":121.563512,"name":"My Home 早餐專賣店","decorType":"restaurant"},{"id":"node-4103079071","lat":24.979995,"lon":121.571712,"name":"自強十舍","decorType":"bus_stop"},{"id":"node-4232903590","lat":24.988718,"lon":121.564103,"name":"鼎松五金工具","decorType":"hardware"},{"id":"node-4293261201","lat":24.986727,"lon":121.568154,"name":"上蓋好3C手機配件館 木柵店","decorType":"electronics"},{"id":"node-4293261215","lat":24.981511,"lon":121.571823,"name":"文山政大郵局","decorType":"post_office"},{"id":"node-4293261223","lat":24.982019,"lon":121.572786,"name":"百年樓","decorType":"bus_stop"},{"id":"node-4293261224","lat":24.982246,"lon":121.573445,"name":"百年樓","decorType":"bus_stop"},{"id":"node-4293261226","lat":24.986556,"lon":121.570172,"name":"立欣生鮮便利商店","decorType":"convenience"},{"id":"node-4293261278","lat":24.981226,"lon":121.572144,"name":"未命名郵局","decorType":"post_office"},{"id":"node-4293261279","lat":24.9818,"lon":121.57274,"name":"未命名郵局","decorType":"post_office"},{"id":"node-4293261305","lat":24.991761,"lon":121.573816,"name":"未命名郵局","decorType":"post_office"},{"id":"node-4293261312","lat":24.980349,"lon":121.569921,"name":"好漢坡","decorType":"bus_stop"},{"id":"node-4293261313","lat":24.98035,"lon":121.570396,"name":"好漢坡","decorType":"bus_stop"},{"id":"node-4293261314","lat":24.981334,"lon":121.571927,"name":"藝文中心","decorType":"bus_stop"},{"id":"node-4293261315","lat":24.981287,"lon":121.57214,"name":"藝文中心","decorType":"bus_stop"},{"id":"node-4293261323","lat":24.989128,"lon":121.562936,"name":"7-Eleven","decorType":"convenience"},{"id":"node-4293261324","lat":24.991557,"lon":121.574164,"name":"7-Eleven","decorType":"convenience"},{"id":"node-4325693930","lat":24.982251,"lon":121.562291,"name":"泰喜廚房","decorType":"restaurant"},{"id":"node-4325693954","lat":24.978603,"lon":121.573869,"name":"大草坪(自強宿舍)","decorType":"bus_stop"},{"id":"node-4572867289","lat":24.983098,"lon":121.566745,"name":"恆光橋控肉飯","decorType":"restaurant"},{"id":"node-4996817887","lat":24.980361,"lon":121.571863,"name":"巨流政大書局","decorType":"library"},{"id":"node-4996817888","lat":24.980219,"lon":121.571873,"name":"萊爾富","decorType":"convenience"},{"id":"node-4996818947","lat":24.979606,"lon":121.571352,"name":"安九食堂","decorType":"restaurant"},{"id":"node-5015984540","lat":24.988645,"lon":121.566768,"name":"路易莎咖啡","decorType":"cafe"},{"id":"node-5289030821","lat":24.986771,"lon":121.568649,"name":"海天小館","decorType":"restaurant"},{"id":"node-5466056566","lat":24.988802,"lon":121.568711,"name":"全家便利商店","decorType":"convenience"},{"id":"node-6024333532","lat":24.984606,"lon":121.561807,"name":"康是美","decorType":"pharmacy"},{"id":"node-6255729857","lat":24.978324,"lon":121.574048,"name":"大草坪(自強宿舍)","decorType":"bus_stop"},{"id":"node-6522577784","lat":24.989069,"lon":121.56244,"name":"必勝客","decorType":"restaurant"},{"id":"node-6551068541","lat":24.989987,"lon":121.56294,"name":"全家便利商店","decorType":"convenience"},{"id":"node-6843906374","lat":24.984138,"lon":121.561686,"name":"OK超商","decorType":"convenience"},{"id":"node-6865327428","lat":24.988954,"lon":121.568938,"name":"金福記餅店","decorType":"sweetshop"},{"id":"node-6987688023","lat":24.984338,"lon":121.561599,"name":"咖哩空間","decorType":"restaurant"},{"id":"node-6987688026","lat":24.983962,"lon":121.561713,"name":"鴨肉飯麵水餃便當","decorType":"restaurant"},{"id":"node-7102080147","lat":24.982123,"lon":121.56281,"name":"德意事歐事美食屋","decorType":"restaurant"},{"id":"node-7194693212","lat":24.990938,"lon":121.573534,"name":"漢堡寶活力早餐店","decorType":"restaurant"},{"id":"node-7194693217","lat":24.986176,"lon":121.573473,"name":"15 cafe","decorType":"restaurant"},{"id":"node-7194693226","lat":24.98949,"lon":121.573811,"name":"喔嗨唷早餐店","decorType":"restaurant"},{"id":"node-7194693232","lat":24.988577,"lon":121.57376,"name":"大鬍子老爹麵店","decorType":"restaurant"},{"id":"node-7194693238","lat":24.990528,"lon":121.573774,"name":"蔬福創意蔬食料理【純素、奶素】","decorType":"restaurant"},{"id":"node-7194706690","lat":24.990906,"lon":121.573551,"name":"米粉湯滷肉飯","decorType":"restaurant"},{"id":"node-7194706703","lat":24.989326,"lon":121.57391,"name":"新光路無名麵攤","decorType":"restaurant"},{"id":"node-7194706717","lat":24.990511,"lon":121.573799,"name":"早安找點","decorType":"restaurant"},{"id":"node-7194706722","lat":24.989767,"lon":121.573635,"name":"Trattoria al Sole","decorType":"restaurant"},{"id":"node-7194706735","lat":24.988474,"lon":121.573837,"name":"大腕玉里麵","decorType":"restaurant"},{"id":"node-7194706767","lat":24.991087,"lon":121.573815,"name":"美式早餐屋","decorType":"restaurant"},{"id":"node-7194706787","lat":24.98888,"lon":121.573634,"name":"里克德義廚房","decorType":"restaurant"},{"id":"node-7194706795","lat":24.990781,"lon":121.573859,"name":"新光小吃店","decorType":"restaurant"},{"id":"node-7194706803","lat":24.989681,"lon":121.57364,"name":"巴東蜀味","decorType":"restaurant"},{"id":"node-7194706816","lat":24.988227,"lon":121.573445,"name":"加賀日式料理","decorType":"restaurant"},{"id":"node-7194706848","lat":24.991005,"lon":121.573784,"name":"味新飲食店","decorType":"restaurant"},{"id":"node-7194706868","lat":24.989292,"lon":121.57385,"name":"韓大佬韓式精緻料理","decorType":"restaurant"},{"id":"node-7194706876","lat":24.990573,"lon":121.573831,"name":"小鴨藥膳加熱滷味","decorType":"restaurant"},{"id":"node-7194706884","lat":24.989923,"lon":121.5738,"name":"敘緣小館","decorType":"restaurant"},{"id":"node-7194706930","lat":24.991356,"lon":121.573812,"name":"三媽臭臭鍋","decorType":"restaurant"},{"id":"node-7194706942","lat":24.979665,"lon":121.571169,"name":"極鮮滷味","decorType":"restaurant"},{"id":"node-7194706950","lat":24.989125,"lon":121.573641,"name":"津喜甜不辣","decorType":"restaurant"},{"id":"node-7194706957","lat":24.98862,"lon":121.573752,"name":"京華小吃","decorType":"restaurant"},{"id":"node-7194706964","lat":24.989835,"lon":121.57364,"name":"蘭亭池上便當","decorType":"restaurant"},{"id":"node-7194706981","lat":24.988213,"lon":121.573547,"name":"小曼谷泰國雲南料理 政大店","decorType":"restaurant"},{"id":"node-7194707008","lat":24.991263,"lon":121.573809,"name":"龎舍炸物","decorType":"restaurant"},{"id":"node-7220601355","lat":24.988586,"lon":121.569179,"name":"木柵分館","decorType":"library"},{"id":"node-7559959741","lat":24.989763,"lon":121.56591,"name":"清鳳宮","decorType":"shrine"},{"id":"node-7559959747","lat":24.989012,"lon":121.566138,"name":"Mr.田","decorType":"restaurant"},{"id":"node-7559959762","lat":24.989366,"lon":121.563546,"name":"信義會聖道堂","decorType":"shrine"},{"id":"node-7559959771","lat":24.989558,"lon":121.562191,"name":"楠興宮","decorType":"shrine"},{"id":"node-7597631114","lat":24.987648,"lon":121.562175,"name":"全家便利商店","decorType":"convenience"},{"id":"node-7698686116","lat":24.980135,"lon":121.57183,"name":"異饗食堂","decorType":"restaurant"},{"id":"node-7699355909","lat":24.986543,"lon":121.568231,"name":"綠果思漢堡/太空城飲料炸雞","decorType":"restaurant"},{"id":"node-7699355910","lat":24.98637,"lon":121.568143,"name":"晨間戀人早餐店","decorType":"restaurant"},{"id":"node-7699355911","lat":24.986508,"lon":121.567999,"name":"小貓咪早餐店","decorType":"restaurant"},{"id":"node-7699355912","lat":24.986912,"lon":121.567927,"name":"饌鈺坊 蛋包飯","decorType":"restaurant"},{"id":"node-7699355914","lat":24.988368,"lon":121.564853,"name":"老店牛肉麵","decorType":"restaurant"},{"id":"node-7699355915","lat":24.988429,"lon":121.564596,"name":"源士林","decorType":"restaurant"},{"id":"node-7699355916","lat":24.988493,"lon":121.564988,"name":"孫東寶","decorType":"restaurant"},{"id":"node-7699355917","lat":24.988503,"lon":121.564904,"name":"大興雞腿王","decorType":"restaurant"},{"id":"node-7699355918","lat":24.988499,"lon":121.564846,"name":"945鍋","decorType":"restaurant"},{"id":"node-7699355919","lat":24.988557,"lon":121.564633,"name":"辛王記涼麵美食專賣店","decorType":"restaurant"},{"id":"node-7699355920","lat":24.988735,"lon":121.56465,"name":"咖在有哩","decorType":"restaurant"},{"id":"node-7699355921","lat":24.98881,"lon":121.563859,"name":"大禾養生蔬食","decorType":"restaurant"},{"id":"node-7699355922","lat":24.98888,"lon":121.563675,"name":"誠鵝肉專賣","decorType":"restaurant"},{"id":"node-7699355923","lat":24.988945,"lon":121.563504,"name":"港式榮旺飯麵小館","decorType":"restaurant"},{"id":"node-7699355924","lat":24.989113,"lon":121.56281,"name":"滷味小舖","decorType":"restaurant"},{"id":"node-7699355925","lat":24.988837,"lon":121.563789,"name":"山姆叔叔元氣早午餐","decorType":"restaurant"},{"id":"node-7699355926","lat":24.988591,"lon":121.561325,"name":"阿家壽司","decorType":"restaurant"},{"id":"node-7699355937","lat":24.988929,"lon":121.56158,"name":"胖老爹美式炸雞","decorType":"burger"},{"id":"node-7699355939","lat":24.989003,"lon":121.561892,"name":"好棒棒食堂","decorType":"restaurant"},{"id":"node-7699355940","lat":24.989021,"lon":121.562042,"name":"家好自助餐","decorType":"restaurant"},{"id":"node-7749819272","lat":24.985939,"lon":121.570745,"name":"北平餡餅粥","decorType":"restaurant"},{"id":"node-7749819275","lat":24.984516,"lon":121.569625,"name":"燕樓小館","decorType":"restaurant"},{"id":"node-7749819276","lat":24.98767,"lon":121.570419,"name":"葉記鴨肉飯","decorType":"restaurant"},{"id":"node-7749819279","lat":24.984069,"lon":121.569294,"name":"品佳牛肉麵","decorType":"restaurant"},{"id":"node-7749819280","lat":24.984432,"lon":121.570056,"name":"三一活力早餐","decorType":"restaurant"},{"id":"node-7749819282","lat":24.986673,"lon":121.570578,"name":"木柵串霸","decorType":"restaurant"},{"id":"node-7749821085","lat":24.98437,"lon":121.570018,"name":"浪漫滿屋食坊卡拉OK","decorType":"restaurant"},{"id":"node-7749821093","lat":24.9858,"lon":121.561408,"name":"麥味登","decorType":"restaurant"},{"id":"node-7749821095","lat":24.985657,"lon":121.561461,"name":"食安唯雞","decorType":"restaurant"},{"id":"node-7749821098","lat":24.986233,"lon":121.570538,"name":"有喜居酒屋","decorType":"restaurant"},{"id":"node-7749821101","lat":24.987628,"lon":121.569918,"name":"橘子屋素食","decorType":"restaurant"},{"id":"node-7749821102","lat":24.985169,"lon":121.56155,"name":"忠順美","decorType":"restaurant"},{"id":"node-7749821104","lat":24.987581,"lon":121.571014,"name":"Jonnobi 關東煮 + 酒場","decorType":"restaurant"},{"id":"node-7749821105","lat":24.984776,"lon":121.570321,"name":"愛琴海咖啡.簡餐.飲料","decorType":"restaurant"},{"id":"node-7749821107","lat":24.982567,"lon":121.567847,"name":"浣熊與愛美麗手工鍋貼","decorType":"restaurant"},{"id":"node-7801913866","lat":24.98117,"lon":121.561962,"name":"十里香華","decorType":"restaurant"},{"id":"node-8030231523","lat":24.988515,"lon":121.566012,"name":"未命名麵包店","decorType":"bakery"},{"id":"node-8276575340","lat":24.980188,"lon":121.571957,"name":"Eco cafe","decorType":"cafe"},{"id":"node-8385313316","lat":24.983893,"lon":121.568742,"name":"八方雲集","decorType":"burger"},{"id":"node-8385313380","lat":24.984753,"lon":121.56272,"name":"八方雲集","decorType":"burger"},{"id":"node-8399992379","lat":24.990713,"lon":121.573767,"name":"來來豆漿","decorType":"restaurant"},{"id":"node-8399992885","lat":24.988125,"lon":121.573933,"name":"龍角 Dragon Horn 文山政大店","decorType":"cafe"},{"id":"node-8400037341","lat":24.988678,"lon":121.573668,"name":"7-Eleven","decorType":"convenience"},{"id":"node-8432400681","lat":24.990038,"lon":121.570869,"name":"文山行政中心(木新)","decorType":"bus_stop"},{"id":"node-8432400682","lat":24.989444,"lon":121.570621,"name":"文山行政中心(木新)","decorType":"bus_stop"},{"id":"node-8518273541","lat":24.987614,"lon":121.569761,"name":"指南路","decorType":"bus_stop"},{"id":"node-8518273542","lat":24.986812,"lon":121.569648,"name":"永安街","decorType":"bus_stop"},{"id":"node-8738031029","lat":24.982858,"lon":121.565975,"name":"麥味登","decorType":"restaurant"},{"id":"node-8738031030","lat":24.982744,"lon":121.565646,"name":"永和豆漿大王","decorType":"burger"},{"id":"node-8867973095","lat":24.983388,"lon":121.56223,"name":"See Food 無國界料理","decorType":"restaurant"},{"id":"node-8972399037","lat":24.982534,"lon":121.564732,"name":"文山樟腳里郵局","decorType":"post_office"},{"id":"node-9141665902","lat":24.979231,"lon":121.566486,"name":"福德宮","decorType":"shrine"},{"id":"node-9401545422","lat":24.987248,"lon":121.568662,"name":"蝦皮店到店","decorType":"convenience"},{"id":"node-9401545423","lat":24.98736,"lon":121.568501,"name":"全家便利商店","decorType":"convenience"},{"id":"node-9401545426","lat":24.989016,"lon":121.561996,"name":"蝦皮店到店","decorType":"convenience"},{"id":"node-9565751905","lat":24.98206,"lon":121.562735,"name":"未命名餐廳","decorType":"restaurant"},{"id":"node-9589431608","lat":24.982539,"lon":121.566911,"name":"邁可船釣生魚片","decorType":"restaurant"},{"id":"node-9589434827","lat":24.983046,"lon":121.566891,"name":"20年老店-楊媽媽臭豆腐","decorType":"restaurant"},{"id":"node-9765983611","lat":24.989027,"lon":121.56209,"name":"皇興藥師藥局","decorType":"pharmacy"},{"id":"node-9768711997","lat":24.988916,"lon":121.563581,"name":"品奕餅店","decorType":"sweetshop"},{"id":"node-9768711998","lat":24.988798,"lon":121.563893,"name":"新竹光復饅頭店","decorType":"bakery"},{"id":"node-9768712001","lat":24.988692,"lon":121.564172,"name":"日式珍珠紅豆餅","decorType":"sweetshop"},{"id":"node-10859528401","lat":24.982036,"lon":121.56252,"name":"漢堡王","decorType":"burger"},{"id":"node-11377581695","lat":24.979437,"lon":121.57085,"name":"山居學習中心","decorType":"bus_stop"},{"id":"node-11775194293","lat":24.989233,"lon":121.56333,"name":"蛙奶ㄟ呷厚拎","decorType":"cafe"},{"id":"node-11775194294","lat":24.989222,"lon":121.563303,"name":"烤雞霸葷","decorType":"burger"},{"id":"node-11969327696","lat":24.979653,"lon":121.567483,"name":"恒光橋崙","decorType":"mountain"},{"id":"node-12343143756","lat":24.988053,"lon":121.56528,"name":"DoDo Cafe","decorType":"cafe"},{"id":"node-12525788981","lat":24.977949,"lon":121.564389,"name":"恒光山","decorType":"mountain"},{"id":"node-13130475071","lat":24.988219,"lon":121.573499,"name":"老味道鍋物","decorType":"restaurant"},{"id":"node-13130475076","lat":24.988815,"lon":121.573644,"name":"芳妮髮型工作室","decorType":"hair_salon"},{"id":"node-13130475077","lat":24.988175,"lon":121.57372,"name":"蛋蛋的幸福 蔬食料理","decorType":"cafe"},{"id":"node-13131122549","lat":24.987889,"lon":121.574226,"name":"專品藥局 政大店","decorType":"pharmacy"},{"id":"node-13131122550","lat":24.987905,"lon":121.574082,"name":"私房麵","decorType":"restaurant"},{"id":"node-13131122556","lat":24.987884,"lon":121.574262,"name":"素還真","decorType":"restaurant"},{"id":"node-13131122562","lat":24.98837,"lon":121.573735,"name":"海熊咖啡","decorType":"cafe"},{"id":"node-13131122563","lat":24.988495,"lon":121.573745,"name":"梅林美髮工作室","decorType":"hair_salon"},{"id":"node-13131122570","lat":24.988742,"lon":121.573877,"name":"如玉莊","decorType":"art_gallery"},{"id":"node-13131122571","lat":24.988732,"lon":121.573785,"name":"小靖子可麗餅","decorType":"sweetshop"},{"id":"node-13131122573","lat":24.985941,"lon":121.570929,"name":"自由·之丘","decorType":"cafe"},{"id":"node-13131122574","lat":24.986085,"lon":121.570602,"name":"尪公祖養生早餐","decorType":"restaurant"},{"id":"node-13134450076","lat":24.987781,"lon":121.571061,"name":"唯今蛋糕 Weijincake","decorType":"sweetshop"},{"id":"node-13134450081","lat":24.987593,"lon":121.571269,"name":"好啤氣 Temper","decorType":"restaurant"},{"id":"node-13134450082","lat":24.987384,"lon":121.57049,"name":"富麗乾洗名店","decorType":"laundry"},{"id":"node-13134450083","lat":24.987323,"lon":121.570552,"name":"緯宏電器行","decorType":"electronics"},{"id":"node-13134450084","lat":24.987681,"lon":121.570185,"name":"愛美美甲美睫","decorType":"cosmetics"},{"id":"node-13134450087","lat":24.987709,"lon":121.569632,"name":"天香食品店","decorType":"supermarket"},{"id":"node-13134450088","lat":24.987665,"lon":121.570074,"name":"泰媽早午餐","decorType":"restaurant"},{"id":"node-13134450089","lat":24.987657,"lon":121.569991,"name":"木柵水煎包","decorType":"restaurant"},{"id":"node-13134450090","lat":24.987649,"lon":121.569956,"name":"活力旺早餐店","decorType":"restaurant"},{"id":"node-13134450091","lat":24.987663,"lon":121.570033,"name":"泰味娘","decorType":"restaurant"},{"id":"node-13134450092","lat":24.987691,"lon":121.569402,"name":"鼎順專業收購 龍銀 勞力士 老酒 字畫","decorType":"art_gallery"},{"id":"node-13134450093","lat":24.987574,"lon":121.56941,"name":"富康活力藥局-睦柵店","decorType":"pharmacy"},{"id":"node-13134450094","lat":24.987599,"lon":121.569589,"name":"海天小館","decorType":"restaurant"},{"id":"node-13134450095","lat":24.987672,"lon":121.568982,"name":"絲工藝坊","decorType":"art_gallery"},{"id":"node-13134450096","lat":24.987865,"lon":121.568661,"name":"人人健保藥局","decorType":"pharmacy"},{"id":"node-13134450097","lat":24.987699,"lon":121.568784,"name":"高家阿婆麵線","decorType":"restaurant"},{"id":"node-13134450098","lat":24.987807,"lon":121.569465,"name":"福軒麵包店","decorType":"bakery"},{"id":"node-13134450099","lat":24.98847,"lon":121.569123,"name":"玲の百貨行","decorType":"clothing"},{"id":"node-13134450100","lat":24.988463,"lon":121.56906,"name":"禾品精品皮件","decorType":"clothing"},{"id":"node-13134459201","lat":24.988515,"lon":121.570246,"name":"彌敦道愛剪不剪","decorType":"hair_salon"},{"id":"node-13134459202","lat":24.988493,"lon":121.570039,"name":"美采藝術指甲","decorType":"cosmetics"},{"id":"node-13134459203","lat":24.98848,"lon":121.569961,"name":"黛比童舖子","decorType":"clothing"},{"id":"node-13134459204","lat":24.988258,"lon":121.569455,"name":"成發雜糧行","decorType":"supermarket"},{"id":"node-13134459209","lat":24.986885,"lon":121.570526,"name":"萬明企業社","decorType":"hardware"},{"id":"node-13134459212","lat":24.982886,"lon":121.567016,"name":"雞蛋碰雞蛋 包餡雞蛋糕","decorType":"sweetshop"},{"id":"node-13134459214","lat":24.983422,"lon":121.567581,"name":"大霖電器","decorType":"electronics"},{"id":"node-13134459218","lat":24.983432,"lon":121.566933,"name":"Yumi hair salon 質感髮廊","decorType":"hair_salon"},{"id":"node-13134459219","lat":24.983002,"lon":121.566913,"name":"全家服乾洗商店","decorType":"laundry"},{"id":"node-13134459220","lat":24.982958,"lon":121.566927,"name":"香菇肉粥","decorType":"restaurant"},{"id":"node-13134459221","lat":24.982527,"lon":121.566876,"name":"恆光街炒飯炒麵","decorType":"restaurant"},{"id":"node-13134459222","lat":24.982737,"lon":121.566868,"name":"恆光橋臭豆腐","decorType":"restaurant"},{"id":"node-13134459223","lat":24.982691,"lon":121.566893,"name":"恆光街水煎包蔥油餅","decorType":"restaurant"},{"id":"node-13134459224","lat":24.982732,"lon":121.566848,"name":"梅小月刈包","decorType":"restaurant"},{"id":"node-13134459225","lat":24.983006,"lon":121.566727,"name":"Nail Rosy","decorType":"cosmetics"},{"id":"node-13134459226","lat":24.982853,"lon":121.566835,"name":"無骨鳳爪","decorType":"restaurant"},{"id":"node-13134459227","lat":24.982897,"lon":121.567045,"name":"26鹽水雞木柵店","decorType":"restaurant"},{"id":"node-13134459228","lat":24.981638,"lon":121.566848,"name":"15號院子咖啡","decorType":"cafe"},{"id":"node-13134459232","lat":24.982718,"lon":121.565523,"name":"高Smile","decorType":"restaurant"},{"id":"node-13134459233","lat":24.982814,"lon":121.565806,"name":"鵝肉世家","decorType":"restaurant"},{"id":"node-13134459234","lat":24.982873,"lon":121.566036,"name":"躍獅奕新藥局","decorType":"pharmacy"},{"id":"node-13134459235","lat":24.982832,"lon":121.565914,"name":"活蝦八八","decorType":"restaurant"},{"id":"node-13134459239","lat":24.982966,"lon":121.566255,"name":"巧妃髮園","decorType":"hair_salon"},{"id":"node-13134459240","lat":24.983017,"lon":121.566392,"name":"老饒牛肉麵店","decorType":"restaurant"},{"id":"node-13134459241","lat":24.983067,"lon":121.566533,"name":"柔柔の炸語","decorType":"restaurant"},{"id":"node-13134459242","lat":24.983097,"lon":121.566017,"name":"山的另一邊","decorType":"restaurant"},{"id":"node-13134459243","lat":24.983117,"lon":121.566072,"name":"茶聚CHAGE","decorType":"cafe"},{"id":"node-13134459244","lat":24.983161,"lon":121.566209,"name":"粥大福","decorType":"restaurant"},{"id":"node-13134459246","lat":24.983267,"lon":121.566521,"name":"上頡創意沙龍(保儀店)","decorType":"hair_salon"},{"id":"node-13134459247","lat":24.983528,"lon":121.566537,"name":"美麗的麵線","decorType":"restaurant"},{"id":"node-13134459248","lat":24.983107,"lon":121.565618,"name":"純地瓜球","decorType":"sweetshop"},{"id":"node-13134459251","lat":24.986902,"lon":121.569357,"name":"進恩水電材料有限公司","decorType":"hardware"},{"id":"node-13134459252","lat":24.986903,"lon":121.570304,"name":"toko indo pondok indah","decorType":"supermarket"},{"id":"node-13134459257","lat":24.987221,"lon":121.570598,"name":"開運壽司涼麵","decorType":"restaurant"},{"id":"node-13134459258","lat":24.983852,"lon":121.568512,"name":"鞋全家福","decorType":"clothing"},{"id":"node-13134459259","lat":24.983672,"lon":121.568316,"name":"藝饗天地設計工作室","decorType":"art_gallery"},{"id":"node-13134459260","lat":24.983691,"lon":121.568401,"name":"La New","decorType":"clothing"},{"id":"node-13134459261","lat":24.983646,"lon":121.568246,"name":"世新男士理髮","decorType":"hair_salon"},{"id":"node-13134459264","lat":24.983662,"lon":121.568285,"name":"Beauty19th hair salon","decorType":"hair_salon"},{"id":"node-13134459266","lat":24.983827,"lon":121.568127,"name":"鐵頭之屋","decorType":"hair_salon"},{"id":"node-13134459270","lat":24.983782,"lon":121.567948,"name":"可口美食 炒飯炒麵","decorType":"restaurant"},{"id":"node-13134459271","lat":24.983948,"lon":121.568438,"name":"儷髮苑 木柵店","decorType":"hair_salon"},{"id":"node-13134459274","lat":24.983692,"lon":121.567667,"name":"藤香厚工豆花","decorType":"sweetshop"},{"id":"node-13136578066","lat":24.984222,"lon":121.569657,"name":"台灣主婦聯盟生活消費合作社木柵站","decorType":"supermarket"},{"id":"node-13136578068","lat":24.984109,"lon":121.569385,"name":"小酌串烤","decorType":"restaurant"},{"id":"node-13136578069","lat":24.984012,"lon":121.569104,"name":"岳鴻水電五金","decorType":"hardware"},{"id":"node-13136578070","lat":24.983983,"lon":121.569029,"name":"甄好味食堂","decorType":"restaurant"},{"id":"node-13136578071","lat":24.983973,"lon":121.568976,"name":"家家樂早餐","decorType":"restaurant"},{"id":"node-13136578081","lat":24.982957,"lon":121.56341,"name":"Lazy Pâtisserie 徠集 手工法式甜點","decorType":"sweetshop"},{"id":"node-13136578083","lat":24.983364,"lon":121.563703,"name":"瑄達芳療頌缽坊（附設熱蠟除毛）","decorType":"cosmetics"},{"id":"node-13136578085","lat":24.982532,"lon":121.563928,"name":"錢都涮涮鍋","decorType":"restaurant"},{"id":"node-13136578089","lat":24.982344,"lon":121.564053,"name":"食光閣","decorType":"restaurant"},{"id":"node-13136578090","lat":24.982362,"lon":121.564174,"name":"北一藥師藥局","decorType":"pharmacy"},{"id":"node-13136578092","lat":24.982193,"lon":121.5634,"name":"震天下 鮮蚵．蛤蠣 虱目魚專賣","decorType":"restaurant"},{"id":"node-13136578094","lat":24.982405,"lon":121.563419,"name":"芸苑流行服飾","decorType":"clothing"},{"id":"node-13136578096","lat":24.982744,"lon":121.564738,"name":"夯胖 Bakaroti","decorType":"bakery"},{"id":"node-13136578097","lat":24.982584,"lon":121.564925,"name":"柳廚食堂","decorType":"restaurant"},{"id":"node-13136578098","lat":24.982618,"lon":121.565105,"name":"正記中藥 正記生醫","decorType":"pharmacy"},{"id":"node-13136578100","lat":24.982738,"lon":121.56466,"name":"咚｜關東煮 麻辣燙","decorType":"restaurant"},{"id":"node-13136580201","lat":24.982725,"lon":121.564589,"name":"雅登美髮","decorType":"hair_salon"},{"id":"node-13136580213","lat":24.985831,"lon":121.570711,"name":"沐麗專業洗衣","decorType":"laundry"},{"id":"node-13140997290","lat":24.986428,"lon":121.568173,"name":"奇谷食堂","decorType":"restaurant"},{"id":"node-13140997293","lat":24.982428,"lon":121.561657,"name":"狠MAN男士剪髮","decorType":"hair_salon"},{"id":"node-13140997294","lat":24.986643,"lon":121.56829,"name":"咖啡超人茶飲專賣店","decorType":"cafe"},{"id":"node-13140997295","lat":24.986697,"lon":121.568337,"name":"丼滋料理","decorType":"restaurant"},{"id":"node-13140997296","lat":24.98678,"lon":121.568475,"name":"戀滷滷味","decorType":"restaurant"},{"id":"node-13140997299","lat":24.986797,"lon":121.567716,"name":"金椰子鮮果專賣廣場_木柵店(24H)","decorType":"supermarket"},{"id":"node-13140997300","lat":24.986795,"lon":121.567822,"name":"昇咖啡｜會議包廂・空間租借","decorType":"cafe"},{"id":"node-13141006301","lat":24.986915,"lon":121.568074,"name":"沙茶魷魚羹","decorType":"restaurant"},{"id":"node-13141006303","lat":24.986972,"lon":121.568332,"name":"東峰果汁吧","decorType":"burger"},{"id":"node-13141006304","lat":24.986959,"lon":121.568336,"name":"日船章魚小丸子","decorType":"sweetshop"},{"id":"node-13141006305","lat":24.987007,"lon":121.568358,"name":"啟文書局","decorType":"library"},{"id":"node-13141006306","lat":24.987077,"lon":121.568402,"name":"越南大食館","decorType":"restaurant"},{"id":"node-13141006307","lat":24.987047,"lon":121.568383,"name":"李記紅茶冰","decorType":"cafe"},{"id":"node-13141006308","lat":24.987317,"lon":121.568495,"name":"永進雜糧行","decorType":"supermarket"},{"id":"node-13141006309","lat":24.987267,"lon":121.568494,"name":"阿明師傅 -匠人手作-","decorType":"bakery"},{"id":"node-13141006310","lat":24.987062,"lon":121.568593,"name":"50嵐","decorType":"cafe"},{"id":"node-13141006311","lat":24.986999,"lon":121.568543,"name":"麵匡匡拉麵食堂","decorType":"restaurant"},{"id":"node-13141006312","lat":24.986961,"lon":121.568521,"name":"豐京通訊","decorType":"electronics"},{"id":"node-13141006313","lat":24.986866,"lon":121.568891,"name":"吉諾烘豆坊 Gino Roasters","decorType":"cafe"},{"id":"node-13141006316","lat":24.986917,"lon":121.568961,"name":"Baksa 手工窯烤披薩","decorType":"restaurant"},{"id":"node-13141006317","lat":24.986662,"lon":121.569096,"name":"木柵天和宮","decorType":"shrine"},{"id":"node-13141006318","lat":24.986673,"lon":121.568991,"name":"匠記日式食堂","decorType":"restaurant"},{"id":"node-13142340379","lat":24.988156,"lon":121.568676,"name":"美迦藥局","decorType":"pharmacy"},{"id":"node-13142340380","lat":24.988049,"lon":121.568674,"name":"秀Show.Nail 美甲 蜜蠟除毛","decorType":"cosmetics"},{"id":"node-13142340382","lat":24.987736,"lon":121.568678,"name":"威利鞋店","decorType":"clothing"},{"id":"node-13142340384","lat":24.987322,"lon":121.568659,"name":"台南虱目魚肚粥","decorType":"restaurant"},{"id":"node-13142340386","lat":24.987461,"lon":121.568664,"name":"山多檳榔行","decorType":"restaurant"},{"id":"node-13142340388","lat":24.987683,"lon":121.569242,"name":"老徐滷味","decorType":"restaurant"},{"id":"node-13142340389","lat":24.987685,"lon":121.569143,"name":"豆漿餡餅專賣店","decorType":"restaurant"},{"id":"node-13142340390","lat":24.987578,"lon":121.569002,"name":"有德鑰匙刻印五金行","decorType":"hardware"},{"id":"node-13142340394","lat":24.988255,"lon":121.568679,"name":"池上原味香便當保儀店","decorType":"restaurant"},{"id":"node-13142340395","lat":24.98829,"lon":121.568876,"name":"卜國登炸雞","decorType":"restaurant"},{"id":"node-13142340396","lat":24.988266,"lon":121.568491,"name":"3Q脆皮雞排（文山保儀店)","decorType":"restaurant"},{"id":"node-13142340397","lat":24.988391,"lon":121.568488,"name":"呷尚宝","decorType":"restaurant"},{"id":"node-13142340399","lat":24.988291,"lon":121.568688,"name":"街角小吃","decorType":"restaurant"},{"id":"node-13142341001","lat":24.988255,"lon":121.568443,"name":"五春朝食專賣店 Brunch&Cafe","decorType":"restaurant"},{"id":"node-13142341002","lat":24.988235,"lon":121.568345,"name":"吃香原味牛肉麵食館","decorType":"restaurant"},{"id":"node-13142341003","lat":24.98826,"lon":121.56796,"name":"咖啡租界鮮焙咖啡舖","decorType":"cafe"},{"id":"node-13142341006","lat":24.988207,"lon":121.568221,"name":"玖二重慶麵館","decorType":"restaurant"},{"id":"node-13142341007","lat":24.988182,"lon":121.568101,"name":"米拉圖早午餐（夏一跳2.0）","decorType":"restaurant"},{"id":"node-13142341008","lat":24.988221,"lon":121.568291,"name":"張媽媽小吃店","decorType":"restaurant"},{"id":"node-13142341011","lat":24.988236,"lon":121.567838,"name":"三盛三豆花","decorType":"sweetshop"},{"id":"node-13142341012","lat":24.988247,"lon":121.567903,"name":"紅麵線","decorType":"restaurant"},{"id":"node-13142341013","lat":24.988214,"lon":121.567646,"name":"合宜美容美甲沙龍","decorType":"cosmetics"},{"id":"node-13142341016","lat":24.98827,"lon":121.568019,"name":"明錀棉衣店","decorType":"art_gallery"},{"id":"node-13142341021","lat":24.988449,"lon":121.56741,"name":"滿豐牛肉麵","decorType":"restaurant"},{"id":"node-13142341022","lat":24.988648,"lon":121.567415,"name":"昇記小吃店","decorType":"restaurant"},{"id":"node-13142341024","lat":24.988304,"lon":121.567595,"name":"老骨闆-藥燉專門店","decorType":"restaurant"},{"id":"node-13142341026","lat":24.988393,"lon":121.567575,"name":"泰國小普吉","decorType":"restaurant"},{"id":"node-13142341027","lat":24.988533,"lon":121.567541,"name":"巧藝美甲","decorType":"cosmetics"},{"id":"node-13142341030","lat":24.988915,"lon":121.568757,"name":"貴夫人手染服飾","decorType":"clothing"},{"id":"node-13142341031","lat":24.989046,"lon":121.569153,"name":"芙蕾雅美甲/美睫/紋繡","decorType":"cosmetics"},{"id":"node-13142341032","lat":24.989065,"lon":121.569286,"name":"翡翠坊","decorType":"art_gallery"},{"id":"node-13142341033","lat":24.98905,"lon":121.569205,"name":"費媽媽 不用急/ 義式美食","decorType":"restaurant"},{"id":"node-13142341034","lat":24.98894,"lon":121.568857,"name":"金來來皮鞋店","decorType":"clothing"},{"id":"node-13142341036","lat":24.988992,"lon":121.569857,"name":"阿段烘焙","decorType":"bakery"},{"id":"node-13142341040","lat":24.988974,"lon":121.569462,"name":"文如越南食品行","decorType":"supermarket"},{"id":"node-13142341043","lat":24.988991,"lon":121.569599,"name":"尹曼妮美粧名店","decorType":"cosmetics"},{"id":"node-13142341044","lat":24.988998,"lon":121.569731,"name":"好麵膳（葉記鴨肉）","decorType":"restaurant"},{"id":"node-13142341045","lat":24.988999,"lon":121.569767,"name":"潮mini","decorType":"restaurant"},{"id":"node-13142341048","lat":24.988989,"lon":121.569769,"name":"潮飯小吃館","decorType":"restaurant"},{"id":"node-13142341049","lat":24.988981,"lon":121.569522,"name":"依蓮精品服飾店","decorType":"clothing"},{"id":"node-13142341050","lat":24.988961,"lon":121.568974,"name":"妙益菓菜行","decorType":"supermarket"},{"id":"node-13142341053","lat":24.988925,"lon":121.568252,"name":"7-Eleven","decorType":"convenience"},{"id":"node-13142341054","lat":24.988719,"lon":121.568469,"name":"萬波島嶼紅茶","decorType":"cafe"},{"id":"node-13142341056","lat":24.988712,"lon":121.56863,"name":"宜康藥局","decorType":"pharmacy"},{"id":"node-13142341057","lat":24.988764,"lon":121.56846,"name":"Annie","decorType":"clothing"},{"id":"node-13142341058","lat":24.988807,"lon":121.56831,"name":"蜜雪兒","decorType":"clothing"},{"id":"node-13142341059","lat":24.988776,"lon":121.568219,"name":"八方雲集","decorType":"burger"},{"id":"node-13142341060","lat":24.988877,"lon":121.568037,"name":"彩翊服飾店","decorType":"clothing"},{"id":"node-13142341062","lat":24.988847,"lon":121.567919,"name":"傳家寶典玉石寶石設計工作坊","decorType":"art_gallery"},{"id":"node-13142341063","lat":24.988742,"lon":121.567941,"name":"J plus髮型 木柵店","decorType":"hair_salon"},{"id":"node-13142341065","lat":24.988652,"lon":121.568488,"name":"澧莎西點麵包坊","decorType":"bakery"},{"id":"node-13142341067","lat":24.989115,"lon":121.567918,"name":"呼嚕小酒館","decorType":"restaurant"},{"id":"node-13142341069","lat":24.988849,"lon":121.567898,"name":"保元蔘藥行","decorType":"pharmacy"},{"id":"node-13142341070","lat":24.988733,"lon":121.567898,"name":"KIKI MASTINA","decorType":"clothing"},{"id":"node-13142341072","lat":24.988704,"lon":121.567754,"name":"HAPPYHAIR 台北木柵店","decorType":"hair_salon"},{"id":"node-13142341074","lat":24.988683,"lon":121.56766,"name":"大樹連鎖藥局","decorType":"pharmacy"},{"id":"node-13142341076","lat":24.988652,"lon":121.567534,"name":"阿慶水果X梨山家慶果園","decorType":"supermarket"},{"id":"node-13142341078","lat":24.98872,"lon":121.567816,"name":"杏一醫療用品","decorType":"pharmacy"},{"id":"node-13142341105","lat":24.986848,"lon":121.569699,"name":"振大藥局","decorType":"pharmacy"},{"id":"node-13142341106","lat":24.986832,"lon":121.569838,"name":"銘軒西餅","decorType":"bakery"},{"id":"node-13142341108","lat":24.98687,"lon":121.569544,"name":"香末自助洗衣店","decorType":"laundry"},{"id":"node-13142341114","lat":24.98677,"lon":121.568537,"name":"佳品豆漿店","decorType":"restaurant"},{"id":"node-13142341119","lat":24.986202,"lon":121.568968,"name":"牡丹藝術基地 Moudan art studio","decorType":"art_gallery"},{"id":"node-13142341120","lat":24.986209,"lon":121.568892,"name":"上弘電器行","decorType":"electronics"},{"id":"node-13142341121","lat":24.986212,"lon":121.568631,"name":"重生禮拜堂","decorType":"shrine"},{"id":"way-55744065","lat":24.98359,"lon":121.573428,"name":"景美溪左岸自行車道","decorType":"bridge"},{"id":"way-106535626","lat":24.980834,"lon":121.567442,"name":"恆光橋","decorType":"bridge"},{"id":"way-106535646","lat":24.979936,"lon":121.56766,"name":"恆光橋","decorType":"bridge"},{"id":"way-111484731","lat":24.991615,"lon":121.572103,"name":"萬壽橋","decorType":"bridge"},{"id":"way-222662505","lat":24.987005,"lon":121.574254,"name":"新聞館","decorType":"university"},{"id":"way-223254511","lat":24.987128,"lon":121.573512,"name":"大仁樓","decorType":"university"},{"id":"way-223254512","lat":24.986739,"lon":121.573665,"name":"大勇樓","decorType":"university"},{"id":"way-223254513","lat":24.987492,"lon":121.573597,"name":"大智樓","decorType":"university"},{"id":"way-226025515","lat":24.986431,"lon":121.573639,"name":"綜合院館北棟","decorType":"university"},{"id":"way-226025516","lat":24.985888,"lon":121.573584,"name":"綜合院館南棟","decorType":"university"},{"id":"way-233079053","lat":24.991706,"lon":121.572128,"name":"萬壽橋","decorType":"bridge"},{"id":"way-260765015","lat":24.989393,"lon":121.564538,"name":"久康公園","decorType":"park"},{"id":"way-260887590","lat":24.989826,"lon":121.570417,"name":"文山公園","decorType":"park"},{"id":"way-261084893","lat":24.985412,"lon":121.566459,"name":"恆光國小預定地","decorType":"park"},{"id":"way-261084894","lat":24.988639,"lon":121.565407,"name":"木柵郵局","decorType":"post_office"},{"id":"way-261322982","lat":24.981791,"lon":121.571905,"name":"藝文中心","decorType":"university"},{"id":"way-261655718","lat":24.987982,"lon":121.572413,"name":"未命名橋樑","decorType":"bridge"},{"id":"way-261655731","lat":24.991219,"lon":121.570506,"name":"未命名森林","decorType":"forest"},{"id":"way-266863045","lat":24.981715,"lon":121.573765,"name":"百年樓","decorType":"university"},{"id":"way-277005393","lat":24.981223,"lon":121.573097,"name":"季陶樓","decorType":"university"},{"id":"way-277005394","lat":24.980997,"lon":121.572325,"name":"國際大樓","decorType":"university"},{"id":"way-277005395","lat":24.982615,"lon":121.57384,"name":"道藩樓","decorType":"university"},{"id":"way-280186383","lat":24.987586,"lon":121.562572,"name":"前庭","decorType":"waterside"},{"id":"way-291865748","lat":24.983585,"lon":121.563449,"name":"保儀公園","decorType":"park"},{"id":"way-291866355","lat":24.983537,"lon":121.563585,"name":"未命名水邊","decorType":"waterside"},{"id":"way-331698696","lat":24.986663,"lon":121.570909,"name":"木南公園","decorType":"park"},{"id":"way-369322348","lat":24.977741,"lon":121.569154,"name":"木柵混元宮","decorType":"shrine"},{"id":"way-380192657","lat":24.981813,"lon":121.565013,"name":"樟腳里公園","decorType":"park"},{"id":"way-380192877","lat":24.983464,"lon":121.570342,"name":"新榮公園","decorType":"park"},{"id":"way-380193315","lat":24.982444,"lon":121.567585,"name":"恆光公園","decorType":"park"},{"id":"way-380193499","lat":24.98465,"lon":121.568737,"name":"木榮公園","decorType":"park"},{"id":"way-397787060","lat":24.981205,"lon":121.573694,"name":"醉夢湖","decorType":"waterside"},{"id":"way-430062400","lat":24.987262,"lon":121.568351,"name":"木柵集應廟","decorType":"shrine"},{"id":"way-430624110","lat":24.987492,"lon":121.57041,"name":"天主教木柵復活堂","decorType":"shrine"},{"id":"way-430624112","lat":24.988391,"lon":121.563923,"name":"木柵福德宮","decorType":"shrine"},{"id":"way-430624114","lat":24.988074,"lon":121.574169,"name":"萬興福德宮","decorType":"shrine"},{"id":"way-481306343","lat":24.978746,"lon":121.562327,"name":"未命名水邊","decorType":"waterside"},{"id":"way-493736530","lat":24.978767,"lon":121.56884,"name":"未命名橋樑","decorType":"bridge"},{"id":"way-493736532","lat":24.978789,"lon":121.568913,"name":"未命名橋樑","decorType":"bridge"},{"id":"way-495967896","lat":24.987648,"lon":121.572831,"name":"景美溪左岸自行車道","decorType":"bridge"},{"id":"way-497482178","lat":24.987851,"lon":121.570193,"name":"渡船頭福德宮","decorType":"shrine"},{"id":"way-497972728","lat":24.991538,"lon":121.572334,"name":"景美溪左岸自行車道","decorType":"bridge"},{"id":"way-497972730","lat":24.991534,"lon":121.57254,"name":"未命名橋樑","decorType":"bridge"},{"id":"way-497972732","lat":24.990276,"lon":121.571432,"name":"景美溪右岸自行車道","decorType":"bridge"},{"id":"way-497972745","lat":24.982083,"lon":121.569712,"name":"未命名公園","decorType":"park"},{"id":"way-497972875","lat":24.981121,"lon":121.566866,"name":"未命名公園","decorType":"park"},{"id":"way-510739849","lat":24.98084,"lon":121.572405,"name":"未命名橋樑","decorType":"bridge"},{"id":"way-510803716","lat":24.990224,"lon":121.573537,"name":"南苑","decorType":"university"},{"id":"way-510803717","lat":24.990612,"lon":121.573523,"name":"新苑","decorType":"university"},{"id":"way-510803718","lat":24.990058,"lon":121.573924,"name":"學苑","decorType":"university"},{"id":"way-510889874","lat":24.989171,"lon":121.573904,"name":"校長之家","decorType":"university"},{"id":"way-573632770","lat":24.986666,"lon":121.564819,"name":"忠順萊茵公園","decorType":"park"},{"id":"way-573632771","lat":24.986157,"lon":121.56453,"name":"順興公園綠地","decorType":"park"},{"id":"way-574537653","lat":24.980756,"lon":121.574155,"name":"未命名水邊","decorType":"waterside"},{"id":"way-590528964","lat":24.990972,"lon":121.57295,"name":"萬興櫻花生態景觀公園","decorType":"park"},{"id":"way-607703547","lat":24.986159,"lon":121.573552,"name":"未命名大學&學院","decorType":"university"},{"id":"way-610513427","lat":24.988571,"lon":121.572954,"name":"木柵便以利教會","decorType":"shrine"},{"id":"way-718132106","lat":24.983661,"lon":121.564657,"name":"忠順廟","decorType":"shrine"},{"id":"way-771596380","lat":24.987381,"lon":121.563179,"name":"梅花池","decorType":"waterside"},{"id":"way-808458657","lat":24.989346,"lon":121.567525,"name":"臺北市召會第十聚會所","decorType":"shrine"},{"id":"way-808458670","lat":24.990026,"lon":121.563106,"name":"未命名公園","decorType":"park"},{"id":"way-816699947","lat":24.991774,"lon":121.572092,"name":"未命名橋樑","decorType":"bridge"},{"id":"way-839459459","lat":24.988134,"lon":121.565126,"name":"未命名公園","decorType":"park"},{"id":"way-839459460","lat":24.988152,"lon":121.564977,"name":"未命名公園","decorType":"park"},{"id":"way-839459461","lat":24.988227,"lon":121.564708,"name":"未命名公園","decorType":"park"},{"id":"way-839459462","lat":24.988141,"lon":121.564879,"name":"未命名公園","decorType":"park"},{"id":"way-839459463","lat":24.988213,"lon":121.564623,"name":"未命名公園","decorType":"park"},{"id":"way-839838422","lat":24.987486,"lon":121.567404,"name":"未命名公園","decorType":"park"},{"id":"way-839838423","lat":24.987374,"lon":121.567428,"name":"未命名公園","decorType":"park"},{"id":"way-839838424","lat":24.987266,"lon":121.567453,"name":"未命名公園","decorType":"park"},{"id":"way-844033558","lat":24.987893,"lon":121.572443,"name":"道南橋","decorType":"bridge"},{"id":"way-844033562","lat":24.988087,"lon":121.573304,"name":"未命名橋樑","decorType":"bridge"},{"id":"way-844033563","lat":24.987838,"lon":121.572365,"name":"未命名橋樑","decorType":"bridge"},{"id":"way-844033567","lat":24.987857,"lon":121.572324,"name":"道南橋","decorType":"bridge"},{"id":"way-893576019","lat":24.981127,"lon":121.573723,"name":"未命名橋樑","decorType":"bridge"},{"id":"way-915460990","lat":24.979553,"lon":121.561998,"name":"未命名水邊","decorType":"waterside"},{"id":"way-915460991","lat":24.979227,"lon":121.562103,"name":"未命名水邊","decorType":"waterside"},{"id":"way-962265332","lat":24.991661,"lon":121.572369,"name":"萬壽橋","decorType":"bridge"},{"id":"way-989067760","lat":24.978254,"lon":121.568116,"name":"混元橋","decorType":"bridge"},{"id":"way-990854942","lat":24.98164,"lon":121.566129,"name":"未命名橋樑","decorType":"bridge"},{"id":"way-1003197786","lat":24.981193,"lon":121.567391,"name":"恆光橋","decorType":"bridge"},{"id":"way-1033463709","lat":24.987829,"lon":121.571747,"name":"木棧便橋","decorType":"bridge"},{"id":"way-1033463710","lat":24.987928,"lon":121.572313,"name":"未命名橋樑","decorType":"bridge"},{"id":"way-1033463717","lat":24.988345,"lon":121.571776,"name":"未命名橋樑","decorType":"bridge"},{"id":"way-1033463718","lat":24.988265,"lon":121.571657,"name":"景美溪右岸自行車道","decorType":"bridge"},{"id":"way-1033463720","lat":24.990152,"lon":121.571615,"name":"未命名橋樑","decorType":"bridge"},{"id":"way-1033463738","lat":24.991546,"lon":121.572064,"name":"未命名橋樑","decorType":"bridge"},{"id":"way-1033830621","lat":24.982059,"lon":121.567153,"name":"恆光橋","decorType":"bridge"},{"id":"way-1034201106","lat":24.981295,"lon":121.567591,"name":"未命名公園","decorType":"park"},{"id":"way-1034201126","lat":24.987089,"lon":121.572251,"name":"未命名橋樑","decorType":"bridge"},{"id":"way-1034201127","lat":24.987091,"lon":121.572097,"name":"景美溪右岸自行車道","decorType":"bridge"},{"id":"way-1034455148","lat":24.981743,"lon":121.567294,"name":"未命名橋樑","decorType":"bridge"},{"id":"way-1034455149","lat":24.981714,"lon":121.567179,"name":"未命名橋樑","decorType":"bridge"},{"id":"way-1034455150","lat":24.980832,"lon":121.567509,"name":"未命名橋樑","decorType":"bridge"},{"id":"way-1034455151","lat":24.980813,"lon":121.567387,"name":"未命名橋樑","decorType":"bridge"},{"id":"way-1036552605","lat":24.981214,"lon":121.567089,"name":"未命名公園","decorType":"park"},{"id":"way-1036552606","lat":24.981298,"lon":121.5663,"name":"未命名公園","decorType":"park"},{"id":"way-1036552607","lat":24.981457,"lon":121.565814,"name":"未命名公園","decorType":"park"},{"id":"way-1036552608","lat":24.981368,"lon":121.566066,"name":"未命名公園","decorType":"park"},{"id":"way-1284845354","lat":24.98439,"lon":121.565314,"name":"未命名公園","decorType":"park"},{"id":"way-1287776030","lat":24.988405,"lon":121.57297,"name":"未命名橋樑","decorType":"bridge"},{"id":"way-1287776035","lat":24.988343,"lon":121.563803,"name":"未命名公園","decorType":"park"},{"id":"way-1290978592","lat":24.981884,"lon":121.571722,"name":"未命名橋樑","decorType":"bridge"},{"id":"way-1295723607","lat":24.982907,"lon":121.564821,"name":"中崙路","decorType":"bridge"},{"id":"way-1353601690","lat":24.978369,"lon":121.563327,"name":"埤仔湖福德宮","decorType":"shrine"},{"id":"way-1362022238","lat":24.990906,"lon":121.563758,"name":"未命名橋樑","decorType":"bridge"},{"id":"way-1362022240","lat":24.990927,"lon":121.563839,"name":"未命名橋樑","decorType":"bridge"},{"id":"way-1362022241","lat":24.990899,"lon":121.563689,"name":"未命名水邊","decorType":"waterside"},{"id":"way-1362022242","lat":24.991014,"lon":121.563873,"name":"未命名水邊","decorType":"waterside"},{"id":"way-1429740906","lat":24.981196,"lon":121.566461,"name":"未命名公園","decorType":"park"},{"id":"way-1429740907","lat":24.981191,"lon":121.566584,"name":"未命名公園","decorType":"park"},{"id":"way-1429740908","lat":24.981137,"lon":121.56669,"name":"未命名公園","decorType":"park"},{"id":"way-1458076871","lat":24.976524,"lon":121.565687,"name":"未命名森林","decorType":"forest"}]}