{"bbox":{"south":24.991912499999998,"north":25.00751875,"west":121.56125,"east":121.57428125},"pois":[{"id":"way-432120647","lat":24.9985193,"lon":121.5614685,"name":"未命名橋樑","decorType":"bridge"},{"id":"way-432120651","lat":24.9990012,"lon":121.5615552,"name":"樂育樓","decorType":"university"},{"id":"way-432120676","lat":24.9979335,"lon":121.5612894,"name":"第二倉庫","decorType":"university"},{"id":"way-549714684","lat":25.0026584,"lon":121.5612822,"name":"萬芳10號公園綠地","decorType":"park"},{"id":"way-1299100147","lat":25.0059529,"lon":121.5615542,"name":"實踐大學木柵校地","decorType":"forest"},{"id":"way-1350668897","lat":24.9939275,"lon":121.5614373,"name":"未命名公園","decorType":"park"},{"id":"node-689418701","lat":24.9986089,"lon":121.5681226,"name":"萬芳社區","decorType":"station"},{"id":"node-689420115","lat":24.9982458,"lon":121.5731834,"name":"木柵","decorType":"station"},{"id":"node-1747306838","lat":24.9978138,"lon":121.5739874,"name":"捷運木柵站","decorType":"bus_stop"},{"id":"node-1880360910","lat":24.9975717,"lon":121.5623931,"name":"棕櫚泉社區","decorType":"bus_stop"},{"id":"node-2307722996","lat":24.9928588,"lon":121.5738032,"name":"萬壽橋頭(新光)","decorType":"bus_stop"},{"id":"node-2307723008","lat":24.9934078,"lon":121.5736545,"name":"萬壽橋頭(新光)","decorType":"bus_stop"},{"id":"node-2309011862","lat":24.9987045,"lon":121.5662313,"name":"萬利街口","decorType":"bus_stop"},{"id":"node-2309011865","lat":25.0027116,"lon":121.5717928,"name":"萬芳社區","decorType":"bus_stop"},{"id":"node-2309011867","lat":25.0019832,"lon":121.5619974,"name":"公務人員訓練處","decorType":"bus_stop"},{"id":"node-2309011873","lat":25.0034131,"lon":121.5625674,"name":"萬美社區","decorType":"bus_stop"},{"id":"node-2309011874","lat":25.0033311,"lon":121.5630568,"name":"萬美社區","decorType":"bus_stop"},{"id":"node-2309011881","lat":25.0033888,"lon":121.56555,"name":"萬芳國宅","decorType":"bus_stop"},{"id":"node-2309011883","lat":25.003085,"lon":121.5705845,"name":"萬寧街","decorType":"bus_stop"},{"id":"node-2309011885","lat":25.0042603,"lon":121.5704142,"name":"萬寧山莊","decorType":"bus_stop"},{"id":"node-2309011886","lat":25.0047282,"lon":121.5680042,"name":"名門社區","decorType":"bus_stop"},{"id":"node-2309011887","lat":24.9989258,"lon":121.5678298,"name":"捷運萬芳社區站","decorType":"bus_stop"},{"id":"node-2309011888","lat":25.0015427,"lon":121.567533,"name":"萬芳國小","decorType":"bus_stop"},{"id":"node-2309011889","lat":25.00449,"lon":121.5708554,"name":"和平東路四段","decorType":"bus_stop"},{"id":"node-2309011890","lat":25.0018161,"lon":121.5660813,"name":"萬芳派出所","decorType":"bus_stop"},{"id":"node-2309011895","lat":24.9997303,"lon":121.5736422,"name":"軍功新村","decorType":"bus_stop"},{"id":"node-2309011896","lat":24.9972678,"lon":121.562554,"name":"棕櫚泉社區","decorType":"bus_stop"},{"id":"node-2310523676","lat":24.9991564,"lon":121.5672431,"name":"萬利街口","decorType":"bus_stop"},{"id":"node-2310523677","lat":25.0046502,"lon":121.5679941,"name":"名門社區","decorType":"bus_stop"},{"id":"node-2310523678","lat":24.9999756,"lon":121.5737475,"name":"軍功新村","decorType":"bus_stop"},{"id":"node-2310523694","lat":24.9992707,"lon":121.5742034,"name":"7-Eleven","decorType":"convenience"},{"id":"node-2310523697","lat":25.0028781,"lon":121.5720335,"name":"萬芳社區","decorType":"bus_stop"},{"id":"node-2310523698","lat":25.0047571,"lon":121.5704859,"name":"和平東路四段","decorType":"bus_stop"},{"id":"node-2310523699","lat":25.0041348,"lon":121.5704725,"name":"萬寧山莊","decorType":"bus_stop"},{"id":"node-2310523701","lat":25.0032767,"lon":121.5703008,"name":"萬寧街","decorType":"bus_stop"},{"id":"node-2310523702","lat":25.003408,"lon":121.5649015,"name":"萬芳國宅","decorType":"bus_stop"},{"id":"node-2310523703","lat":25.0035271,"lon":121.5622837,"name":"萬美社區","decorType":"bus_stop"},{"id":"node-2310523706","lat":25.0017866,"lon":121.566358,"name":"萬芳派出所","decorType":"bus_stop"},{"id":"node-2310523707","lat":25.0021343,"lon":121.5673343,"name":"7-Eleven","decorType":"convenience"},{"id":"node-2310523708","lat":25.0034477,"lon":121.5631106,"name":"萬美社區","decorType":"bus_stop"},{"id":"node-2310523715","lat":25.0010714,"lon":121.5680684,"name":"萬芳國小","decorType":"bus_stop"},{"id":"node-2323939467","lat":25.0052387,"lon":121.5673671,"name":"名門社區","decorType":"bus_stop"},{"id":"node-2323939468","lat":25.005184,"lon":121.5677453,"name":"名門社區","decorType":"bus_stop"},{"id":"node-2323939470","lat":24.9975389,"lon":121.5740364,"name":"捷運木柵站","decorType":"bus_stop"},{"id":"node-2323942819","lat":24.9964936,"lon":121.5725545,"name":"木柵高工","decorType":"bus_stop"},{"id":"node-2323942820","lat":24.9961399,"lon":121.5724002,"name":"木柵高工","decorType":"bus_stop"},{"id":"node-2323945694","lat":24.9934615,"lon":121.5713932,"name":"萬芳路口","decorType":"bus_stop"},{"id":"node-2323945695","lat":24.9935412,"lon":121.5715863,"name":"萬芳路口","decorType":"bus_stop"},{"id":"node-2323961451","lat":25.0018186,"lon":121.56213,"name":"公務人員訓練處","decorType":"bus_stop"},{"id":"node-2414198383","lat":24.9987243,"lon":121.569509,"name":"捷運萬芳社區站","decorType":"bus_stop"},{"id":"node-2414198384","lat":24.996337,"lon":121.5707646,"name":"木柵高工","decorType":"bus_stop"},{"id":"node-2414198385","lat":24.998503,"lon":121.5696864,"name":"捷運萬芳社區站","decorType":"bus_stop"},{"id":"node-2414198386","lat":24.9960453,"lon":121.57055,"name":"木柵高工","decorType":"bus_stop"},{"id":"node-2424147441","lat":25.0025014,"lon":121.5688404,"name":"萬芳活動中心","decorType":"bus_stop"},{"id":"node-2424147452","lat":25.0023969,"lon":121.5683818,"name":"萬芳活動中心","decorType":"bus_stop"},{"id":"node-2424147459","lat":25.0022814,"lon":121.5697067,"name":"萬芳社區","decorType":"bus_stop"},{"id":"node-2424147464","lat":25.0017369,"lon":121.5704349,"name":"萬芳社區","decorType":"bus_stop"},{"id":"node-2424150555","lat":25.004993,"lon":121.5636878,"name":"世界山莊","decorType":"bus_stop"},{"id":"node-2424150556","lat":25.0055132,"lon":121.5641351,"name":"世界山莊","decorType":"bus_stop"},{"id":"node-2482646608","lat":24.9932907,"lon":121.5627223,"name":"興隆山","decorType":"mountain"},{"id":"node-2482647127","lat":25.0045318,"lon":121.5742617,"name":"博嘉山","decorType":"mountain"},{"id":"node-2482647210","lat":24.9949923,"lon":121.5676201,"name":"興隆山東北峰","decorType":"mountain"},{"id":"node-2668530113","lat":25.0041571,"lon":121.5663862,"name":"抱子腳山","decorType":"mountain"},{"id":"node-3036510799","lat":24.9976339,"lon":121.5742303,"name":"品福飯食","decorType":"restaurant"},{"id":"node-3273405873","lat":24.9981589,"lon":121.5733614,"name":"捷運木柵站1號出口","decorType":"station"},{"id":"node-3273605570","lat":24.9986881,"lon":121.568043,"name":"捷運萬芳社區站1號出口","decorType":"station"},{"id":"node-3474979693","lat":25.0009659,"lon":121.5706186,"name":"7-Eleven","decorType":"convenience"},{"id":"node-3475002893","lat":25.0020278,"lon":121.5672427,"name":"美廉社","decorType":"supermarket"},{"id":"node-3627318130","lat":25.0012697,"lon":121.5705941,"name":"杏-醫療用品","decorType":"pharmacy"},{"id":"node-3629279712","lat":25.00218,"lon":121.5682243,"name":"文山萬美街郵局","decorType":"post_office"},{"id":"node-3629305729","lat":25.0022165,"lon":121.5684925,"name":"OK超商","decorType":"convenience"},{"id":"node-3629305730","lat":25.0021168,"lon":121.5677388,"name":"紋鳴號","decorType":"cafe"},{"id":"node-4275934490","lat":25.0022201,"lon":121.5692195,"name":"萬芳民眾閱覽室","decorType":"library"},{"id":"node-4275934597","lat":25.0051628,"lon":121.5679637,"name":"全家便利商店","decorType":"convenience"},{"id":"node-4325693981","lat":24.99861,"lon":121.5741469,"name":"未命名神社","decorType":"shrine"},{"id":"node-4524864499","lat":24.997607,"lon":121.5738231,"name":"未命名郵局","decorType":"post_office"},{"id":"node-4524864501","lat":24.998758,"lon":121.5685076,"name":"未命名郵局","decorType":"post_office"},{"id":"node-4652893991","lat":25.0005814,"lon":121.5707923,"name":"美廉社","decorType":"supermarket"},{"id":"node-4691581789","lat":24.9990158,"lon":121.5741846,"name":"媽咪廚房","decorType":"restaurant"},{"id":"node-5110488981","lat":24.9947418,"lon":121.561316,"name":"濃緹烘培坊","decorType":"bakery"},{"id":"node-5110488982","lat":24.9949122,"lon":121.5614818,"name":"全家便利商店","decorType":"convenience"},{"id":"node-5189522963","lat":25.000602,"lon":121.568017,"name":"未命名公園","decorType":"park"},{"id":"node-6205114079","lat":24.997659,"lon":121.5738105,"name":"7-Eleven","decorType":"convenience"},{"id":"node-6743996942","lat":25.001743,"lon":121.5689751,"name":"萬芳浸信會","decorType":"shrine"},{"id":"node-6743996943","lat":25.0019326,"lon":121.5688544,"name":"台北市召會第27會所","decorType":"shrine"},{"id":"node-6743996958","lat":25.0005519,"lon":121.5657136,"name":"長老教會萬芳教會","decorType":"shrine"},{"id":"node-6743996959","lat":25.0012495,"lon":121.5632486,"name":"列邦教會","decorType":"shrine"},{"id":"node-7194693283","lat":24.9932945,"lon":121.5739999,"name":"阿卿麵線","decorType":"restaurant"},{"id":"node-7194706760","lat":24.9919434,"lon":121.5738883,"name":"揉道Nubun","decorType":"restaurant"},{"id":"node-7194706780","lat":24.9935122,"lon":121.5739651,"name":"龐家肉羹","decorType":"restaurant"},{"id":"node-7194706861","lat":24.9934734,"lon":121.5739879,"name":"191 enjoy 早餐店","decorType":"restaurant"},{"id":"node-7687619148","lat":24.9979173,"lon":121.5735603,"name":"品味烤肉串","decorType":"restaurant"},{"id":"node-7687620056","lat":24.9979568,"lon":121.573595,"name":"王大豐麵線","decorType":"restaurant"},{"id":"node-7699361908","lat":24.995327,"lon":121.5620925,"name":"阿梅小吃店","decorType":"restaurant"},{"id":"node-7699361909","lat":24.9954019,"lon":121.5613054,"name":"蓁的飯館","decorType":"restaurant"},{"id":"node-7772741781","lat":25.0011211,"lon":121.5697872,"name":"一心圓古早味滷味","decorType":"restaurant"},{"id":"node-7772769998","lat":24.998097,"lon":121.5710613,"name":"不要問美食私房料理","decorType":"restaurant"},{"id":"node-7772769999","lat":25.001194,"lon":121.5706046,"name":"林媽媽麵攤","decorType":"restaurant"},{"id":"node-7778780620","lat":25.0012724,"lon":121.5706073,"name":"早安萬芳早餐店","decorType":"restaurant"},{"id":"node-7778780627","lat":24.9985097,"lon":121.5705255,"name":"Taiwan Bistro 木柵二","decorType":"restaurant"},{"id":"node-7778780639","lat":25.001256,"lon":121.5706596,"name":"恰到好處本舖","decorType":"restaurant"},{"id":"node-7778780650","lat":25.0011399,"lon":121.5706918,"name":"俐君小吃店","decorType":"restaurant"},{"id":"node-8432400558","lat":24.999654,"lon":121.569055,"name":"萬芳6號公園","decorType":"bus_stop"},{"id":"node-8432400559","lat":24.999962,"lon":121.56892,"name":"萬芳6號公園","decorType":"bus_stop"},{"id":"node-9401545424","lat":25.0018926,"lon":121.5672765,"name":"蝦皮店到店","decorType":"convenience"},{"id":"node-12496209698","lat":24.9974687,"lon":121.5740255,"name":"未命名餐廳","decorType":"restaurant"},{"id":"node-12765482437","lat":25.0005236,"lon":121.5736184,"name":"博嘉公園","decorType":"park"},{"id":"node-12765487433","lat":24.9999676,"lon":121.5735597,"name":"沐林","decorType":"bakery"},{"id":"way-55007694","lat":25.0030045,"lon":121.563105,"name":"萬芳11號公園","decorType":"park"},{"id":"way-55567828","lat":25.0043097,"lon":121.5662058,"name":"140高地公園","decorType":"park"},{"id":"way-194633993","lat":24.9985512,"lon":121.568049,"name":"未命名公車站","decorType":"bus_stop"},{"id":"way-194633996","lat":24.9986447,"lon":121.5680459,"name":"未命名公車站","decorType":"bus_stop"},{"id":"way-200927269","lat":24.9948421,"lon":121.5721573,"name":"景美溪右岸自行車道","decorType":"bridge"},{"id":"way-260750239","lat":24.9986076,"lon":121.5680385,"name":"捷運萬芳社區站","decorType":"station"},{"id":"way-260883825","lat":24.9922151,"lon":121.5713348,"name":"未命名橋樑","decorType":"bridge"},{"id":"way-261655733","lat":24.9920417,"lon":121.5701694,"name":"未命名森林","decorType":"forest"},{"id":"way-304618176","lat":25.0000898,"lon":121.5705825,"name":"未命名公園","decorType":"park"},{"id":"way-304618177","lat":24.9996735,"lon":121.5692543,"name":"萬芳六號公園","decorType":"park"},{"id":"way-410452477","lat":25.0047747,"lon":121.5614842,"name":"公訓處步道","decorType":"bridge"},{"id":"way-432120646","lat":24.9984277,"lon":121.5618964,"name":"日新樓","decorType":"university"},{"id":"way-432120648","lat":24.9986076,"lon":121.5616759,"name":"未命名橋樑","decorType":"bridge"},{"id":"way-432120649","lat":24.9986438,"lon":121.5616194,"name":"未命名橋樑","decorType":"bridge"},{"id":"way-432120652","lat":25.0000389,"lon":121.561616,"name":"莊敬樓","decorType":"university"},{"id":"way-432120654","lat":24.9981126,"lon":121.5618824,"name":"警技場","decorType":"university"},{"id":"way-432120670","lat":25.0007224,"lon":121.5623536,"name":"情境教學中心","decorType":"university"},{"id":"way-432120671","lat":24.9996348,"lon":121.5620522,"name":"三民樓","decorType":"university"},{"id":"way-432120673","lat":24.9980239,"lon":121.5614076,"name":"至美樓(醫護室)","decorType":"university"},{"id":"way-456206443","lat":24.9991857,"lon":121.5675681,"name":"萬芳三號公園","decorType":"park"},{"id":"way-456293323","lat":25.0015509,"lon":121.5617985,"name":"萬芳9號綠地","decorType":"park"},{"id":"way-491353750","lat":24.9959529,"lon":121.5636057,"name":"未命名公園","decorType":"park"},{"id":"way-495448972","lat":24.9921402,"lon":121.5729514,"name":"未命名橋樑","decorType":"bridge"},{"id":"way-535367374","lat":25.0007296,"lon":121.5663522,"name":"未命名體育館","decorType":"stadium"},{"id":"way-535367381","lat":25.0007104,"lon":121.5670397,"name":"未命名公園","decorType":"park"},{"id":"way-535367384","lat":25.0011536,"lon":121.5685003,"name":"未命名公園","decorType":"park"},{"id":"way-549714680","lat":24.9998748,"lon":121.5667811,"name":"萬芳一號公園","decorType":"park"},{"id":"way-549714683","lat":25.0014416,"lon":121.5636255,"name":"萬芳12號公園","decorType":"park"},{"id":"way-575059219","lat":24.9992049,"lon":121.5667586,"name":"萬芳二號公園","decorType":"park"},{"id":"way-586068484","lat":25.0064486,"lon":121.5688399,"name":"椰城公園","decorType":"park"},{"id":"way-595808497","lat":25.0025435,"lon":121.5696603,"name":"萬芳七號公園","decorType":"park"},{"id":"way-617827761","lat":25.0011843,"lon":121.5688682,"name":"萬芳四號公園","decorType":"park"},{"id":"way-710699840","lat":24.9978471,"lon":121.5738788,"name":"木柵聖尊廟","decorType":"shrine"},{"id":"way-718041352","lat":25.0005037,"lon":121.573582,"name":"未命名公園","decorType":"park"},{"id":"way-718132093","lat":25.0002784,"lon":121.5646367,"name":"萬利公園綠地","decorType":"park"},{"id":"way-718132094","lat":25.0003404,"lon":121.5653515,"name":"萬芳14號公園","decorType":"park"},{"id":"way-718132132","lat":25.0011663,"lon":121.5677716,"name":"生水生態池","decorType":"waterside"},{"id":"way-718132133","lat":24.9978774,"lon":121.5659145,"name":"萬芳天祐宮","decorType":"shrine"},{"id":"way-721280600","lat":25.005519,"lon":121.5712714,"name":"未命名水邊","decorType":"waterside"},{"id":"way-721280601","lat":25.0039034,"lon":121.5719499,"name":"軍功坑","decorType":"waterside"},{"id":"way-790260407","lat":24.9983221,"lon":121.5730925,"name":"未命名公車站","decorType":"bus_stop"},{"id":"way-790260408","lat":24.9982191,"lon":121.5730682,"name":"未命名公車站","decorType":"bus_stop"},{"id":"way-844001037","lat":24.9939843,"lon":121.5614635,"name":"未命名公園","decorType":"park"},{"id":"way-1042369697","lat":24.9992629,"lon":121.5715105,"name":"未命名森林","decorType":"forest"},{"id":"way-1065882645","lat":24.9939778,"lon":121.56992,"name":"德善祠","decorType":"shrine"},{"id":"way-1254559498","lat":24.9971545,"lon":121.5702798,"name":"福德宮","decorType":"shrine"},{"id":"way-1266800146","lat":24.9946765,"lon":121.5741972,"name":"頭廷魁文史館","decorType":"art_gallery"},{"id":"way-1288011255","lat":24.9954196,"lon":121.5691473,"name":"未命名橋樑","decorType":"bridge"},{"id":"way-1288462173","lat":24.9951766,"lon":121.5637124,"name":"福興宮","decorType":"shrine"},{"id":"way-1288462187","lat":24.9952631,"lon":121.5638606,"name":"未命名橋樑","decorType":"bridge"},{"id":"way-1290628504","lat":24.9952155,"lon":121.570099,"name":"未命名水邊","decorType":"waterside"},{"id":"way-1290628505","lat":24.9954519,"lon":121.5693056,"name":"未命名水邊","decorType":"waterside"},{"id":"way-1290628514","lat":24.9954068,"lon":121.5691877,"name":"未命名橋樑","decorType":"bridge"},{"id":"way-1292262558","lat":25.0053581,"lon":121.5656081,"name":"未命名公園","decorType":"park"},{"id":"way-1292262597","lat":25.0025901,"lon":121.5696621,"name":"萬芳福德宮","decorType":"shrine"},{"id":"way-1292774779","lat":24.9951936,"lon":121.5691634,"name":"慈光寺","decorType":"shrine"},{"id":"way-1354671970","lat":25.0020566,"lon":121.5628311,"name":"未命名橋樑","decorType":"bridge"},{"id":"way-1354671971","lat":25.0021693,"lon":121.5626686,"name":"未命名橋樑","decorType":"bridge"},{"id":"way-1354672001","lat":25.0022937,"lon":121.5613972,"name":"未命名橋樑","decorType":"bridge"},{"id":"way-1355984216","lat":25.0017811,"lon":121.5711568,"name":"未命名水邊","decorType":"waterside"},{"id":"way-1444631136","lat":25.005361,"lon":121.5702391,"name":"軍功坑","decorType":"waterside"},{"id":"way-1444631137","lat":25.0050881,"lon":121.5714397,"name":"軍功坑","decorType":"waterside"},{"id":"way-1444631138","lat":25.0022529,"lon":121.5724499,"name":"軍功坑","decorType":"waterside"},{"id":"way-1444631139","lat":25.0024416,"lon":121.57235,"name":"軍功坑","decorType":"waterside"},{"id":"way-1444631140","lat":25.0025712,"lon":121.5723113,"name":"軍功坑","decorType":"waterside"},{"id":"way-1444631141","lat":25.0026806,"lon":121.5723085,"name":"軍功坑","decorType":"waterside"}]}