{"bbox":{"south":24.991912499999998,"north":25.00751875,"west":121.457,"east":121.47003124999999},"pois":[{"id":"node-1395806992","lat":24.9973669,"lon":121.4636788,"name":"7-Eleven","decorType":"convenience"},{"id":"node-1398644370","lat":25.0004644,"lon":121.4634096,"name":"喫鍋趣","decorType":"restaurant"},{"id":"node-1398644371","lat":24.9946735,"lon":121.4621013,"name":"全家便利商店","decorType":"convenience"},{"id":"node-1398644381","lat":24.9962001,"lon":121.4627533,"name":"萊爾富","decorType":"convenience"},{"id":"node-1398644382","lat":24.9961366,"lon":121.4615046,"name":"7-Eleven","decorType":"convenience"},{"id":"node-1406791543","lat":24.9963733,"lon":121.4627463,"name":"屈臣氏","decorType":"pharmacy"},{"id":"node-1408111639","lat":24.9962803,"lon":121.4629956,"name":"滷底撈","decorType":"restaurant"},{"id":"node-1411751314","lat":24.9960355,"lon":121.4620471,"name":"太師傅便當","decorType":"restaurant"},{"id":"node-1411751315","lat":24.9943426,"lon":121.4664939,"name":"全家便利商店","decorType":"convenience"},{"id":"node-1411751317","lat":24.9964841,"lon":121.4632278,"name":"小林髮廊","decorType":"hair_salon"},{"id":"node-1411751318","lat":25.0002152,"lon":121.4634458,"name":"廣香龍華樓","decorType":"restaurant"},{"id":"node-1411751321","lat":24.9960899,"lon":121.462281,"name":"茶的魔手","decorType":"cafe"},{"id":"node-1411751323","lat":24.9962654,"lon":121.4622429,"name":"池上木片便當","decorType":"restaurant"},{"id":"node-1411751332","lat":24.996057,"lon":121.4621334,"name":"未命名自主洗衣店&乾洗店","decorType":"laundry"},{"id":"node-1411751366","lat":25.0021572,"lon":121.4628341,"name":"萬香台式烤鴨","decorType":"restaurant"},{"id":"node-1411751368","lat":24.9967306,"lon":121.4634849,"name":"長青連鎖藥局","decorType":"pharmacy"},{"id":"node-1411751369","lat":24.9965989,"lon":121.4630551,"name":"1/2鬆餅廚房","decorType":"restaurant"},{"id":"node-1412407356","lat":25.0052134,"lon":121.4622685,"name":"華西街生炒花枝","decorType":"restaurant"},{"id":"node-1412407357","lat":25.0023588,"lon":121.4625108,"name":"錢都涮涮鍋","decorType":"restaurant"},{"id":"node-1412407361","lat":25.0029499,"lon":121.4624921,"name":"7-Eleven","decorType":"convenience"},{"id":"node-1415262717","lat":24.9995827,"lon":121.4629838,"name":"全家便利商店","decorType":"convenience"},{"id":"node-1415262720","lat":25.0021163,"lon":121.4610262,"name":"7-Eleven","decorType":"convenience"},{"id":"node-1444856613","lat":24.9922393,"lon":121.4625353,"name":"全家便利商店","decorType":"convenience"},{"id":"node-1444856686","lat":24.9936742,"lon":121.4647221,"name":"7-Eleven","decorType":"convenience"},{"id":"node-1720302264","lat":24.9995717,"lon":121.4583158,"name":"全家便利商店","decorType":"convenience"},{"id":"node-1720302266","lat":24.9971772,"lon":121.4572436,"name":"萊爾富","decorType":"convenience"},{"id":"node-1720305497","lat":24.9934237,"lon":121.4573508,"name":"全家便利商店","decorType":"convenience"},{"id":"node-1736930333","lat":25.0073522,"lon":121.4606401,"name":"上越國際髮型","decorType":"hair_salon"},{"id":"node-1736930339","lat":25.0071579,"lon":121.4617031,"name":"四季便當","decorType":"restaurant"},{"id":"node-1736930355","lat":25.0074009,"lon":121.4618907,"name":"蘇菲雅婚紗社","decorType":"clothing"},{"id":"node-1736930358","lat":25.0071113,"lon":121.4603958,"name":"7-Eleven","decorType":"convenience"},{"id":"node-1818561593","lat":24.9961046,"lon":121.461322,"name":"康是美","decorType":"pharmacy"},{"id":"node-1994678577","lat":24.9948108,"lon":121.4660708,"name":"家樂福","decorType":"supermarket"},{"id":"node-1994678593","lat":24.9945723,"lon":121.4662316,"name":"7-Eleven","decorType":"convenience"},{"id":"node-1994678937","lat":24.9952064,"lon":121.4659432,"name":"美廉社","decorType":"supermarket"},{"id":"node-1994679275","lat":24.9957661,"lon":121.4649964,"name":"7-Eleven","decorType":"convenience"},{"id":"node-1994679606","lat":24.9958408,"lon":121.4646611,"name":"美廉社","decorType":"supermarket"},{"id":"node-1994680391","lat":24.9965705,"lon":121.4664804,"name":"江浙小館","decorType":"restaurant"},{"id":"node-2602834665","lat":24.9945229,"lon":121.4613302,"name":"OK超商","decorType":"convenience"},{"id":"node-2602834691","lat":25.0019003,"lon":121.4608662,"name":"中興醫院","decorType":"bus_stop"},{"id":"node-2602834697","lat":25.001978,"lon":121.4605232,"name":"中興醫院","decorType":"bus_stop"},{"id":"node-2602834702","lat":24.9953141,"lon":121.463165,"name":"五權街口","decorType":"bus_stop"},{"id":"node-2602834716","lat":24.9957274,"lon":121.4633875,"name":"五權街口","decorType":"bus_stop"},{"id":"node-2602834722","lat":25.0018614,"lon":121.4607617,"name":"全家便利商店","decorType":"convenience"},{"id":"node-2602834726","lat":24.9973545,"lon":121.4644214,"name":"壽德新村","decorType":"bus_stop"},{"id":"node-2602834734","lat":24.9976139,"lon":121.4640556,"name":"壽德新村","decorType":"bus_stop"},{"id":"node-2602834740","lat":25.0013854,"lon":121.4630209,"name":"重慶忠孝路口","decorType":"bus_stop"},{"id":"node-2602834745","lat":25.0016589,"lon":121.4627017,"name":"重慶忠孝路口","decorType":"bus_stop"},{"id":"node-2602834748","lat":25.0021529,"lon":121.4624849,"name":"忠孝路","decorType":"bus_stop"},{"id":"node-2602834752","lat":25.0022598,"lon":121.4622786,"name":"忠孝路","decorType":"bus_stop"},{"id":"node-2602834764","lat":25.0015617,"lon":121.4627178,"name":"清心福全","decorType":"cafe"},{"id":"node-2602834768","lat":25.0026439,"lon":121.4599043,"name":"福星里","decorType":"bus_stop"},{"id":"node-2602834774","lat":25.0027503,"lon":121.459736,"name":"福星里","decorType":"bus_stop"},{"id":"node-2602834820","lat":24.9982992,"lon":121.4637733,"name":"重慶國中","decorType":"bus_stop"},{"id":"node-2602834822","lat":24.9985723,"lon":121.4639002,"name":"重慶國中","decorType":"bus_stop"},{"id":"node-2602834825","lat":24.9945419,"lon":121.4613856,"name":"重慶國小","decorType":"bus_stop"},{"id":"node-2602834828","lat":24.9948287,"lon":121.4620797,"name":"重慶國小","decorType":"bus_stop"},{"id":"node-2602834833","lat":24.9988007,"lon":121.4636254,"name":"飯匠","decorType":"restaurant"},{"id":"node-2611788691","lat":24.9952623,"lon":121.4578082,"name":"信義路","decorType":"bus_stop"},{"id":"node-2611788692","lat":24.9953577,"lon":121.4575396,"name":"信義路","decorType":"bus_stop"},{"id":"node-2611788694","lat":24.9960893,"lon":121.4612363,"name":"大同3C","decorType":"electronics"},{"id":"node-2611788695","lat":25.0070089,"lon":121.4618242,"name":"審計公廨","decorType":"bus_stop"},{"id":"node-2611788696","lat":25.0070345,"lon":121.4617534,"name":"審計公廨","decorType":"bus_stop"},{"id":"node-2611788697","lat":25.0038477,"lon":121.4624565,"name":"後埔國小","decorType":"bus_stop"},{"id":"node-2611788698","lat":25.0039158,"lon":121.4623534,"name":"後埔國小","decorType":"bus_stop"},{"id":"node-2611788699","lat":25.0072529,"lon":121.4608962,"name":"後站商圈","decorType":"bus_stop"},{"id":"node-2611788700","lat":25.0072256,"lon":121.4611024,"name":"摩斯漢堡","decorType":"burger"},{"id":"node-2611788704","lat":24.994392,"lon":121.4598424,"name":"板橋後站","decorType":"bus_stop"},{"id":"node-2611788705","lat":24.9945147,"lon":121.4598058,"name":"板橋後站","decorType":"bus_stop"},{"id":"node-2611788709","lat":24.9959527,"lon":121.4606335,"name":"狀元麵館","decorType":"restaurant"},{"id":"node-2611788711","lat":24.9978029,"lon":121.4633437,"name":"重慶國中 (國慶路)","decorType":"bus_stop"},{"id":"node-2611788713","lat":25.0001326,"lon":121.4634648,"name":"追樂火鍋","decorType":"restaurant"},{"id":"node-2615807704","lat":25.0058082,"lon":121.4638283,"name":"實踐成都街口","decorType":"bus_stop"},{"id":"node-2615807706","lat":25.0059161,"lon":121.4639702,"name":"實踐成都街口","decorType":"bus_stop"},{"id":"node-2615807708","lat":25.0035054,"lon":121.4642661,"name":"後埔國小","decorType":"bus_stop"},{"id":"node-2615807712","lat":25.0040339,"lon":121.4642964,"name":"後埔國小","decorType":"bus_stop"},{"id":"node-3048390249","lat":25.0002804,"lon":121.4629552,"name":"茶湯會","decorType":"cafe"},{"id":"node-3166784688","lat":24.9927011,"lon":121.4647412,"name":"五權公園","decorType":"bus_stop"},{"id":"node-3166784689","lat":24.9927291,"lon":121.4645637,"name":"五權公園","decorType":"bus_stop"},{"id":"node-3166784690","lat":24.993903,"lon":121.4664919,"name":"壽德街口","decorType":"bus_stop"},{"id":"node-3166784691","lat":24.9936936,"lon":121.4659722,"name":"壽德街口","decorType":"bus_stop"},{"id":"node-3166784692","lat":24.992601,"lon":121.4600867,"name":"干城路口","decorType":"bus_stop"},{"id":"node-3166784693","lat":24.9927785,"lon":121.4600835,"name":"干城路口","decorType":"bus_stop"},{"id":"node-3166784696","lat":25.0037791,"lon":121.4696714,"name":"德光路","decorType":"bus_stop"},{"id":"node-3166784697","lat":25.0039466,"lon":121.4696409,"name":"德光路","decorType":"bus_stop"},{"id":"node-3166784700","lat":25.0015737,"lon":121.468929,"name":"民德路口","decorType":"bus_stop"},{"id":"node-3166784701","lat":25.0019195,"lon":121.4687544,"name":"民德路口","decorType":"bus_stop"},{"id":"node-3166789018","lat":24.9999801,"lon":121.4686924,"name":"自強國小 (民德路)","decorType":"bus_stop"},{"id":"node-3166789019","lat":24.9997833,"lon":121.4685058,"name":"自強國小 (民德路)","decorType":"bus_stop"},{"id":"node-3166789022","lat":24.9972333,"lon":121.4678915,"name":"華福街口","decorType":"bus_stop"},{"id":"node-3166789023","lat":24.9975735,"lon":121.4681009,"name":"華福街口","decorType":"bus_stop"},{"id":"node-3243957044","lat":25.0045394,"lon":121.4599166,"name":"鄉雲里","decorType":"bus_stop"},{"id":"node-3243957045","lat":25.0046942,"lon":121.4580191,"name":"全家便利商店","decorType":"convenience"},{"id":"node-3243957046","lat":25.0030784,"lon":121.4570228,"name":"貴興路","decorType":"bus_stop"},{"id":"node-3312142361","lat":24.9919534,"lon":121.4681459,"name":"7-Eleven","decorType":"convenience"},{"id":"node-3317275801","lat":24.9999579,"lon":121.4582169,"name":"仁愛新村","decorType":"bus_stop"},{"id":"node-3317275802","lat":24.9997533,"lon":121.4584041,"name":"仁愛新村","decorType":"bus_stop"},{"id":"node-3317275848","lat":25.0069874,"lon":121.4587724,"name":"館前西路","decorType":"bus_stop"},{"id":"node-3317275853","lat":24.9972107,"lon":121.457205,"name":"豫章工商","decorType":"bus_stop"},{"id":"node-3317275854","lat":24.9974455,"lon":121.4570908,"name":"豫章工商","decorType":"bus_stop"},{"id":"node-3317275855","lat":25.0055472,"lon":121.4595927,"name":"鄉雲里","decorType":"bus_stop"},{"id":"node-3336564655","lat":25.0031991,"lon":121.4682382,"name":"民德路","decorType":"bus_stop"},{"id":"node-3336564656","lat":25.0032986,"lon":121.4680343,"name":"民德路","decorType":"bus_stop"},{"id":"node-3336564663","lat":25.0026861,"lon":121.4659548,"name":"福德里","decorType":"bus_stop"},{"id":"node-3336564664","lat":25.002721,"lon":121.4653678,"name":"福德里","decorType":"bus_stop"},{"id":"node-3336565997","lat":24.9941522,"lon":121.4681098,"name":"華安街口","decorType":"bus_stop"},{"id":"node-3336565998","lat":24.9941531,"lon":121.4683804,"name":"華安街口","decorType":"bus_stop"},{"id":"node-3336660150","lat":24.9936633,"lon":121.4572054,"name":"益華紡織","decorType":"bus_stop"},{"id":"node-3336660151","lat":24.9933798,"lon":121.4577551,"name":"益華紡織","decorType":"bus_stop"},{"id":"node-3419805451","lat":25.0055342,"lon":121.4570299,"name":"白新洗衣連鎖","decorType":"laundry"},{"id":"node-3444671405","lat":25.0057619,"lon":121.4619647,"name":"平價牛排","decorType":"restaurant"},{"id":"node-3444671406","lat":25.0058508,"lon":121.4619507,"name":"山東最佳典飯","decorType":"restaurant"},{"id":"node-3444671408","lat":25.0060842,"lon":121.4618894,"name":"聯強電信","decorType":"electronics"},{"id":"node-3444671410","lat":25.0062286,"lon":121.46187,"name":"MICHA","decorType":"bakery"},{"id":"node-3444671418","lat":25.0064556,"lon":121.4618207,"name":"全聯福利中心","decorType":"supermarket"},{"id":"node-3444671419","lat":25.0063674,"lon":121.4618331,"name":"三井3C","decorType":"electronics"},{"id":"node-3444671420","lat":25.0064171,"lon":121.46158,"name":"金色年代旅店","decorType":"hotel"},{"id":"node-3444671427","lat":25.0063754,"lon":121.4619729,"name":"芊翔男士禮服","decorType":"clothing"},{"id":"node-3444671429","lat":25.0065133,"lon":121.461941,"name":"媽咪亞媽媽裝","decorType":"clothing"},{"id":"node-3444671431","lat":25.0066705,"lon":121.4619021,"name":"LARKE Hair","decorType":"hair_salon"},{"id":"node-3444671432","lat":25.0067539,"lon":121.4618879,"name":"南北電子材料行","decorType":"hardware"},{"id":"node-3444671437","lat":25.0069399,"lon":121.4617446,"name":"全家便利商店","decorType":"convenience"},{"id":"node-3444671438","lat":25.0070153,"lon":121.461734,"name":"布拉格精品婚紗","decorType":"clothing"},{"id":"node-3444671439","lat":25.0069383,"lon":121.4618614,"name":"懿品小珍","decorType":"restaurant"},{"id":"node-3444671440","lat":25.0070105,"lon":121.4618561,"name":"拓元西服名店","decorType":"clothing"},{"id":"node-3444671443","lat":25.0073344,"lon":121.4616667,"name":"法緹新絲路","decorType":"clothing"},{"id":"node-3444713869","lat":25.0074705,"lon":121.462398,"name":"Acer宏碁授權服務中心","decorType":"electronics"},{"id":"node-3444713872","lat":25.0073754,"lon":121.4622736,"name":"首府大旅社","decorType":"hotel"},{"id":"node-3444713998","lat":25.0073379,"lon":121.461578,"name":"日式威廉","decorType":"hair_salon"},{"id":"node-3444714000","lat":25.0071844,"lon":121.4605575,"name":"It","decorType":"clothing"},{"id":"node-3444714001","lat":25.0073103,"lon":121.4613585,"name":"ABK","decorType":"clothing"},{"id":"node-3444714002","lat":25.0072955,"lon":121.4612838,"name":"紗法亞婚紗","decorType":"clothing"},{"id":"node-3472560493","lat":25.007356,"lon":121.4597091,"name":"上海銀鳳樓","decorType":"restaurant"},{"id":"node-3473061993","lat":25.0072899,"lon":121.4596715,"name":"街角二彌","decorType":"restaurant"},{"id":"node-3671191750","lat":25.0003181,"lon":121.4634243,"name":"擎天通訊","decorType":"electronics"},{"id":"node-3671191751","lat":25.0003788,"lon":121.4634209,"name":"寶雅板橋重慶店","decorType":"supermarket"},{"id":"node-3712942720","lat":25.0011148,"lon":121.4687531,"name":"中和國光街郵局","decorType":"post_office"},{"id":"node-3940358065","lat":25.0050715,"lon":121.461617,"name":"Osteria Vecchia Roma","decorType":"restaurant"},{"id":"node-4101227397","lat":25.000796,"lon":121.4689043,"name":"郵局口滷味","decorType":"restaurant"},{"id":"node-4101259389","lat":24.9962761,"lon":121.4628,"name":"國慶路鹽水雞","decorType":"restaurant"},{"id":"node-4105656290","lat":25.0072129,"lon":121.4607834,"name":"阿國麻辣麵線","decorType":"restaurant"},{"id":"node-4147389961","lat":24.9961328,"lon":121.4617177,"name":"郵局","decorType":"bus_stop"},{"id":"node-4147389962","lat":24.9955918,"lon":121.4597785,"name":"7-Eleven","decorType":"convenience"},{"id":"node-4147389966","lat":24.998904,"lon":121.4633445,"name":"素食炸物","decorType":"restaurant"},{"id":"node-4149477983","lat":25.0067481,"lon":121.4572294,"name":"宮賓旅舍","decorType":"hotel"},{"id":"node-4149484092","lat":25.0070352,"lon":121.4574251,"name":"館前西路","decorType":"bus_stop"},{"id":"node-4152025089","lat":25.0048198,"lon":121.4578453,"name":"泰味廚房","decorType":"restaurant"},{"id":"node-4258235954","lat":24.9924809,"lon":121.4586536,"name":"晟揚骨科診所","decorType":"pharmacy"},{"id":"node-4258235955","lat":24.992666,"lon":121.4591209,"name":"光頭呂蔥抓餅","decorType":"burger"},{"id":"node-4258255075","lat":24.9922028,"lon":121.4588967,"name":"軒源藥局","decorType":"pharmacy"},{"id":"node-4258264108","lat":24.9919499,"lon":121.4588155,"name":"山葡萄家常食窟","decorType":"restaurant"},{"id":"node-4258266156","lat":24.9919144,"lon":121.4587188,"name":"7-Eleven","decorType":"convenience"},{"id":"node-4315304909","lat":25.0073337,"lon":121.4605054,"name":"零時差","decorType":"restaurant"},{"id":"node-4405357992","lat":25.0030928,"lon":121.4598985,"name":"85度C","decorType":"cafe"},{"id":"node-4631479065","lat":25.0010619,"lon":121.468774,"name":"7-Eleven","decorType":"convenience"},{"id":"node-4631479066","lat":25.0010105,"lon":121.4689914,"name":"民德豆漿大王","decorType":"restaurant"},{"id":"node-4631479067","lat":25.0020446,"lon":121.4689768,"name":"7-Eleven","decorType":"convenience"},{"id":"node-4674829790","lat":24.9975212,"lon":121.4675525,"name":"明漢參藥號中藥行","decorType":"pharmacy"},{"id":"node-4736039022","lat":25.0068797,"lon":121.4591335,"name":"檸檬草","decorType":"restaurant"},{"id":"node-4846801484","lat":24.9946082,"lon":121.4608312,"name":"小潘蛋糕坊","decorType":"sweetshop"},{"id":"node-4846801485","lat":24.9961397,"lon":121.4615688,"name":"喬治藥局","decorType":"pharmacy"},{"id":"node-4846801488","lat":24.9962382,"lon":121.4620569,"name":"伊雷名店","decorType":"clothing"},{"id":"node-4846801490","lat":24.99635,"lon":121.4626215,"name":"躍獅國慶藥局","decorType":"pharmacy"},{"id":"node-4846801491","lat":24.9960948,"lon":121.46236,"name":"漁城","decorType":"restaurant"},{"id":"node-4846801492","lat":24.997952,"lon":121.4635831,"name":"永和豆漿大王","decorType":"restaurant"},{"id":"node-4846801496","lat":24.9977016,"lon":121.463622,"name":"欣欣書坊","decorType":"library"},{"id":"node-4846801498","lat":24.9975691,"lon":121.4636381,"name":"八方雲集","decorType":"burger"},{"id":"node-4846801499","lat":24.9976153,"lon":121.46363,"name":"佇品重慶店","decorType":"restaurant"},{"id":"node-4846801500","lat":24.9971595,"lon":121.4636515,"name":"派克脆皮雞排","decorType":"restaurant"},{"id":"node-4846801502","lat":24.9969602,"lon":121.4635885,"name":"元氣家族麵飯館","decorType":"restaurant"},{"id":"node-4846801503","lat":24.9966356,"lon":121.4634342,"name":"虎威牛排","decorType":"restaurant"},{"id":"node-4846801504","lat":24.9963865,"lon":121.4631104,"name":"樂聚鍋物","decorType":"restaurant"},{"id":"node-4846801505","lat":24.9965354,"lon":121.4633082,"name":"Speed hair salon","decorType":"hair_salon"},{"id":"node-5024556722","lat":24.9968995,"lon":121.4653848,"name":"阿舜平價牛排","decorType":"restaurant"},{"id":"node-5344584424","lat":25.0035207,"lon":121.4573272,"name":"炒之莊快炒","decorType":"restaurant"},{"id":"node-5344586026","lat":25.0038407,"lon":121.4576356,"name":"八方雲集","decorType":"burger"},{"id":"node-5344605623","lat":25.0033638,"lon":121.457351,"name":"隨緣素食","decorType":"restaurant"},{"id":"node-5563238221","lat":24.9955182,"lon":121.4582665,"name":"貴族世家","decorType":"restaurant"},{"id":"node-5707055581","lat":25.0023861,"lon":121.463139,"name":"鍋賣局百元小火鍋-板橋忠孝店","decorType":"restaurant"},{"id":"node-5707055582","lat":25.0023872,"lon":121.4630689,"name":"食為天餡餅粥麵食館","decorType":"restaurant"},{"id":"node-5707055584","lat":25.0026064,"lon":121.4643688,"name":"全家便利商店","decorType":"convenience"},{"id":"node-5707055585","lat":25.0025509,"lon":121.4641117,"name":"三媽臭臭鍋-板橋忠孝店","decorType":"restaurant"},{"id":"node-5707055586","lat":25.0025473,"lon":121.4639514,"name":"潮味決","decorType":"restaurant"},{"id":"node-6029650168","lat":25.001402,"lon":121.4627831,"name":"老五鍋貼","decorType":"restaurant"},{"id":"node-6029650181","lat":24.9988232,"lon":121.4633561,"name":"S&D COFFEE SHOP","decorType":"cafe"},{"id":"node-6029650182","lat":24.9981333,"lon":121.4638746,"name":"益堂麵包店","decorType":"bakery"},{"id":"node-6029650183","lat":25.00057,"lon":121.4637709,"name":"全聯福利中心","decorType":"supermarket"},{"id":"node-6029650184","lat":25.0028869,"lon":121.4643909,"name":"板橋後埔郵局","decorType":"post_office"},{"id":"node-6440290229","lat":25.0072094,"lon":121.4598449,"name":"路易莎咖啡","decorType":"cafe"},{"id":"node-6843954135","lat":25.0042586,"lon":121.4575779,"name":"炒飯製研所","decorType":"restaurant"},{"id":"node-6977230090","lat":24.9994166,"lon":121.4686525,"name":"全聯福利中心","decorType":"supermarket"},{"id":"node-7187435758","lat":24.9974358,"lon":121.4572794,"name":"佑全板橋四川藥局","decorType":"pharmacy"},{"id":"node-7657301108","lat":25.0070956,"lon":121.458285,"name":"館前西路口","decorType":"bus_stop"},{"id":"node-7777546503","lat":24.9953712,"lon":121.4572288,"name":"全家便利商店","decorType":"convenience"},{"id":"node-7918938742","lat":24.9995068,"lon":121.4588528,"name":"阿香仁愛餛飩麵","decorType":"restaurant"},{"id":"node-8118272829","lat":25.0071392,"lon":121.4592736,"name":"全家便利商店","decorType":"convenience"},{"id":"node-8385313228","lat":24.9942707,"lon":121.4663816,"name":"八方雲集","decorType":"burger"},{"id":"node-8385313751","lat":25.003874,"lon":121.469385,"name":"八方雲集","decorType":"burger"},{"id":"node-8385313824","lat":25.00503,"lon":121.464164,"name":"八方雲集","decorType":"burger"},{"id":"node-8600762316","lat":25.0024979,"lon":121.4595679,"name":"Just Kitchen - Banqiao","decorType":"restaurant"},{"id":"node-9229352490","lat":25.0020754,"lon":121.4607517,"name":"星巴克","decorType":"cafe"},{"id":"node-9229352494","lat":25.0020259,"lon":121.4605878,"name":"屈臣氏","decorType":"pharmacy"},{"id":"node-9229352495","lat":25.0020242,"lon":121.4604522,"name":"肯德基","decorType":"burger"},{"id":"node-9229352496","lat":25.00185,"lon":121.460584,"name":"全國電子","decorType":"electronics"},{"id":"node-9229352497","lat":25.0018193,"lon":121.4604465,"name":"杏一藥局","decorType":"pharmacy"},{"id":"node-9229352498","lat":25.0017937,"lon":121.4602827,"name":"大樹藥局","decorType":"pharmacy"},{"id":"node-9229352500","lat":25.0025315,"lon":121.4598184,"name":"萬壽專業藥局","decorType":"pharmacy"},{"id":"node-9229352502","lat":25.0030342,"lon":121.459848,"name":"OK超商","decorType":"convenience"},{"id":"node-9229352504","lat":25.0045895,"lon":121.4597423,"name":"7-Eleven","decorType":"convenience"},{"id":"node-9229352505","lat":25.0053662,"lon":121.4598923,"name":"順發3C","decorType":"electronics"},{"id":"node-9229352506","lat":25.0055497,"lon":121.4595371,"name":"鞋全家福","decorType":"clothing"},{"id":"node-9229352515","lat":25.0039974,"lon":121.4625316,"name":"小倆口麵飯館","decorType":"restaurant"},{"id":"node-9229352516","lat":25.0042598,"lon":121.4640987,"name":"罕多咖啡","decorType":"cafe"},{"id":"node-9229363417","lat":25.0042697,"lon":121.4643589,"name":"肉多多火鍋","decorType":"restaurant"},{"id":"node-9229363419","lat":25.0070992,"lon":121.4635584,"name":"7-Eleven","decorType":"convenience"},{"id":"node-9229363420","lat":25.0071363,"lon":121.4638241,"name":"四海遊龍","decorType":"restaurant"},{"id":"node-9229363421","lat":25.0072871,"lon":121.4601045,"name":"7-Eleven","decorType":"convenience"},{"id":"node-9229363426","lat":25.0060715,"lon":121.4597712,"name":"全家便利商店","decorType":"convenience"},{"id":"node-9229363429","lat":25.0052819,"lon":121.4641679,"name":"7-Eleven","decorType":"convenience"},{"id":"node-9229363430","lat":25.004794,"lon":121.4642049,"name":"高野電器","decorType":"electronics"},{"id":"node-9229363431","lat":25.0047,"lon":121.464232,"name":"必勝客","decorType":"restaurant"},{"id":"node-9229363433","lat":25.0028167,"lon":121.4645602,"name":"梁社漢排骨","decorType":"restaurant"},{"id":"node-9229363434","lat":25.0026726,"lon":121.4646186,"name":"馬可先生","decorType":"bakery"},{"id":"node-9229363435","lat":25.0008072,"lon":121.4632865,"name":"全家便利商店","decorType":"convenience"},{"id":"node-9229363439","lat":24.9996519,"lon":121.4630594,"name":"甘泉魚麵","decorType":"restaurant"},{"id":"node-9345396828","lat":24.992026,"lon":121.4681539,"name":"初食早午參","decorType":"cafe"},{"id":"node-9351908807","lat":25.0025638,"lon":121.4640278,"name":"蝦皮店到店","decorType":"convenience"},{"id":"node-9414479537","lat":24.9929027,"lon":121.4646884,"name":"蝦皮店到店","decorType":"convenience"},{"id":"node-9424219899","lat":25.0053737,"lon":121.4653332,"name":"蝦皮店到店","decorType":"convenience"},{"id":"node-9424219900","lat":25.0051601,"lon":121.4651733,"name":"美廉社","decorType":"supermarket"},{"id":"node-9660073556","lat":24.9966078,"lon":121.4660578,"name":"蝦皮店到店","decorType":"convenience"},{"id":"node-9742765546","lat":24.9942593,"lon":121.4596859,"name":"板橋後站","decorType":"bus_stop"},{"id":"node-9742765547","lat":24.9942815,"lon":121.4595874,"name":"板橋後站","decorType":"bus_stop"},{"id":"node-9778464150","lat":24.9963445,"lon":121.4634918,"name":"夏天洗衣坊","decorType":"laundry"},{"id":"node-9867852316","lat":25.0022912,"lon":121.4594565,"name":"麻古茶坊","decorType":"cafe"},{"id":"node-9867874517","lat":25.0024018,"lon":121.4594981,"name":"50嵐","decorType":"cafe"},{"id":"node-9867874518","lat":24.9996597,"lon":121.4583635,"name":"圓石","decorType":"cafe"},{"id":"node-10003414192","lat":24.9924297,"lon":121.4679798,"name":"美廉社","decorType":"supermarket"},{"id":"node-10074070860","lat":24.9934521,"lon":121.4624818,"name":"OK超商","decorType":"convenience"},{"id":"node-10074094594","lat":24.9942351,"lon":121.4622897,"name":"麥味登","decorType":"restaurant"},{"id":"node-10074098992","lat":24.9986665,"lon":121.4667493,"name":"品漾早午餐","decorType":"restaurant"},{"id":"node-10074104477","lat":24.9995152,"lon":121.4683802,"name":"南崁聯福利中心","decorType":"supermarket"},{"id":"node-10074143500","lat":24.9953508,"lon":121.4658293,"name":"麥味登","decorType":"restaurant"},{"id":"node-10074143501","lat":24.9984578,"lon":121.4663169,"name":"全家便利商店","decorType":"convenience"},{"id":"node-10074174608","lat":24.9996567,"lon":121.4686618,"name":"萊爾富","decorType":"convenience"},{"id":"node-10074177993","lat":24.9932944,"lon":121.457909,"name":"愛登堡早餐店","decorType":"restaurant"},{"id":"node-10092610298","lat":24.9927047,"lon":121.4634651,"name":"鍋寶寶火鍋店","decorType":"restaurant"},{"id":"node-10720170447","lat":25.0032754,"lon":121.4620344,"name":"麥味登","decorType":"restaurant"},{"id":"node-11061673373","lat":25.0073692,"lon":121.4606823,"name":"陸品藥局","decorType":"pharmacy"},{"id":"node-11061673377","lat":25.0070355,"lon":121.4604043,"name":"清翼居旅店","decorType":"hotel"},{"id":"node-11061673378","lat":25.0072788,"lon":121.4600284,"name":"台北輕旅複合式旅店","decorType":"hotel"},{"id":"node-11061673379","lat":25.0074249,"lon":121.462179,"name":"有之和牛","decorType":"restaurant"},{"id":"node-12183735306","lat":24.998255,"lon":121.4634596,"name":"牛肉麵","decorType":"restaurant"},{"id":"node-12455471654","lat":25.0073475,"lon":121.4652461,"name":"故事屋（文學館）","decorType":"library"},{"id":"node-12570502800","lat":25.0067724,"lon":121.4598709,"name":"Yen Inn","decorType":"hotel"},{"id":"node-13167277060","lat":25.0054974,"lon":121.4641082,"name":"全家便利商店","decorType":"convenience"},{"id":"node-13167277097","lat":25.0057168,"lon":121.4640693,"name":"宇宙手作烘培日式料理","decorType":"restaurant"},{"id":"node-13172649187","lat":25.0056469,"lon":121.463791,"name":"食代不同","decorType":"restaurant"},{"id":"node-13172649188","lat":25.0056032,"lon":121.4638111,"name":"甘泉魚麵","decorType":"restaurant"},{"id":"node-13172649189","lat":25.0055436,"lon":121.4638185,"name":"Hi 姐姐早午餐","decorType":"restaurant"},{"id":"node-13172742942","lat":25.0065351,"lon":121.4638771,"name":"碳燒羊肉專賣店","decorType":"restaurant"},{"id":"node-13172744105","lat":25.0074627,"lon":121.4636736,"name":"JSMIX 大尺碼服飾","decorType":"clothing"},{"id":"node-13172744108","lat":25.0072342,"lon":121.4634805,"name":"大魔大滿足鍋物","decorType":"restaurant"},{"id":"node-13172749082","lat":25.0065159,"lon":121.4636636,"name":"星辰藥局","decorType":"pharmacy"},{"id":"node-13245435528","lat":24.9958936,"lon":121.4649906,"name":"壽德里活動中心","decorType":"bus_stop"},{"id":"node-13245435529","lat":24.9959167,"lon":121.4648598,"name":"壽德里活動中心","decorType":"bus_stop"},{"id":"node-13245435531","lat":24.9967165,"lon":121.4653547,"name":"全家便利商店","decorType":"convenience"},{"id":"node-13245484550","lat":24.9950275,"lon":121.4661161,"name":"壽德街","decorType":"bus_stop"},{"id":"node-13245484551","lat":24.9948726,"lon":121.4660766,"name":"壽德街","decorType":"bus_stop"},{"id":"node-13247159726","lat":24.9935471,"lon":121.46765,"name":"臨洋港生猛活海鮮","decorType":"restaurant"},{"id":"node-13249467115","lat":24.9926208,"lon":121.4677446,"name":"外婆家古早味蛋糕","decorType":"sweetshop"},{"id":"node-13249467116","lat":24.992667,"lon":121.467998,"name":"石頭厝土魠魚羹","decorType":"restaurant"},{"id":"node-13249467119","lat":24.9920921,"lon":121.4681549,"name":"采佳早午餐","decorType":"restaurant"},{"id":"node-13249467191","lat":24.9928384,"lon":121.4676815,"name":"弘爺漢堡","decorType":"burger"},{"id":"node-13249467192","lat":24.9929417,"lon":121.4676587,"name":"萊爾富","decorType":"convenience"},{"id":"node-13249467194","lat":24.99307,"lon":121.4678163,"name":"聯興糕點","decorType":"sweetshop"},{"id":"node-13371462905","lat":24.9960875,"lon":121.4620911,"name":"郵局","decorType":"bus_stop"},{"id":"node-13413775724","lat":24.9997202,"lon":121.4686406,"name":"萊爾富","decorType":"convenience"},{"id":"node-13423799026","lat":25.0010331,"lon":121.4655637,"name":"萊爾富","decorType":"convenience"},{"id":"way-127293849","lat":24.9962234,"lon":121.4599836,"name":"兒童公園","decorType":"park"},{"id":"way-130008118","lat":24.9957085,"lon":121.4614807,"name":"國慶郵局","decorType":"post_office"},{"id":"way-182876068","lat":24.9975234,"lon":121.4684262,"name":"明德公園","decorType":"park"},{"id":"way-182876069","lat":24.995719,"lon":121.4678047,"name":"未命名公園","decorType":"park"},{"id":"way-204011428","lat":24.9926732,"lon":121.4651847,"name":"五權公園","decorType":"park"},{"id":"way-255867130","lat":25.0072751,"lon":121.466048,"name":"中華電信學院餐廳","decorType":"restaurant"},{"id":"way-281751881","lat":25.0058013,"lon":121.4672359,"name":"沙坑","decorType":"park"},{"id":"way-292201560","lat":25.0074987,"lon":121.458139,"name":"馥都飯店","decorType":"hotel"},{"id":"way-324504885","lat":24.9976309,"lon":121.4647267,"name":"和平公園","decorType":"park"},{"id":"way-324504886","lat":24.9975759,"lon":121.4650185,"name":"華福公園","decorType":"park"},{"id":"way-334980062","lat":25.0017459,"lon":121.4569076,"name":"愛買","decorType":"supermarket"},{"id":"way-337375565","lat":25.0059058,"lon":121.4620824,"name":"冠君大飯店","decorType":"hotel"},{"id":"way-337375567","lat":25.006708,"lon":121.4616771,"name":"HERANS愛倫斯精品婚紗會館","decorType":"clothing"},{"id":"way-337375568","lat":25.0068432,"lon":121.4619293,"name":"法拉莉婚紗","decorType":"clothing"},{"id":"way-337375569","lat":25.0072896,"lon":121.4618399,"name":"希臘婚禮","decorType":"clothing"},{"id":"way-337379753","lat":25.007331,"lon":121.4619623,"name":"後埔福德宮","decorType":"shrine"},{"id":"way-400094339","lat":24.9974039,"lon":121.4599946,"name":"新北市立圖書館板橋忠孝分館","decorType":"library"},{"id":"way-583175432","lat":24.9988947,"lon":121.4690448,"name":"清穗公園","decorType":"park"},{"id":"way-734380152","lat":24.9984271,"lon":121.4560948,"name":"未命名公園","decorType":"park"},{"id":"way-808001748","lat":24.9939224,"lon":121.4612436,"name":"和平路安樂巷8弄","decorType":"bridge"},{"id":"way-808001769","lat":24.9943392,"lon":121.4612427,"name":"A-Mart","decorType":"convenience"},{"id":"way-999820273","lat":24.9995675,"lon":121.4638828,"name":"板橋福德祠","decorType":"shrine"},{"id":"way-1244833333","lat":24.9941918,"lon":121.4671574,"name":"未命名公園","decorType":"park"},{"id":"way-1244959768","lat":24.9931228,"lon":121.4659453,"name":"未命名公園","decorType":"park"},{"id":"way-1245262236","lat":24.9965892,"lon":121.4694697,"name":"未命名公園","decorType":"park"},{"id":"way-1245262237","lat":24.9964496,"lon":121.4694798,"name":"未命名公園","decorType":"park"},{"id":"way-1245262238","lat":24.9963476,"lon":121.4695468,"name":"未命名公園","decorType":"park"},{"id":"way-1245262239","lat":24.9962591,"lon":121.4696127,"name":"未命名公園","decorType":"park"},{"id":"way-1245262240","lat":24.9960763,"lon":121.4696541,"name":"未命名公園","decorType":"park"},{"id":"way-1245262241","lat":24.9962782,"lon":121.4697617,"name":"未命名公園","decorType":"park"},{"id":"way-1245262242","lat":24.9963594,"lon":121.4696977,"name":"未命名公園","decorType":"park"},{"id":"way-1245262257","lat":24.9989116,"lon":121.4687848,"name":"未命名公園","decorType":"park"},{"id":"way-1301427093","lat":25.0070715,"lon":121.4653977,"name":"未命名水邊","decorType":"waterside"},{"id":"way-1301427096","lat":25.0069664,"lon":121.4654806,"name":"板橋放送所","decorType":"park"},{"id":"way-1316346070","lat":24.9960073,"lon":121.4620915,"name":"猋師傅","decorType":"restaurant"},{"id":"way-1332571404","lat":25.0055433,"lon":121.4579339,"name":"觀音亭","decorType":"shrine"},{"id":"way-1006182052","lat":25.0052567,"lon":121.4426228,"name":"大漢溪","decorType":"waterside"}]}