{"bbox":{"south":24.991912,"north":25.007519,"west":121.509125,"east":121.522156},"pois":[{"id":"way-1198218238","lat":24.996659,"lon":121.511016,"name":"未命名水邊","decorType":"waterside"},{"id":"node-2069531107","lat":25.006354,"lon":121.521063,"name":"池湖豆漿大王","decorType":"restaurant"},{"id":"node-2215948932","lat":25.002294,"lon":121.510693,"name":"麥當勞","decorType":"burger"},{"id":"node-2216099453","lat":25.001765,"lon":121.515156,"name":"E61 咖啡場所","decorType":"cafe"},{"id":"node-2216495492","lat":25.002937,"lon":121.513067,"name":"波波食堂雞蛋仔專賣店","decorType":"burger"},{"id":"node-2216534992","lat":25.001019,"lon":121.514773,"name":"潭墘里","decorType":"bus_stop"},{"id":"node-2216534997","lat":25.002391,"lon":121.510966,"name":"捷運永安市場站","decorType":"bus_stop"},{"id":"node-2407137760","lat":24.992014,"lon":121.515898,"name":"捷運景平站","decorType":"bus_stop"},{"id":"node-2407137762","lat":24.992355,"lon":121.512955,"name":"南勢角 (景平路)","decorType":"bus_stop"},{"id":"node-2407137771","lat":24.994159,"lon":121.512739,"name":"智光商職","decorType":"bus_stop"},{"id":"node-2407137772","lat":24.995912,"lon":121.514245,"name":"智光商職","decorType":"bus_stop"},{"id":"node-2407137773","lat":24.998595,"lon":121.516577,"name":"中興新村","decorType":"bus_stop"},{"id":"node-2407137774","lat":25.00091,"lon":121.517569,"name":"得和路口","decorType":"bus_stop"},{"id":"node-2407137775","lat":25.000236,"lon":121.519098,"name":"得和路","decorType":"bus_stop"},{"id":"node-2430685125","lat":24.996229,"lon":121.514873,"name":"吉野家","decorType":"burger"},{"id":"node-2430739269","lat":24.996599,"lon":121.515116,"name":"7-Eleven","decorType":"convenience"},{"id":"node-2491474586","lat":25.005469,"lon":121.518883,"name":"永利路","decorType":"bus_stop"},{"id":"node-2491474587","lat":25.003347,"lon":121.517328,"name":"永和國小","decorType":"bus_stop"},{"id":"node-2491474588","lat":25.003371,"lon":121.521427,"name":"福和國中","decorType":"bus_stop"},{"id":"node-2491474607","lat":25.00505,"lon":121.517173,"name":"金銀大廈","decorType":"bus_stop"},{"id":"node-2509549127","lat":24.995565,"lon":121.51412,"name":"智光商職","decorType":"bus_stop"},{"id":"node-2509549128","lat":24.998293,"lon":121.516485,"name":"中興新村","decorType":"bus_stop"},{"id":"node-2509549133","lat":25.000512,"lon":121.517751,"name":"得和路口","decorType":"bus_stop"},{"id":"node-2509549140","lat":24.994795,"lon":121.513437,"name":"智光商職","decorType":"bus_stop"},{"id":"node-2509549145","lat":25.005417,"lon":121.518856,"name":"永利路","decorType":"bus_stop"},{"id":"node-2509549146","lat":25.002493,"lon":121.517547,"name":"永和國小","decorType":"bus_stop"},{"id":"node-2509549147","lat":25.003183,"lon":121.521488,"name":"福和國中","decorType":"bus_stop"},{"id":"node-2509549200","lat":25.005055,"lon":121.517272,"name":"金銀大廈","decorType":"bus_stop"},{"id":"node-2517658772","lat":24.996399,"lon":121.514847,"name":"中興二村","decorType":"bus_stop"},{"id":"node-2517658776","lat":24.996919,"lon":121.515171,"name":"中興二村","decorType":"bus_stop"},{"id":"node-2517658791","lat":25.001883,"lon":121.514973,"name":"八二三紀念公園","decorType":"bus_stop"},{"id":"node-2517658792","lat":25.001899,"lon":121.515118,"name":"八二三紀念公園","decorType":"bus_stop"},{"id":"node-2517658828","lat":24.997699,"lon":121.511922,"name":"安平路","decorType":"bus_stop"},{"id":"node-2517658853","lat":25.000101,"lon":121.516052,"name":"得和路","decorType":"bus_stop"},{"id":"node-2517658952","lat":25.005748,"lon":121.512982,"name":"永和路口","decorType":"bus_stop"},{"id":"node-2517658956","lat":25.005272,"lon":121.514378,"name":"永安市場","decorType":"bus_stop"},{"id":"node-2517658961","lat":25.00377,"lon":121.513269,"name":"永安市場(永貞)","decorType":"bus_stop"},{"id":"node-2517658976","lat":24.999429,"lon":121.51346,"name":"潭墘","decorType":"bus_stop"},{"id":"node-2639372626","lat":24.992404,"lon":121.516162,"name":"大全聯","decorType":"supermarket"},{"id":"node-2639372748","lat":24.992376,"lon":121.51635,"name":"全家便利商店","decorType":"convenience"},{"id":"node-2639373768","lat":24.99317,"lon":121.517138,"name":"7-Eleven","decorType":"convenience"},{"id":"node-2639374046","lat":24.993651,"lon":121.51724,"name":"未命名餐廳","decorType":"restaurant"},{"id":"node-2639391178","lat":24.993039,"lon":121.515204,"name":"7-Eleven","decorType":"convenience"},{"id":"node-2658740611","lat":24.996585,"lon":121.519974,"name":"全家便利商店","decorType":"convenience"},{"id":"node-2678961908","lat":25.007472,"lon":121.518677,"name":"福和路","decorType":"bus_stop"},{"id":"node-2678961909","lat":25.006391,"lon":121.516968,"name":"福和里","decorType":"bus_stop"},{"id":"node-2678961910","lat":25.006622,"lon":121.516932,"name":"福和里","decorType":"bus_stop"},{"id":"node-2678961911","lat":25.006736,"lon":121.517133,"name":"福和里","decorType":"bus_stop"},{"id":"node-2734137791","lat":25.002537,"lon":121.510883,"name":"布列德(永安店)","decorType":"bakery"},{"id":"node-2820063983","lat":24.993111,"lon":121.50917,"name":"中和教會","decorType":"bus_stop"},{"id":"node-2820063986","lat":24.992853,"lon":121.511603,"name":"南勢角","decorType":"bus_stop"},{"id":"node-2820063991","lat":24.992193,"lon":121.517309,"name":"捷運景平站","decorType":"bus_stop"},{"id":"node-2866571176","lat":24.99215,"lon":121.516174,"name":"景平","decorType":"station"},{"id":"node-2929253543","lat":25.005903,"lon":121.510651,"name":"保平路口","decorType":"bus_stop"},{"id":"node-2929253544","lat":25.005933,"lon":121.5108,"name":"保平路口","decorType":"bus_stop"},{"id":"node-2977114533","lat":25.006379,"lon":121.510395,"name":"全家便利商店","decorType":"convenience"},{"id":"node-2977114534","lat":25.007173,"lon":121.520857,"name":"永和區公所 (永貞路)","decorType":"bus_stop"},{"id":"node-2977303910","lat":25.007404,"lon":121.512477,"name":"和陞屋牛排","decorType":"restaurant"},{"id":"node-2977303920","lat":25.007425,"lon":121.511761,"name":"美廉社","decorType":"supermarket"},{"id":"node-2978373417","lat":25.001618,"lon":121.510063,"name":"摩斯漢堡","decorType":"burger"},{"id":"node-2978376919","lat":25.002246,"lon":121.510535,"name":"家樂福超市","decorType":"supermarket"},{"id":"node-3031546125","lat":25.000321,"lon":121.509191,"name":"華泰新城","decorType":"bus_stop"},{"id":"node-3033778597","lat":25.002495,"lon":121.510809,"name":"捷運永安市場站","decorType":"bus_stop"},{"id":"node-3093798934","lat":24.999846,"lon":121.517442,"name":"全聯福利中心","decorType":"supermarket"},{"id":"node-3116012536","lat":24.996453,"lon":121.520955,"name":"愛買永和店","decorType":"supermarket"},{"id":"node-3116012537","lat":24.996463,"lon":121.520866,"name":"星巴克","decorType":"cafe"},{"id":"node-3139866436","lat":25.000057,"lon":121.520796,"name":"秀朗國小","decorType":"bus_stop"},{"id":"node-3139866437","lat":24.999887,"lon":121.52082,"name":"秀朗國小","decorType":"bus_stop"},{"id":"node-3144940089","lat":24.994722,"lon":121.520001,"name":"馥萱芝士蛋糕","decorType":"bakery"},{"id":"node-3155757904","lat":25.000088,"lon":121.519225,"name":"得和路","decorType":"bus_stop"},{"id":"node-3155757905","lat":24.992542,"lon":121.514467,"name":"東森廣場","decorType":"bus_stop"},{"id":"node-3180257857","lat":24.994297,"lon":121.521932,"name":"秀山國小","decorType":"bus_stop"},{"id":"node-3180257858","lat":24.994682,"lon":121.522056,"name":"秀山國小","decorType":"bus_stop"},{"id":"node-3180257859","lat":24.994178,"lon":121.520331,"name":"秀山站","decorType":"bus_stop"},{"id":"node-3180257860","lat":24.994785,"lon":121.520147,"name":"秀山站","decorType":"bus_stop"},{"id":"node-3180269352","lat":25.002289,"lon":121.51095,"name":"捷運永安市場站1號出口","decorType":"station"},{"id":"node-3180269388","lat":25.00323,"lon":121.52141,"name":"鮮天下","decorType":"restaurant"},{"id":"node-3180269389","lat":25.003604,"lon":121.521276,"name":"7-Eleven","decorType":"convenience"},{"id":"node-3180287362","lat":25.004116,"lon":121.516393,"name":"永和國小","decorType":"bus_stop"},{"id":"node-3180287363","lat":25.004223,"lon":121.516046,"name":"永和國小","decorType":"bus_stop"},{"id":"node-3180287364","lat":25.00408,"lon":121.512961,"name":"永安市場(永貞)","decorType":"bus_stop"},{"id":"node-3208558488","lat":25.006744,"lon":121.516891,"name":"三媽臭臭鍋","decorType":"restaurant"},{"id":"node-3208669122","lat":25.007283,"lon":121.517128,"name":"全家便利商店","decorType":"convenience"},{"id":"node-3208671174","lat":25.007499,"lon":121.51707,"name":"萬香台式烤鴨 永和店","decorType":"restaurant"},{"id":"node-3212444658","lat":24.998592,"lon":121.509231,"name":"躍獅藥局","decorType":"pharmacy"},{"id":"node-3334402511","lat":24.999045,"lon":121.516922,"name":"中興新村","decorType":"bus_stop"},{"id":"node-3334402512","lat":24.996172,"lon":121.512434,"name":"宜安吉立","decorType":"bus_stop"},{"id":"node-3334402513","lat":24.99632,"lon":121.512533,"name":"宜安吉立","decorType":"bus_stop"},{"id":"node-3334402514","lat":24.999666,"lon":121.517369,"name":"寶雅","decorType":"pharmacy"},{"id":"node-3334402516","lat":24.99944,"lon":121.517247,"name":"燦坤3C","decorType":"electronics"},{"id":"node-3334402566","lat":24.997112,"lon":121.51152,"name":"7-Eleven","decorType":"convenience"},{"id":"node-3334402567","lat":24.998532,"lon":121.516457,"name":"7-Eleven","decorType":"convenience"},{"id":"node-3426316145","lat":25.00288,"lon":121.511435,"name":"吉野家","decorType":"burger"},{"id":"node-3426316598","lat":25.002153,"lon":121.510827,"name":"7-Eleven","decorType":"convenience"},{"id":"node-3459327611","lat":25.001453,"lon":121.519902,"name":"芭樂樹公園","decorType":"park"},{"id":"node-3480446642","lat":24.9976,"lon":121.510589,"name":"中和宜安郵局","decorType":"post_office"},{"id":"node-3480448309","lat":24.997717,"lon":121.510436,"name":"7-Eleven","decorType":"convenience"},{"id":"node-3480448975","lat":24.999115,"lon":121.511377,"name":"全家便利商店","decorType":"convenience"},{"id":"node-3480451182","lat":24.995282,"lon":121.509814,"name":"7-Eleven","decorType":"convenience"},{"id":"node-3480453640","lat":24.997212,"lon":121.515219,"name":"永和中正路郵局","decorType":"post_office"},{"id":"node-3497480270","lat":25.007308,"lon":121.51192,"name":"陳記燒臘","decorType":"restaurant"},{"id":"node-3497480271","lat":25.006202,"lon":121.510403,"name":"7-Eleven","decorType":"convenience"},{"id":"node-3497480272","lat":25.005868,"lon":121.510704,"name":"匯 日本料理","decorType":"restaurant"},{"id":"node-3497480273","lat":25.005964,"lon":121.510605,"name":"上界青熱炒店","decorType":"restaurant"},{"id":"node-3497480274","lat":25.006561,"lon":121.510209,"name":"一品屋涮涮鍋","decorType":"restaurant"},{"id":"node-3497480275","lat":25.006603,"lon":121.510918,"name":"金仙魯肉飯","decorType":"restaurant"},{"id":"node-3497497481","lat":25.007428,"lon":121.509439,"name":"清心福全","decorType":"cafe"},{"id":"node-3497497487","lat":25.006401,"lon":121.510116,"name":"北斗肉圓","decorType":"restaurant"},{"id":"node-3593631941","lat":25.001863,"lon":121.514433,"name":"未命名公園","decorType":"park"},{"id":"node-3593631942","lat":25.001933,"lon":121.514433,"name":"未命名公園","decorType":"park"},{"id":"node-3594111992","lat":24.99739,"lon":121.510884,"name":"宜安路","decorType":"bus_stop"},{"id":"node-3594139993","lat":24.997547,"lon":121.510904,"name":"宜安路","decorType":"bus_stop"},{"id":"node-3594139994","lat":24.998468,"lon":121.509387,"name":"華泰新城","decorType":"bus_stop"},{"id":"node-3594139995","lat":24.998507,"lon":121.509559,"name":"華泰新城","decorType":"bus_stop"},{"id":"node-3631514151","lat":25.002574,"lon":121.510919,"name":"屈臣氏","decorType":"pharmacy"},{"id":"node-3631514152","lat":25.001119,"lon":121.509761,"name":"燦坤3C","decorType":"electronics"},{"id":"node-3800717745","lat":25.002411,"lon":121.5109,"name":"永安市場","decorType":"station"},{"id":"node-3809419515","lat":25.000767,"lon":121.514654,"name":"紅牛碳烤牛排","decorType":"restaurant"},{"id":"node-3809419516","lat":25.000719,"lon":121.514747,"name":"碳之家 碳烤三明治","decorType":"restaurant"},{"id":"node-3903935839","lat":24.996286,"lon":121.510584,"name":"全聯福利中心","decorType":"supermarket"},{"id":"node-3904126501","lat":24.996427,"lon":121.510984,"name":"璟福藥局","decorType":"pharmacy"},{"id":"node-3904251379","lat":24.99669,"lon":121.51112,"name":"魔力早餐","decorType":"burger"},{"id":"node-3904251380","lat":24.996688,"lon":121.511815,"name":"OK超商","decorType":"convenience"},{"id":"node-3904251381","lat":24.997089,"lon":121.511243,"name":"大板城","decorType":"restaurant"},{"id":"node-3911418718","lat":24.992665,"lon":121.51007,"name":"7-Eleven","decorType":"convenience"},{"id":"node-4054804409","lat":24.999034,"lon":121.517152,"name":"肯德基","decorType":"burger"},{"id":"node-4169822213","lat":24.994529,"lon":121.513219,"name":"智光商職","decorType":"bus_stop"},{"id":"node-4322675989","lat":25.003274,"lon":121.518143,"name":"未命名麵包店","decorType":"bakery"},{"id":"node-4327959867","lat":24.998829,"lon":121.516971,"name":"全家便利商店","decorType":"convenience"},{"id":"node-4327978978","lat":25.000273,"lon":121.517815,"name":"全家便利商店","decorType":"convenience"},{"id":"node-4327978979","lat":24.998236,"lon":121.516462,"name":"麥當勞","decorType":"burger"},{"id":"node-4327985540","lat":25.000198,"lon":121.520302,"name":"7-Eleven","decorType":"convenience"},{"id":"node-4375017151","lat":24.994089,"lon":121.522026,"name":"7-Eleven","decorType":"convenience"},{"id":"node-4385304366","lat":24.992065,"lon":121.50954,"name":"青聖宮","decorType":"shrine"},{"id":"node-4406426884","lat":24.997224,"lon":121.511356,"name":"未命名漢堡店","decorType":"burger"},{"id":"node-4406426888","lat":24.995188,"lon":121.51004,"name":"安平小館","decorType":"restaurant"},{"id":"node-4406427589","lat":24.996119,"lon":121.510721,"name":"毛手毛腳","decorType":"hair_salon"},{"id":"node-4406427590","lat":24.995759,"lon":121.510184,"name":"台鹽生技","decorType":"convenience"},{"id":"node-4406427591","lat":24.997288,"lon":121.510949,"name":"奕采藥局","decorType":"pharmacy"},{"id":"node-4406983436","lat":24.996771,"lon":121.510973,"name":"震東水電材料行","decorType":"convenience"},{"id":"node-4406983437","lat":24.99635,"lon":121.510922,"name":"自助洗衣","decorType":"laundry"},{"id":"node-4406983438","lat":24.99688,"lon":121.511571,"name":"劉家牛肉麵","decorType":"restaurant"},{"id":"node-4406983439","lat":24.996802,"lon":121.511659,"name":"甜不辣","decorType":"restaurant"},{"id":"node-4406983440","lat":24.996749,"lon":121.511729,"name":"花媽壽司","decorType":"restaurant"},{"id":"node-4406983441","lat":24.996968,"lon":121.511447,"name":"IDEAS YD","decorType":"hair_salon"},{"id":"node-4611820690","lat":24.998446,"lon":121.510856,"name":"艾佳食品材料","decorType":"sweetshop"},{"id":"node-4664818089","lat":25.00739,"lon":121.516291,"name":"全家便利商店","decorType":"convenience"},{"id":"node-4752565125","lat":25.000053,"lon":121.516414,"name":"Hola加勒比海美食","decorType":"restaurant"},{"id":"node-4755688418","lat":24.997177,"lon":121.511574,"name":"亞米比薩","decorType":"restaurant"},{"id":"node-4755700310","lat":24.996709,"lon":121.511857,"name":"未命名郵局","decorType":"post_office"},{"id":"node-4755713030","lat":24.997006,"lon":121.511411,"name":"一桶天下","decorType":"restaurant"},{"id":"node-4995897895","lat":24.995781,"lon":121.510202,"name":"豆点，傳統豆花","decorType":"cafe"},{"id":"node-5266040818","lat":24.998026,"lon":121.519851,"name":"民權圖書館","decorType":"library"},{"id":"node-5372146607","lat":25.00747,"lon":121.50918,"name":"深坑臭豆腐","decorType":"restaurant"},{"id":"node-5372146608","lat":25.007397,"lon":121.509249,"name":"鴨肉冬粉","decorType":"restaurant"},{"id":"node-5661163199","lat":24.99429,"lon":121.512771,"name":"全家便利商店","decorType":"convenience"},{"id":"node-5661163201","lat":24.996624,"lon":121.515131,"name":"莊家班麻油雞","decorType":"restaurant"},{"id":"node-5661163202","lat":24.99657,"lon":121.515087,"name":"Giordano","decorType":"clothing"},{"id":"node-5661163203","lat":24.996444,"lon":121.515023,"name":"大勝軒自助餐","decorType":"restaurant"},{"id":"node-6024209080","lat":25.000209,"lon":121.519849,"name":"大和鐵板燒","decorType":"restaurant"},{"id":"node-6024209826","lat":24.998977,"lon":121.520108,"name":"7-Eleven","decorType":"convenience"},{"id":"node-6024211734","lat":24.996596,"lon":121.519734,"name":"肉多多","decorType":"restaurant"},{"id":"node-6024211735","lat":24.99671,"lon":121.519759,"name":"麥味登","decorType":"restaurant"},{"id":"node-6024229164","lat":24.999993,"lon":121.517733,"name":"Pizza ROCK","decorType":"restaurant"},{"id":"node-6024235321","lat":24.996576,"lon":121.520168,"name":"桔磨坊","decorType":"restaurant"},{"id":"node-6024237303","lat":24.996479,"lon":121.521373,"name":"三商巧福","decorType":"restaurant"},{"id":"node-6127437883","lat":25.004079,"lon":121.51457,"name":"路易莎咖啡","decorType":"cafe"},{"id":"node-6127903995","lat":24.998997,"lon":121.513139,"name":"Cliff's Pizza","decorType":"restaurant"},{"id":"node-6129995999","lat":24.998767,"lon":121.512957,"name":"素食","decorType":"restaurant"},{"id":"node-6130072767","lat":24.99885,"lon":121.51185,"name":"99 Café","decorType":"cafe"},{"id":"node-6130072774","lat":24.996255,"lon":121.517275,"name":"未命名公園","decorType":"park"},{"id":"node-6130072775","lat":24.997094,"lon":121.511302,"name":"85度C","decorType":"cafe"},{"id":"node-6130072782","lat":24.995424,"lon":121.513751,"name":"台灣大哥大","decorType":"electronics"},{"id":"node-6130097072","lat":24.998347,"lon":121.516526,"name":"我家牛排","decorType":"restaurant"},{"id":"node-6130097073","lat":24.999646,"lon":121.517631,"name":"台灣大哥大","decorType":"electronics"},{"id":"node-6130126781","lat":25.004084,"lon":121.517207,"name":"路易莎咖啡","decorType":"cafe"},{"id":"node-6140138638","lat":25.006049,"lon":121.512967,"name":"未命名郵局","decorType":"post_office"},{"id":"node-6180411977","lat":25.000764,"lon":121.514703,"name":"雪腐","decorType":"restaurant"},{"id":"node-6180492010","lat":24.998632,"lon":121.509443,"name":"屈臣氏","decorType":"pharmacy"},{"id":"node-6180492011","lat":24.998731,"lon":121.509346,"name":"日式威廉","decorType":"hair_salon"},{"id":"node-6180492012","lat":24.999094,"lon":121.511253,"name":"馬修嚴選","decorType":"restaurant"},{"id":"node-6180492014","lat":24.997289,"lon":121.511235,"name":"金正好吃大腸麵線/宜安店","decorType":"restaurant"},{"id":"node-6180492015","lat":24.99832,"lon":121.510403,"name":"華泰豆花粉圓","decorType":"restaurant"},{"id":"node-6180492016","lat":24.999121,"lon":121.511436,"name":"全聯福利中心","decorType":"supermarket"},{"id":"node-6180492020","lat":24.997259,"lon":121.51109,"name":"燒烤店","decorType":"restaurant"},{"id":"node-6180492021","lat":24.992416,"lon":121.512028,"name":"霸味薑母鴨","decorType":"restaurant"},{"id":"node-6422643936","lat":24.992203,"lon":121.513915,"name":"7-Eleven","decorType":"convenience"},{"id":"node-6457436835","lat":24.999536,"lon":121.517287,"name":"漢堡王","decorType":"burger"},{"id":"node-6761545065","lat":25.003955,"lon":121.514643,"name":"85度C","decorType":"cafe"},{"id":"node-6981277707","lat":24.994193,"lon":121.512967,"name":"U-girl中大齒碼","decorType":"clothing"},{"id":"node-6981277713","lat":24.994212,"lon":121.512681,"name":"Swifter","decorType":"clothing"},{"id":"node-7135853054","lat":25.001473,"lon":121.512775,"name":"水源會館","decorType":"restaurant"},{"id":"node-7140672547","lat":25.006168,"lon":121.521276,"name":"完全教育書局","decorType":"library"},{"id":"node-7183717877","lat":24.991966,"lon":121.516247,"name":"捷運景平站1號出口","decorType":"station"},{"id":"node-7254602085","lat":24.993263,"lon":121.517377,"name":"路易莎咖啡","decorType":"cafe"},{"id":"node-7728484631","lat":25.007429,"lon":121.513734,"name":"佳佳香鍋貼","decorType":"restaurant"},{"id":"node-7728572083","lat":25.004356,"lon":121.516994,"name":"永和國小 (永貞路)","decorType":"bus_stop"},{"id":"node-7728572084","lat":25.004288,"lon":121.517137,"name":"永和國小 (永貞路)","decorType":"bus_stop"},{"id":"node-7728619392","lat":25.00343,"lon":121.514718,"name":"永安市場一","decorType":"bus_stop"},{"id":"node-7728619393","lat":25.000299,"lon":121.514221,"name":"7-Eleven","decorType":"convenience"},{"id":"node-7728619394","lat":25.000009,"lon":121.510785,"name":"安平里巡守隊","decorType":"bus_stop"},{"id":"node-7728619395","lat":25.000027,"lon":121.510907,"name":"中安街","decorType":"bus_stop"},{"id":"node-7728619396","lat":25.00063,"lon":121.511064,"name":"安平派出所","decorType":"bus_stop"},{"id":"node-7728619398","lat":25.002069,"lon":121.512371,"name":"中安街","decorType":"bus_stop"},{"id":"node-7728619399","lat":25.001823,"lon":121.512018,"name":"7-Eleven","decorType":"convenience"},{"id":"node-7728619400","lat":25.001883,"lon":121.512067,"name":"全家便利商店","decorType":"convenience"},{"id":"node-7728619401","lat":25.001065,"lon":121.509728,"name":"7-Eleven","decorType":"convenience"},{"id":"node-7728628172","lat":24.994131,"lon":121.52006,"name":"全家便利商店","decorType":"convenience"},{"id":"node-7728630856","lat":25.0008,"lon":121.517775,"name":"鍋賣局","decorType":"restaurant"},{"id":"node-7728637285","lat":25.004305,"lon":121.516274,"name":"7-Eleven","decorType":"convenience"},{"id":"node-7728637288","lat":25.003988,"lon":121.515196,"name":"永安市場","decorType":"bus_stop"},{"id":"node-7728637289","lat":25.003824,"lon":121.51512,"name":"永安市場","decorType":"bus_stop"},{"id":"node-7728644167","lat":24.996515,"lon":121.520489,"name":"屈臣氏","decorType":"pharmacy"},{"id":"node-7728644168","lat":24.996547,"lon":121.520315,"name":"燦坤3C","decorType":"electronics"},{"id":"node-7728810456","lat":25.004466,"lon":121.517592,"name":"萊爾富","decorType":"convenience"},{"id":"node-7728810458","lat":25.003608,"lon":121.517493,"name":"大三品蔥燒包","decorType":"restaurant"},{"id":"node-7728810459","lat":25.003998,"lon":121.517426,"name":"神牛","decorType":"restaurant"},{"id":"node-7728810460","lat":25.004088,"lon":121.51742,"name":"詩威特","decorType":"clothing"},{"id":"node-8024462006","lat":24.997241,"lon":121.50958,"name":"8 lie down","decorType":"cafe"},{"id":"node-8118272753","lat":25.005759,"lon":121.515516,"name":"全家便利商店","decorType":"convenience"},{"id":"node-8118272754","lat":25.003822,"lon":121.514321,"name":"全家便利商店","decorType":"convenience"},{"id":"node-8118272755","lat":25.004186,"lon":121.512561,"name":"全家便利商店","decorType":"convenience"},{"id":"node-8123362536","lat":24.997553,"lon":121.510651,"name":"滿福早午餐","decorType":"restaurant"},{"id":"node-8385304890","lat":24.999991,"lon":121.516626,"name":"八方雲集","decorType":"burger"},{"id":"node-8385313288","lat":24.993162,"lon":121.517321,"name":"八方雲集","decorType":"burger"},{"id":"node-8385313300","lat":25.003799,"lon":121.514169,"name":"八方雲集","decorType":"burger"},{"id":"node-8432400481","lat":25.00278,"lon":121.517517,"name":"永和國小","decorType":"bus_stop"},{"id":"node-8432400487","lat":25.001693,"lon":121.51219,"name":"八二三紀念公園","decorType":"bus_stop"},{"id":"node-8435620681","lat":24.99364,"lon":121.511541,"name":"安樂路口","decorType":"bus_stop"},{"id":"node-8458558355","lat":24.994876,"lon":121.520048,"name":"自強站","decorType":"bus_stop"},{"id":"node-8600772299","lat":24.993311,"lon":121.511786,"name":"Just Kitchen - Zhonghe","decorType":"restaurant"},{"id":"node-8826280430","lat":24.993912,"lon":121.521869,"name":"阿仁烤鴨","decorType":"restaurant"},{"id":"node-9336816700","lat":25.001969,"lon":121.510245,"name":"聖保羅烘焙花園","decorType":"restaurant"},{"id":"node-9377991076","lat":25.003869,"lon":121.51542,"name":"蝦皮店到店","decorType":"convenience"},{"id":"node-9377991078","lat":25.00687,"lon":121.516959,"name":"蝦皮店到店","decorType":"convenience"},{"id":"node-9377991079","lat":25.006227,"lon":121.520251,"name":"蝦皮店到店","decorType":"convenience"},{"id":"node-9377991080","lat":25.005956,"lon":121.510088,"name":"蝦皮店到店","decorType":"convenience"},{"id":"node-9414479539","lat":24.999625,"lon":121.514187,"name":"蝦皮店到店","decorType":"convenience"},{"id":"node-9449166785","lat":24.994329,"lon":121.519899,"name":"請坐","decorType":"hair_salon"},{"id":"node-9599336342","lat":25.002606,"lon":121.512836,"name":"誠記河粉","decorType":"restaurant"},{"id":"node-9599432850","lat":25.002571,"lon":121.512809,"name":"高三孝","decorType":"restaurant"},{"id":"node-10001028018","lat":25.003128,"lon":121.513298,"name":"Cama Cafe 四號公園店","decorType":"cafe"},{"id":"node-10076693809","lat":24.993948,"lon":121.521676,"name":"千大藥局","decorType":"pharmacy"},{"id":"node-10076693811","lat":24.993983,"lon":121.521998,"name":"相思車輪餅","decorType":"restaurant"},{"id":"node-10076693812","lat":24.994409,"lon":121.522039,"name":"吉得堡漢堡","decorType":"restaurant"},{"id":"node-10094980739","lat":24.993893,"lon":121.52202,"name":"老王牛肉麵","decorType":"restaurant"},{"id":"node-10679742705","lat":25.000149,"lon":121.514018,"name":"圈外咖啡專門店 Kengai coffea","decorType":"cafe"},{"id":"node-10679786805","lat":24.999502,"lon":121.511051,"name":"掬園烘培店","decorType":"bakery"},{"id":"node-10814243249","lat":24.992868,"lon":121.515257,"name":"全家便利商店","decorType":"convenience"},{"id":"node-11333300700","lat":25.007406,"lon":121.516499,"name":"早午餐店","decorType":"restaurant"},{"id":"node-11364224660","lat":24.997785,"lon":121.519958,"name":"未命名郵局","decorType":"post_office"},{"id":"node-11364309493","lat":25.005619,"lon":121.519851,"name":"全聯福利中心","decorType":"supermarket"},{"id":"node-11364309495","lat":25.005263,"lon":121.519312,"name":"打爆豬韓式燒肉吃到飽新北永和店","decorType":"restaurant"},{"id":"node-11364309496","lat":25.005145,"lon":121.519479,"name":"麥當勞","decorType":"burger"},{"id":"node-11364309497","lat":25.00511,"lon":121.519543,"name":"石二鍋 永和永利店","decorType":"restaurant"},{"id":"node-11560242319","lat":25.006081,"lon":121.52076,"name":"全家便利商店","decorType":"convenience"},{"id":"node-11560242321","lat":25.005965,"lon":121.520266,"name":"Go Go Mall 購物中心(廢)","decorType":"cosmetics"},{"id":"node-11569340320","lat":25.001193,"lon":121.51203,"name":"BUNA CAF'E 新北中和公園館","decorType":"restaurant"},{"id":"node-11583766970","lat":25.006735,"lon":121.510069,"name":"保平路口","decorType":"bus_stop"},{"id":"node-11583766974","lat":25.003862,"lon":121.512013,"name":"中和路口","decorType":"bus_stop"},{"id":"node-11586136859","lat":25.005033,"lon":121.513962,"name":"永和湄聖宮","decorType":"shrine"},{"id":"node-12048705783","lat":25.00386,"lon":121.518131,"name":"萊爾富 永和興工店","decorType":"convenience"},{"id":"node-12222019274","lat":25.002644,"lon":121.518384,"name":"優卡輕食","decorType":"restaurant"},{"id":"node-12756105395","lat":25.007232,"lon":121.511715,"name":"老王原汁牛肉麵","decorType":"restaurant"},{"id":"node-12756222658","lat":25.004598,"lon":121.512307,"name":"達利早餐Daily Breakfast-永和永安店","decorType":"restaurant"},{"id":"node-12756375353","lat":25.00717,"lon":121.513782,"name":"翻轉屋 鍋燒意麵","decorType":"restaurant"},{"id":"node-12850544117","lat":25.004503,"lon":121.50995,"name":"未命名公園","decorType":"park"},{"id":"node-13000334028","lat":24.993936,"lon":121.521766,"name":"寓見早午餐","decorType":"restaurant"},{"id":"node-13008936032","lat":25.002421,"lon":121.510787,"name":"21世紀烤雞炸雞","decorType":"restaurant"},{"id":"node-13374389980","lat":25.002484,"lon":121.512413,"name":"秧米健康廚房","decorType":"restaurant"},{"id":"node-13413775722","lat":24.996248,"lon":121.512662,"name":"萊爾富","decorType":"convenience"},{"id":"node-13413775723","lat":24.996544,"lon":121.510797,"name":"萊爾富","decorType":"convenience"},{"id":"way-124350710","lat":25.001128,"lon":121.512972,"name":"八二三紀念公園(4號公園)","decorType":"park"},{"id":"way-124352121","lat":25.001443,"lon":121.51285,"name":"國立臺灣圖書館","decorType":"library"},{"id":"way-211684059","lat":24.994857,"lon":121.509641,"name":"安平路","decorType":"bridge"},{"id":"way-211684067","lat":24.993445,"lon":121.512207,"name":"潭墘橋","decorType":"bridge"},{"id":"way-233929065","lat":24.996293,"lon":121.516973,"name":"民有街","decorType":"bridge"},{"id":"way-245018521","lat":24.994855,"lon":121.515655,"name":"大勇街29巷","decorType":"bridge"},{"id":"way-314809915","lat":25.001425,"lon":121.517305,"name":"未命名公園","decorType":"park"},{"id":"way-338795085","lat":24.999167,"lon":121.518363,"name":"民治里公園","decorType":"park"},{"id":"way-387470344","lat":24.996993,"lon":121.511153,"name":"樂墘宮","decorType":"shrine"},{"id":"way-545595637","lat":24.993807,"lon":121.51981,"name":"未命名橋樑","decorType":"bridge"},{"id":"way-545595639","lat":24.995566,"lon":121.517044,"name":"民光街","decorType":"bridge"},{"id":"way-545595640","lat":24.993945,"lon":121.517401,"name":"大勇街","decorType":"bridge"},{"id":"way-545595683","lat":24.993382,"lon":121.513914,"name":"景平路278巷","decorType":"bridge"},{"id":"way-545595686","lat":24.99476,"lon":121.515915,"name":"大勇街29巷2弄","decorType":"bridge"},{"id":"way-556972669","lat":25.001915,"lon":121.514431,"name":"共融式遊樂區","decorType":"park"},{"id":"way-582776485","lat":25.004524,"lon":121.509927,"name":"未命名公園","decorType":"park"},{"id":"way-593418464","lat":25.001756,"lon":121.517723,"name":"未命名公園","decorType":"park"},{"id":"way-777516400","lat":24.994109,"lon":121.516771,"name":"中興三村公園","decorType":"park"},{"id":"way-831069784","lat":25.002165,"lon":121.510267,"name":"全聯福利中心","decorType":"supermarket"},{"id":"way-957391852","lat":24.994673,"lon":121.521562,"name":"未命名體育館","decorType":"stadium"},{"id":"way-957391856","lat":24.99494,"lon":121.52064,"name":"未命名體育館","decorType":"stadium"},{"id":"way-968214171","lat":24.998783,"lon":121.518336,"name":"民治街72巷","decorType":"bridge"},{"id":"way-1042891794","lat":25.001182,"lon":121.513861,"name":"未命名水邊","decorType":"waterside"},{"id":"way-1076454388","lat":24.994081,"lon":121.518756,"name":"未命名公園","decorType":"park"},{"id":"way-1076454390","lat":24.992928,"lon":121.520562,"name":"未命名公園","decorType":"park"},{"id":"way-1198215313","lat":24.994007,"lon":121.518078,"name":"未命名水邊","decorType":"waterside"},{"id":"way-1198215314","lat":24.997187,"lon":121.517145,"name":"未命名水邊","decorType":"waterside"},{"id":"way-1198300586","lat":25.002922,"lon":121.522137,"name":"未命名公園","decorType":"park"},{"id":"way-1198598898","lat":24.993369,"lon":121.512928,"name":"未命名水邊","decorType":"waterside"},{"id":"way-1198598901","lat":24.994858,"lon":121.515498,"name":"未命名水邊","decorType":"waterside"},{"id":"way-1198636928","lat":24.999325,"lon":121.521887,"name":"精神堡壘","decorType":"park"},{"id":"way-1228832750","lat":24.99222,"lon":121.516197,"name":"未命名公車站","decorType":"bus_stop"},{"id":"way-1228832767","lat":24.992056,"lon":121.516178,"name":"未命名公車站","decorType":"bus_stop"},{"id":"way-1228832773","lat":25.002328,"lon":121.510845,"name":"未命名公車站","decorType":"bus_stop"},{"id":"way-1238508196","lat":24.995055,"lon":121.515943,"name":"未命名公園","decorType":"park"},{"id":"way-1238511847","lat":24.995305,"lon":121.51428,"name":"未命名公園","decorType":"park"},{"id":"way-1244589272","lat":25.001791,"lon":121.512812,"name":"未命名公園","decorType":"park"},{"id":"way-1244589273","lat":25.001595,"lon":121.512332,"name":"未命名水邊","decorType":"waterside"},{"id":"way-1244589276","lat":25.001193,"lon":121.51198,"name":"未命名公園","decorType":"park"},{"id":"way-1244589279","lat":25.000671,"lon":121.512914,"name":"未命名橋樑","decorType":"bridge"},{"id":"way-1244589283","lat":25.000604,"lon":121.512945,"name":"未命名水邊","decorType":"waterside"},{"id":"way-1244589284","lat":25.000863,"lon":121.513023,"name":"未命名水邊","decorType":"waterside"},{"id":"way-1244589285","lat":25.000639,"lon":121.512906,"name":"未命名水邊","decorType":"waterside"},{"id":"way-1244635897","lat":25.000343,"lon":121.511468,"name":"未命名森林","decorType":"forest"},{"id":"way-1244635898","lat":25.000106,"lon":121.511922,"name":"未命名森林","decorType":"forest"},{"id":"way-1244635902","lat":25.001646,"lon":121.513923,"name":"未命名森林","decorType":"forest"},{"id":"way-1244635905","lat":25.000342,"lon":121.513388,"name":"未命名公園","decorType":"park"},{"id":"way-1244643150","lat":25.002136,"lon":121.51294,"name":"未命名公園","decorType":"park"},{"id":"way-1244643155","lat":25.00216,"lon":121.513428,"name":"未命名公園","decorType":"park"},{"id":"way-1244643156","lat":25.002233,"lon":121.513851,"name":"未命名森林","decorType":"forest"},{"id":"way-1244643159","lat":25.001626,"lon":121.513541,"name":"未命名公園","decorType":"park"},{"id":"way-1244643161","lat":25.002943,"lon":121.514175,"name":"未命名森林","decorType":"forest"},{"id":"way-1244643162","lat":25.002798,"lon":121.513534,"name":"未命名森林","decorType":"forest"},{"id":"way-1244643163","lat":25.00076,"lon":121.51251,"name":"未命名公園","decorType":"park"},{"id":"way-1244643164","lat":25.000997,"lon":121.512224,"name":"未命名公園","decorType":"park"},{"id":"way-1244643165","lat":25.001914,"lon":121.512621,"name":"未命名公園","decorType":"park"},{"id":"way-1244646388","lat":24.999801,"lon":121.512797,"name":"未命名公園","decorType":"park"},{"id":"way-1244646390","lat":24.999734,"lon":121.511349,"name":"未命名森林","decorType":"forest"},{"id":"way-1244646391","lat":25.000547,"lon":121.511537,"name":"未命名森林","decorType":"forest"},{"id":"way-1244646392","lat":24.999567,"lon":121.51161,"name":"未命名公園","decorType":"park"},{"id":"way-1244653352","lat":24.999241,"lon":121.51167,"name":"未命名森林","decorType":"forest"},{"id":"way-1244653357","lat":24.99903,"lon":121.512477,"name":"未命名公園","decorType":"park"},{"id":"way-1244653358","lat":24.999628,"lon":121.513328,"name":"未命名森林","decorType":"forest"},{"id":"way-1244653360","lat":25.00137,"lon":121.514208,"name":"未命名森林","decorType":"forest"},{"id":"way-1244653361","lat":25.001404,"lon":121.51436,"name":"未命名公園","decorType":"park"},{"id":"way-1244653362","lat":25.000947,"lon":121.514355,"name":"未命名森林","decorType":"forest"},{"id":"way-1244659421","lat":25.00338,"lon":121.51404,"name":"未命名公園","decorType":"park"},{"id":"way-1244659423","lat":25.003411,"lon":121.514363,"name":"未命名森林","decorType":"forest"},{"id":"way-1244659424","lat":25.000855,"lon":121.513264,"name":"未命名公園","decorType":"park"},{"id":"way-1244659425","lat":25.000423,"lon":121.513218,"name":"未命名公園","decorType":"park"},{"id":"way-1244659426","lat":25.00049,"lon":121.513133,"name":"未命名公園","decorType":"park"},{"id":"way-1244659427","lat":25.000121,"lon":121.512873,"name":"未命名公園","decorType":"park"},{"id":"way-1244659428","lat":24.99986,"lon":121.513036,"name":"未命名公園","decorType":"park"},{"id":"way-1244659429","lat":24.999868,"lon":121.513164,"name":"未命名公園","decorType":"park"},{"id":"way-1244659430","lat":25.001159,"lon":121.513363,"name":"未命名公園","decorType":"park"},{"id":"way-1244659431","lat":25.001321,"lon":121.513299,"name":"未命名公園","decorType":"park"},{"id":"way-1244659432","lat":25.000885,"lon":121.513446,"name":"未命名公園","decorType":"park"},{"id":"way-1244659433","lat":25.00075,"lon":121.513816,"name":"未命名森林","decorType":"forest"},{"id":"way-1244659434","lat":25.000561,"lon":121.51328,"name":"未命名公園","decorType":"park"},{"id":"way-1244659435","lat":25.000307,"lon":121.513116,"name":"未命名公園","decorType":"park"},{"id":"way-1244659436","lat":25.000207,"lon":121.513358,"name":"未命名公園","decorType":"park"},{"id":"way-1244659437","lat":25.000092,"lon":121.513059,"name":"未命名公園","decorType":"park"},{"id":"way-1244661687","lat":24.999989,"lon":121.513586,"name":"未命名水邊","decorType":"waterside"},{"id":"way-1244662939","lat":25.001166,"lon":121.513837,"name":"未命名公園","decorType":"park"},{"id":"way-1244977874","lat":24.999157,"lon":121.512486,"name":"未命名公園","decorType":"park"},{"id":"way-1244977875","lat":24.998979,"lon":121.512584,"name":"未命名公園","decorType":"park"},{"id":"way-1244977876","lat":24.998992,"lon":121.512361,"name":"未命名公園","decorType":"park"},{"id":"way-1244977878","lat":25.001122,"lon":121.513101,"name":"未命名公園","decorType":"park"},{"id":"way-1244977879","lat":25.000953,"lon":121.5127,"name":"未命名公園","decorType":"park"},{"id":"way-1244977880","lat":25.001214,"lon":121.512403,"name":"未命名公園","decorType":"park"},{"id":"way-1246137703","lat":25.004511,"lon":121.513858,"name":"未命名公園","decorType":"park"},{"id":"way-1246137704","lat":25.004427,"lon":121.513961,"name":"未命名公園","decorType":"park"},{"id":"way-1246137709","lat":25.005268,"lon":121.51362,"name":"天主教永和聖母升天堂","decorType":"shrine"},{"id":"way-1306407488","lat":25.00551,"lon":121.521952,"name":"天橋","decorType":"bridge"},{"id":"way-1306407489","lat":25.005548,"lon":121.522128,"name":"天橋","decorType":"bridge"},{"id":"way-1306407490","lat":25.005493,"lon":121.52201,"name":"天橋","decorType":"bridge"},{"id":"way-1306412446","lat":25.006737,"lon":121.521749,"name":"未命名森林","decorType":"forest"},{"id":"way-1306730299","lat":24.992569,"lon":121.514745,"name":"未命名公園","decorType":"park"},{"id":"way-1306737904","lat":24.992758,"lon":121.513478,"name":"未命名公園","decorType":"park"},{"id":"way-1306737905","lat":24.992789,"lon":121.513003,"name":"未命名公園","decorType":"park"},{"id":"way-1306737906","lat":24.992715,"lon":121.513222,"name":"未命名公園","decorType":"park"},{"id":"way-1306739368","lat":24.992105,"lon":121.513557,"name":"未命名公園","decorType":"park"},{"id":"way-1306739369","lat":24.992087,"lon":121.513708,"name":"未命名公園","decorType":"park"},{"id":"way-1306743216","lat":24.993338,"lon":121.512118,"name":"潭墘橋","decorType":"bridge"},{"id":"way-1365136417","lat":24.999179,"lon":121.5185,"name":"民族公園","decorType":"park"}]}