{"bbox":{"south":24.991912499999998,"north":25.00751875,"west":121.6394375,"east":121.65246875},"pois":[{"id":"node-2482609159","lat":24.9949691,"lon":121.639649,"name":"三貢嶺山","decorType":"mountain"},{"id":"node-2895253175","lat":25.0060668,"lon":121.6513999,"name":"客家熱炒","decorType":"restaurant"},{"id":"node-2895253176","lat":25.005986,"lon":121.6514162,"name":"石碇雙溪口浸信會","decorType":"shrine"},{"id":"node-2895253177","lat":25.0058978,"lon":121.6514313,"name":"翡翠谷飲食店","decorType":"restaurant"},{"id":"node-2895253178","lat":25.0057779,"lon":121.6514879,"name":"鮮堡漢堡台北石碇店","decorType":"restaurant"},{"id":"node-2895255106","lat":25.0058362,"lon":121.651458,"name":"雙益商店","decorType":"convenience"},{"id":"node-2895255107","lat":25.0062407,"lon":121.6514845,"name":"7-Eleven","decorType":"convenience"},{"id":"node-2895255108","lat":25.006177,"lon":121.651436,"name":"全家便利商店","decorType":"convenience"},{"id":"node-2895255109","lat":25.0058905,"lon":121.6517096,"name":"雙溪口","decorType":"bus_stop"},{"id":"node-2895255111","lat":25.005719,"lon":121.651566,"name":"雙溪口","decorType":"bus_stop"},{"id":"node-2907476182","lat":25.0000728,"lon":121.6522063,"name":"外按橋","decorType":"bus_stop"},{"id":"node-2907476183","lat":25.0000518,"lon":121.6520368,"name":"外按橋","decorType":"bus_stop"},{"id":"node-4237518592","lat":25.0019511,"lon":121.6425209,"name":"楓子林山","decorType":"mountain"},{"id":"node-4834782745","lat":24.9986199,"lon":121.6490979,"name":"未命名神社","decorType":"shrine"},{"id":"node-5340229115","lat":25.0066444,"lon":121.6518739,"name":"雙溪口","decorType":"bus_stop"},{"id":"node-5340229116","lat":25.0064362,"lon":121.6519305,"name":"雙溪口","decorType":"bus_stop"},{"id":"node-8432380497","lat":25.0071331,"lon":121.6520517,"name":"臨時站","decorType":"bus_stop"},{"id":"node-8432380498","lat":25.0071081,"lon":121.6521057,"name":"臨時站","decorType":"bus_stop"},{"id":"way-198170014","lat":25.0001814,"lon":121.6513375,"name":"蔣渭水高速公路","decorType":"bridge"},{"id":"way-228558783","lat":25.0074629,"lon":121.6516562,"name":"未命名橋樑","decorType":"bridge"},{"id":"way-228558785","lat":25.0069601,"lon":121.6513214,"name":"雙溪橋","decorType":"bridge"},{"id":"way-254103905","lat":25.000205,"lon":121.6514322,"name":"蔣渭水高速公路","decorType":"bridge"},{"id":"way-285900232","lat":25.004639,"lon":121.6514694,"name":"淡蘭吊橋","decorType":"bridge"},{"id":"way-330764106","lat":25.0046783,"lon":121.6510839,"name":"未命名橋樑","decorType":"bridge"},{"id":"way-468378593","lat":24.9939835,"lon":121.651382,"name":"石碇虎爺公廟","decorType":"shrine"},{"id":"way-481312972","lat":24.9984523,"lon":121.6396726,"name":"烏月溪","decorType":"waterside"},{"id":"way-545347448","lat":25.0002701,"lon":121.6517191,"name":"外按橋","decorType":"bridge"},{"id":"way-786459614","lat":24.9921503,"lon":121.6396807,"name":"未命名橋樑","decorType":"bridge"},{"id":"way-1104494738","lat":25.0069515,"lon":121.651335,"name":"雙溪橋","decorType":"bridge"},{"id":"way-1104494741","lat":25.0002794,"lon":121.6517221,"name":"外按橋","decorType":"bridge"},{"id":"way-1429735384","lat":24.999194,"lon":121.6406104,"name":"未命名水邊","decorType":"waterside"},{"id":"way-1430138512","lat":24.9984698,"lon":121.6494768,"name":"石碇行德慈惠堂","decorType":"shrine"}]}