{"bbox":{"south":24.991912499999998,"north":25.00751875,"west":121.48306249999999,"east":121.49609375},"pois":[{"id":"node-2285210353","lat":24.9973766,"lon":121.4940894,"name":"全家便利商店","decorType":"convenience"},{"id":"node-2614374654","lat":24.9975767,"lon":121.4849622,"name":"7-Eleven","decorType":"convenience"},{"id":"node-2614374655","lat":24.9968258,"lon":121.4857162,"name":"7-Eleven","decorType":"convenience"},{"id":"node-2614374656","lat":24.996979,"lon":121.4855791,"name":"全家便利商店","decorType":"convenience"},{"id":"node-2614374657","lat":24.9981301,"lon":121.4855557,"name":"7-Eleven","decorType":"convenience"},{"id":"node-2614374658","lat":25.001124,"lon":121.4834918,"name":"全家便利商店","decorType":"convenience"},{"id":"node-2614385423","lat":24.9960636,"lon":121.4879826,"name":"すき家","decorType":"burger"},{"id":"node-2614385426","lat":24.9960932,"lon":121.4863485,"name":"50嵐","decorType":"cafe"},{"id":"node-2614385428","lat":24.9960908,"lon":121.4860364,"name":"好餓早午餐","decorType":"restaurant"},{"id":"node-2614385431","lat":24.9969311,"lon":121.4864226,"name":"星巴克","decorType":"cafe"},{"id":"node-2614385434","lat":24.9984473,"lon":121.487483,"name":"星巴克","decorType":"cafe"},{"id":"node-2614385445","lat":24.9971441,"lon":121.4879525,"name":"7-Eleven","decorType":"convenience"},{"id":"node-2614385450","lat":24.9960768,"lon":121.4885844,"name":"必勝客","decorType":"restaurant"},{"id":"node-2614421418","lat":25.0013584,"lon":121.4846846,"name":"真鍋","decorType":"restaurant"},{"id":"node-2614421432","lat":24.9986723,"lon":121.4882342,"name":"瓦城","decorType":"restaurant"},{"id":"node-2618477948","lat":24.9958972,"lon":121.488055,"name":"7-Eleven","decorType":"convenience"},{"id":"node-2618477949","lat":24.9961132,"lon":121.4864933,"name":"全家便利商店","decorType":"convenience"},{"id":"node-2624310281","lat":24.9965525,"lon":121.4864433,"name":"全家便利商店","decorType":"convenience"},{"id":"node-2679822087","lat":24.9982499,"lon":121.4948168,"name":"中和國稅局","decorType":"bus_stop"},{"id":"node-2679822089","lat":24.9981704,"lon":121.495113,"name":"中和國稅局","decorType":"bus_stop"},{"id":"node-2679822091","lat":24.9973924,"lon":121.4935699,"name":"台貿一村","decorType":"bus_stop"},{"id":"node-2679822093","lat":24.9971826,"lon":121.4936985,"name":"台貿一村","decorType":"bus_stop"},{"id":"node-2679822100","lat":24.9963077,"lon":121.4862412,"name":"連城中正路口","decorType":"bus_stop"},{"id":"node-2679822102","lat":24.9961397,"lon":121.4860275,"name":"連城中正路口","decorType":"bus_stop"},{"id":"node-2679822104","lat":24.9960222,"lon":121.4832221,"name":"連城路","decorType":"bus_stop"},{"id":"node-2679822106","lat":24.9957844,"lon":121.4833813,"name":"連城路","decorType":"bus_stop"},{"id":"node-2727090654","lat":25.0023724,"lon":121.4948983,"name":"水上鮮生猛海鮮","decorType":"restaurant"},{"id":"node-2727090703","lat":25.0024027,"lon":121.4953591,"name":"津榮飯包","decorType":"restaurant"},{"id":"node-2929232545","lat":25.0026143,"lon":121.4923124,"name":"中和保養廠","decorType":"bus_stop"},{"id":"node-2929232546","lat":25.0030763,"lon":121.4917979,"name":"中和保養廠","decorType":"bus_stop"},{"id":"node-2929232547","lat":25.0049839,"lon":121.4863131,"name":"中山錦和路口","decorType":"bus_stop"},{"id":"node-2929232548","lat":25.00478,"lon":121.4862903,"name":"中山錦和路口","decorType":"bus_stop"},{"id":"node-2929232549","lat":25.0037192,"lon":121.4897313,"name":"中山路","decorType":"bus_stop"},{"id":"node-2929232550","lat":25.0038182,"lon":121.4900689,"name":"中山路","decorType":"bus_stop"},{"id":"node-3139881662","lat":24.9943959,"lon":121.4887413,"name":"中和國民運動中心","decorType":"bus_stop"},{"id":"node-3139881663","lat":24.9942071,"lon":121.4871383,"name":"中正里一","decorType":"bus_stop"},{"id":"node-3311203216","lat":24.9967681,"lon":121.4921188,"name":"中和連城路郵局","decorType":"post_office"},{"id":"node-3328449212","lat":24.9960868,"lon":121.4867851,"name":"日月亭素食","decorType":"restaurant"},{"id":"node-3328449213","lat":24.9962239,"lon":121.4906225,"name":"何德昌藥局","decorType":"pharmacy"},{"id":"node-3328449215","lat":24.9960902,"lon":121.489535,"name":"傳奇","decorType":"cafe"},{"id":"node-3328449216","lat":24.9956219,"lon":121.4899251,"name":"全家便利商店","decorType":"convenience"},{"id":"node-3328449217","lat":24.9962788,"lon":121.4915253,"name":"全家便利商店","decorType":"convenience"},{"id":"node-3328449220","lat":24.9960747,"lon":121.4873466,"name":"藏咖哩","decorType":"burger"},{"id":"node-3328449223","lat":24.9962525,"lon":121.4909786,"name":"台灣大哥大","decorType":"electronics"},{"id":"node-3328449228","lat":24.9960644,"lon":121.487627,"name":"天廚素食坊","decorType":"restaurant"},{"id":"node-3328449230","lat":24.9960601,"lon":121.4879217,"name":"屈臣氏","decorType":"pharmacy"},{"id":"node-3328449235","lat":24.9960779,"lon":121.4887902,"name":"悟饕池上飯包","decorType":"restaurant"},{"id":"node-3328449240","lat":24.996056,"lon":121.4893695,"name":"清心福全","decorType":"cafe"},{"id":"node-3328449244","lat":24.996093,"lon":121.4868462,"name":"筷子手","decorType":"restaurant"},{"id":"node-3328450047","lat":24.9963321,"lon":121.4919067,"name":"連城小館","decorType":"restaurant"},{"id":"node-3328450050","lat":24.9976452,"lon":121.4944279,"name":"金津焢肉排骨便當","decorType":"restaurant"},{"id":"node-3417501609","lat":24.9940573,"lon":121.4959226,"name":"全家便利商店","decorType":"convenience"},{"id":"node-3417501615","lat":24.9936653,"lon":121.4954435,"name":"中和中正路郵局","decorType":"post_office"},{"id":"node-3419812582","lat":24.9940568,"lon":121.4957259,"name":"北城脆皮烤鴨中和旗艦總店","decorType":"sushi"},{"id":"node-3419812583","lat":24.9940657,"lon":121.4958232,"name":"食蔬房","decorType":"restaurant"},{"id":"node-3424475240","lat":24.9977311,"lon":121.4944548,"name":"麵線王","decorType":"restaurant"},{"id":"node-3424475241","lat":24.9990671,"lon":121.4958279,"name":"中和牛家莊","decorType":"restaurant"},{"id":"node-3424475243","lat":24.9988291,"lon":121.4959088,"name":"哥基多桑","decorType":"restaurant"},{"id":"node-3424475247","lat":24.9974613,"lon":121.4942297,"name":"早安美芝城","decorType":"burger"},{"id":"node-3424475250","lat":24.9988959,"lon":121.4959579,"name":"烤堂","decorType":"restaurant"},{"id":"node-3424475254","lat":24.9975555,"lon":121.494287,"name":"雅香自助快餐","decorType":"restaurant"},{"id":"node-3424566626","lat":24.996184,"lon":121.4913101,"name":"William","decorType":"hair_salon"},{"id":"node-3424566628","lat":24.9972499,"lon":121.4938736,"name":"伊蕾名店","decorType":"clothing"},{"id":"node-3424566633","lat":24.9961678,"lon":121.4899702,"name":"協利五金行","decorType":"hardware"},{"id":"node-3424566639","lat":24.9962224,"lon":121.4902748,"name":"太陽神水電料","decorType":"hardware"},{"id":"node-3424566640","lat":24.9961473,"lon":121.4897607,"name":"巨林美而美","decorType":"burger"},{"id":"node-3424566641","lat":24.9984349,"lon":121.4955851,"name":"彰和蔘藥行","decorType":"pharmacy"},{"id":"node-3424566644","lat":24.9960133,"lon":121.4892722,"name":"立健健保特約藥局","decorType":"pharmacy"},{"id":"node-3424566648","lat":24.99615,"lon":121.490219,"name":"福滿堂","decorType":"restaurant"},{"id":"node-3424566649","lat":24.9960178,"lon":121.4913399,"name":"紡莎服飾","decorType":"clothing"},{"id":"node-3424566650","lat":24.9984882,"lon":121.4956666,"name":"美而美","decorType":"restaurant"},{"id":"node-3424566651","lat":24.9962836,"lon":121.491293,"name":"金蕎蛋糕","decorType":"bakery"},{"id":"node-3424888991","lat":25.0009955,"lon":121.4950543,"name":"全球複合式休閒館","decorType":"stadium"},{"id":"node-3439427183","lat":25.0024647,"lon":121.4960422,"name":"卡瓦咖啡","decorType":"cafe"},{"id":"node-3439427184","lat":25.0024088,"lon":121.4955809,"name":"呷尚寶","decorType":"burger"},{"id":"node-3439427185","lat":25.0032801,"lon":121.4954221,"name":"福美慈惠堂","decorType":"shrine"},{"id":"node-3439427201","lat":25.0024414,"lon":121.4958647,"name":"麥香早餐店","decorType":"restaurant"},{"id":"node-3440499381","lat":25.0047246,"lon":121.4960905,"name":"媚之坊髮型","decorType":"hair_salon"},{"id":"node-3450799206","lat":24.9963128,"lon":121.4950532,"name":"大貿百貨生活館","decorType":"supermarket"},{"id":"node-3450799207","lat":24.9974123,"lon":121.4945969,"name":"普濟宮","decorType":"shrine"},{"id":"node-3450799244","lat":24.9974553,"lon":121.4943852,"name":"高仕涼麵壽司","decorType":"restaurant"},{"id":"node-3450799245","lat":24.9972266,"lon":121.4944764,"name":"7-Eleven","decorType":"convenience"},{"id":"node-3465414840","lat":24.9990539,"lon":121.4960559,"name":"越南商店","decorType":"convenience"},{"id":"node-3512628798","lat":24.9940814,"lon":121.4956018,"name":"弘晉建材行","decorType":"hardware"},{"id":"node-3512628799","lat":24.99408,"lon":121.495529,"name":"日盛工具五金","decorType":"hardware"},{"id":"node-3540982892","lat":25.0029146,"lon":121.4924236,"name":"中和中山路郵局","decorType":"post_office"},{"id":"node-3540983501","lat":25.0024764,"lon":121.4933331,"name":"巴黎草莓","decorType":"cosmetics"},{"id":"node-3540983507","lat":25.0044264,"lon":121.488263,"name":"祥興樓水漾會館","decorType":"hotel"},{"id":"node-3540983564","lat":25.0027342,"lon":121.4924775,"name":"未命名郵局","decorType":"post_office"},{"id":"node-3540983599","lat":25.0026444,"lon":121.4928145,"name":"萊爾富","decorType":"convenience"},{"id":"node-3540983601","lat":25.0045104,"lon":121.4886652,"name":"賣亨堡","decorType":"burger"},{"id":"node-3540983603","lat":25.002391,"lon":121.4952619,"name":"電線桿fun鬆料理","decorType":"restaurant"},{"id":"node-3540983605","lat":25.0036947,"lon":121.4904223,"name":"黃金海岸活蝦之家","decorType":"restaurant"},{"id":"node-3540983606","lat":25.0035551,"lon":121.4909855,"name":"腿庫飯","decorType":"restaurant"},{"id":"node-3540983607","lat":25.0020397,"lon":121.4938959,"name":"7-Eleven","decorType":"convenience"},{"id":"node-3557795440","lat":25.0020295,"lon":121.4937243,"name":"大都會男女時尚會館","decorType":"cosmetics"},{"id":"node-3592565162","lat":24.9954221,"lon":121.4836089,"name":"全家便利商店","decorType":"convenience"},{"id":"node-3592565163","lat":24.99557,"lon":121.483607,"name":"7-Eleven","decorType":"convenience"},{"id":"node-3594110785","lat":24.9965205,"lon":121.4835489,"name":"成都豆漿大王","decorType":"restaurant"},{"id":"node-3594110787","lat":24.9956386,"lon":121.4830817,"name":"早餐","decorType":"restaurant"},{"id":"node-3594594879","lat":25.0036479,"lon":121.4908609,"name":"oh.my.軋","decorType":"sweetshop"},{"id":"node-3594594882","lat":25.0024252,"lon":121.495802,"name":"嘉泰電動工具","decorType":"hardware"},{"id":"node-3594595043","lat":25.0024179,"lon":121.4957429,"name":"精香自助餐","decorType":"restaurant"},{"id":"node-3594595047","lat":25.001806,"lon":121.4932802,"name":"貴族世家","decorType":"restaurant"},{"id":"node-3594595048","lat":25.006488,"lon":121.4880161,"name":"7-Eleven","decorType":"convenience"},{"id":"node-3683800290","lat":25.0035483,"lon":121.4881176,"name":"中山路口","decorType":"bus_stop"},{"id":"node-3683800292","lat":25.0014259,"lon":121.4881347,"name":"光寶電子","decorType":"bus_stop"},{"id":"node-3683800293","lat":25.0018028,"lon":121.4878924,"name":"光寶電子","decorType":"bus_stop"},{"id":"node-3683800297","lat":24.9969245,"lon":121.488185,"name":"建一路","decorType":"bus_stop"},{"id":"node-3683800298","lat":24.9988522,"lon":121.488032,"name":"建一路","decorType":"bus_stop"},{"id":"node-3683800299","lat":25.0050898,"lon":121.4893429,"name":"板南路口","decorType":"bus_stop"},{"id":"node-3683800300","lat":25.0052722,"lon":121.4891571,"name":"板南路口","decorType":"bus_stop"},{"id":"node-3683800302","lat":25.0057242,"lon":121.4908833,"name":"清心福全","decorType":"cafe"},{"id":"node-3683800304","lat":25.0070243,"lon":121.4893293,"name":"立德街","decorType":"bus_stop"},{"id":"node-3683800322","lat":25.0056745,"lon":121.490678,"name":"7-Eleven","decorType":"convenience"},{"id":"node-3683800323","lat":24.9949784,"lon":121.4903204,"name":"錦和路","decorType":"bus_stop"},{"id":"node-3683800324","lat":24.9955491,"lon":121.4899451,"name":"錦和路","decorType":"bus_stop"},{"id":"node-3683807226","lat":25.0004028,"lon":121.4883001,"name":"7-Eleven","decorType":"convenience"},{"id":"node-3689633940","lat":24.99846,"lon":121.487225,"name":"全家便利商店","decorType":"convenience"},{"id":"node-3689633944","lat":24.9974093,"lon":121.4879191,"name":"全家便利商店","decorType":"convenience"},{"id":"node-3689633945","lat":24.994484,"lon":121.4887116,"name":"7-Eleven","decorType":"convenience"},{"id":"node-3708200038","lat":24.9979229,"lon":121.4837032,"name":"未命名超市","decorType":"supermarket"},{"id":"node-3708200047","lat":25.0004691,"lon":121.4837693,"name":"美廉社","decorType":"supermarket"},{"id":"node-3708200048","lat":24.9995909,"lon":121.4838756,"name":"茶湯會","decorType":"cafe"},{"id":"node-3708200049","lat":24.9992519,"lon":121.4838934,"name":"萊爾富","decorType":"convenience"},{"id":"node-3708200050","lat":25.0010271,"lon":121.4836756,"name":"顧巴肚紅油炒手","decorType":"restaurant"},{"id":"node-3708200052","lat":25.0007641,"lon":121.4835644,"name":"7-Eleven","decorType":"convenience"},{"id":"node-3710078777","lat":25.0030896,"lon":121.4926327,"name":"承恩食品","decorType":"convenience"},{"id":"node-3727533659","lat":24.9924463,"lon":121.4906998,"name":"錦和高中","decorType":"bus_stop"},{"id":"node-3727698326","lat":24.9928888,"lon":121.4950552,"name":"力行里","decorType":"bus_stop"},{"id":"node-3727698327","lat":24.9930693,"lon":121.4957193,"name":"力行里","decorType":"bus_stop"},{"id":"node-4033374015","lat":24.9940868,"lon":121.4850123,"name":"君迪商旅","decorType":"hotel"},{"id":"node-4045352257","lat":25.000555,"lon":121.4882289,"name":"全家便利商店","decorType":"convenience"},{"id":"node-4045352258","lat":25.0056889,"lon":121.4922117,"name":"全家便利商店","decorType":"convenience"},{"id":"node-4045352268","lat":25.00608,"lon":121.4925416,"name":"橋和路","decorType":"bus_stop"},{"id":"node-4045352269","lat":25.00608,"lon":121.493821,"name":"橋和路","decorType":"bus_stop"},{"id":"node-4045352274","lat":25.0044016,"lon":121.487888,"name":"生猛活海鮮","decorType":"restaurant"},{"id":"node-4045381175","lat":25.0067607,"lon":121.4898929,"name":"萊爾富","decorType":"convenience"},{"id":"node-4103392189","lat":25.0023548,"lon":121.4843231,"name":"揚日式料理","decorType":"restaurant"},{"id":"node-4152018290","lat":25.0023683,"lon":121.4843043,"name":"揚日式料理","decorType":"restaurant"},{"id":"node-4169713689","lat":25.0021527,"lon":121.4846087,"name":"中原里","decorType":"bus_stop"},{"id":"node-4169713690","lat":25.0033195,"lon":121.4849775,"name":"中原里","decorType":"bus_stop"},{"id":"node-4169713691","lat":24.9941649,"lon":121.4886473,"name":"中和國民運動中心","decorType":"bus_stop"},{"id":"node-4169713693","lat":25.0059119,"lon":121.4837788,"name":"中正中山路口","decorType":"bus_stop"},{"id":"node-4169713694","lat":25.0064625,"lon":121.4839853,"name":"中正中山路口","decorType":"bus_stop"},{"id":"node-4169713695","lat":24.9972348,"lon":121.4854858,"name":"中正路","decorType":"bus_stop"},{"id":"node-4169713696","lat":24.9987809,"lon":121.4848823,"name":"中正路","decorType":"bus_stop"},{"id":"node-4169713697","lat":24.9942037,"lon":121.4923063,"name":"平和路口","decorType":"bus_stop"},{"id":"node-4169713698","lat":25.0007567,"lon":121.4851977,"name":"平河里","decorType":"bus_stop"},{"id":"node-4169713699","lat":25.0007688,"lon":121.4847927,"name":"平河里","decorType":"bus_stop"},{"id":"node-4169713700","lat":24.9970014,"lon":121.4850285,"name":"心中市","decorType":"bus_stop"},{"id":"node-4169713709","lat":24.994524,"lon":121.4872909,"name":"連城路口","decorType":"bus_stop"},{"id":"node-4169713710","lat":24.9938184,"lon":121.494141,"name":"雙和醫院","decorType":"bus_stop"},{"id":"node-4169713711","lat":24.9940866,"lon":121.4944579,"name":"雙和醫院","decorType":"bus_stop"},{"id":"node-4169713712","lat":25.0007275,"lon":121.4852607,"name":"7-Eleven","decorType":"convenience"},{"id":"node-4169713713","lat":25.0063842,"lon":121.4841266,"name":"7-Eleven","decorType":"convenience"},{"id":"node-4277687735","lat":24.9964631,"lon":121.4956981,"name":"悠菓手作烘焙","decorType":"bakery"},{"id":"node-4580834630","lat":24.9932674,"lon":121.4959522,"name":"Mooni 暮倪","decorType":"restaurant"},{"id":"node-5110489228","lat":25.0061433,"lon":121.4947457,"name":"博濟宮","decorType":"shrine"},{"id":"node-5110489229","lat":25.0065343,"lon":121.4959969,"name":"中和乾元宮","decorType":"shrine"},{"id":"node-5444300911","lat":25.0046042,"lon":121.4902458,"name":"橋和","decorType":"station"},{"id":"node-5444300912","lat":25.0023167,"lon":121.4958503,"name":"中和","decorType":"station"},{"id":"node-5661164145","lat":25.0022012,"lon":121.4956275,"name":"連合里","decorType":"bus_stop"},{"id":"node-5804485931","lat":24.9963391,"lon":121.4884458,"name":"樂活健康鍋","decorType":"restaurant"},{"id":"node-6310595840","lat":24.9986646,"lon":121.4849434,"name":"川頁居酒屋","decorType":"restaurant"},{"id":"node-6389073478","lat":24.9984877,"lon":121.4876571,"name":"摩斯漢堡","decorType":"burger"},{"id":"node-6389095974","lat":24.998797,"lon":121.4879553,"name":"7-Eleven","decorType":"convenience"},{"id":"node-6389095975","lat":25.004098,"lon":121.4879407,"name":"7-Eleven","decorType":"convenience"},{"id":"node-6389095976","lat":25.0047752,"lon":121.4865928,"name":"全家便利商店","decorType":"convenience"},{"id":"node-6389095977","lat":25.0050404,"lon":121.4857085,"name":"7-Eleven","decorType":"convenience"},{"id":"node-6389095978","lat":24.9993701,"lon":121.4837317,"name":"全家便利商店","decorType":"convenience"},{"id":"node-6406949819","lat":24.9989837,"lon":121.4849001,"name":"中和站","decorType":"bus_stop"},{"id":"node-6408520996","lat":24.9983309,"lon":121.4864623,"name":"T J Cafe","decorType":"cafe"},{"id":"node-6416162017","lat":25.0002835,"lon":121.4853601,"name":"The Loft - 沐舍時尚酒店","decorType":"hotel"},{"id":"node-6416219074","lat":24.9990493,"lon":121.4838646,"name":"天德宮","decorType":"shrine"},{"id":"node-6416251569","lat":24.9977569,"lon":121.4855529,"name":"郵務收據點","decorType":"post_office"},{"id":"node-6715598490","lat":25.0053865,"lon":121.4922947,"name":"7-Eleven","decorType":"convenience"},{"id":"node-6843969835","lat":25.0056041,"lon":121.4921673,"name":"巧味","decorType":"restaurant"},{"id":"node-6852206837","lat":24.997732,"lon":121.4857328,"name":"新北市召會32會所","decorType":"shrine"},{"id":"node-7191222738","lat":25.0047729,"lon":121.4902612,"name":"捷運橋和站1號出口","decorType":"station"},{"id":"node-7217108221","lat":24.9975935,"lon":121.4878008,"name":"大心","decorType":"restaurant"},{"id":"node-7400899533","lat":24.997275,"lon":121.4854646,"name":"中和站","decorType":"bus_stop"},{"id":"node-7653431212","lat":25.0069132,"lon":121.4872181,"name":"國際科學園區","decorType":"bus_stop"},{"id":"node-7653431213","lat":25.0067093,"lon":121.4871953,"name":"國際科學園區","decorType":"bus_stop"},{"id":"node-7653431214","lat":25.0044866,"lon":121.4901908,"name":"捷運橋和站","decorType":"bus_stop"},{"id":"node-7653431215","lat":25.0045467,"lon":121.4903246,"name":"捷運橋和站","decorType":"bus_stop"},{"id":"node-8118272757","lat":25.0061389,"lon":121.4940574,"name":"全家便利商店","decorType":"convenience"},{"id":"node-8118272761","lat":25.0047352,"lon":121.4832487,"name":"全家便利商店","decorType":"convenience"},{"id":"node-8118272762","lat":25.0055132,"lon":121.4849233,"name":"全家便利商店","decorType":"convenience"},{"id":"node-8222182639","lat":25.0008908,"lon":121.4878683,"name":"我家牛排","decorType":"restaurant"},{"id":"node-8330698331","lat":25.0062525,"lon":121.4860912,"name":"原岩中和店","decorType":"stadium"},{"id":"node-8385304882","lat":24.9929947,"lon":121.4956116,"name":"八方雲集","decorType":"burger"},{"id":"node-8385313239","lat":25.0030347,"lon":121.4831806,"name":"八方雲集","decorType":"burger"},{"id":"node-8435620680","lat":24.9921188,"lon":121.4940537,"name":"雙和醫院(院區)","decorType":"bus_stop"},{"id":"node-8442738378","lat":25.0021052,"lon":121.4950937,"name":"捷運中和站(中山路)","decorType":"bus_stop"},{"id":"node-8442738379","lat":25.0020007,"lon":121.4937392,"name":"家美工業區","decorType":"bus_stop"},{"id":"node-8442738380","lat":25.0025318,"lon":121.4929238,"name":"家美工業區","decorType":"bus_stop"},{"id":"node-8458558350","lat":24.9934924,"lon":121.4878088,"name":"錦和公園","decorType":"bus_stop"},{"id":"node-8458558351","lat":24.9962967,"lon":121.4842299,"name":"連城中正路口","decorType":"bus_stop"},{"id":"node-8458558352","lat":24.9961323,"lon":121.4844365,"name":"連城中正路口","decorType":"bus_stop"},{"id":"node-8458558353","lat":24.9954917,"lon":121.4852722,"name":"瓏山林台北中和飯店","decorType":"bus_stop"},{"id":"node-8458851250","lat":24.9925394,"lon":121.490888,"name":"錦和高中","decorType":"bus_stop"},{"id":"node-8458851251","lat":24.9942995,"lon":121.4907324,"name":"錦和路口","decorType":"bus_stop"},{"id":"node-8460824825","lat":24.9998602,"lon":121.483716,"name":"新生街","decorType":"bus_stop"},{"id":"node-8460824827","lat":24.9968502,"lon":121.4837372,"name":"二八張","decorType":"bus_stop"},{"id":"node-8460824828","lat":24.9967632,"lon":121.4836116,"name":"二八張","decorType":"bus_stop"},{"id":"node-8460824830","lat":24.9998102,"lon":121.4838166,"name":"新生街","decorType":"bus_stop"},{"id":"node-8634134673","lat":24.9952216,"lon":121.4884871,"name":"享享廚室","decorType":"restaurant"},{"id":"node-9104038393","lat":24.9966883,"lon":121.4921444,"name":"台貿一村","decorType":"bus_stop"},{"id":"node-9104038394","lat":24.996548,"lon":121.4921898,"name":"台貿一村","decorType":"bus_stop"},{"id":"node-9441384618","lat":25.005241,"lon":121.4881485,"name":"藏壽司","decorType":"burger"},{"id":"node-9660073554","lat":24.9964335,"lon":121.4956004,"name":"蝦皮店到店","decorType":"convenience"},{"id":"node-9660073555","lat":24.9958891,"lon":121.494574,"name":"美廉社","decorType":"supermarket"},{"id":"node-9737465276","lat":24.9958808,"lon":121.483705,"name":"洪記涼麵","decorType":"restaurant"},{"id":"node-9807732762","lat":24.9966243,"lon":121.4918855,"name":"乾一杯","decorType":"restaurant"},{"id":"node-9807732765","lat":24.9966092,"lon":121.4917972,"name":"山尚碳燒羊肉爐-中和店","decorType":"restaurant"},{"id":"node-9807732766","lat":24.9965983,"lon":121.4917481,"name":"7-Eleven","decorType":"convenience"},{"id":"node-10076704886","lat":24.9982388,"lon":121.487777,"name":"1010湘(中和建一店)","decorType":"restaurant"},{"id":"node-10076730526","lat":24.9984364,"lon":121.4866136,"name":"富康活力遠東藥局","decorType":"pharmacy"},{"id":"node-10255339490","lat":24.9949285,"lon":121.4902167,"name":"美廉社","decorType":"supermarket"},{"id":"node-11773856175","lat":25.0001119,"lon":121.4878772,"name":"路易莎咖啡","decorType":"cafe"},{"id":"node-12737888711","lat":24.9958742,"lon":121.4830969,"name":"連城路","decorType":"bus_stop"},{"id":"node-12756011102","lat":24.9966178,"lon":121.4835667,"name":"未命名超市","decorType":"supermarket"},{"id":"node-12756104379","lat":24.996625,"lon":121.4835315,"name":"壽司田","decorType":"restaurant"},{"id":"node-13017172681","lat":25.0051667,"lon":121.4878737,"name":"涮乃葉","decorType":"restaurant"},{"id":"node-13277170990","lat":24.9953103,"lon":121.4834889,"name":"星笛玲造型坊","decorType":"hair_salon"},{"id":"node-13277171417","lat":24.9957432,"lon":121.4836724,"name":"日式威廉 連城店","decorType":"hair_salon"},{"id":"node-13277180760","lat":24.9984955,"lon":121.4847827,"name":"心妍造型美髮","decorType":"hair_salon"},{"id":"node-13277198207","lat":24.9963465,"lon":121.4838513,"name":"大林男女美髮","decorType":"hair_salon"},{"id":"node-13277198885","lat":24.9960871,"lon":121.4879803,"name":"すき家Sukiya 中和連城店","decorType":"burger"},{"id":"node-13277199070","lat":24.9945184,"lon":121.4835957,"name":"洗衫鄰咖逼","decorType":"laundry"},{"id":"node-13277200398","lat":24.9981736,"lon":121.4872589,"name":"My幾圈 甜點專賣店-新北中和店","decorType":"sweetshop"},{"id":"node-13277217191","lat":24.9979005,"lon":121.4882799,"name":"起司rock鐵板潛艇堡","decorType":"burger"},{"id":"node-13277222825","lat":24.9984492,"lon":121.4849365,"name":"美國戴克斯特投幣自助洗","decorType":"laundry"},{"id":"node-13277224234","lat":24.9941132,"lon":121.4881787,"name":"隆興大型洗衣","decorType":"laundry"},{"id":"node-13277224523","lat":24.9965451,"lon":121.4922494,"name":"洗多屋自助洗衣店連城二店","decorType":"laundry"},{"id":"node-13277254335","lat":24.9959446,"lon":121.4837029,"name":"Latee烘焙","decorType":"sweetshop"},{"id":"node-13277256879","lat":24.998086,"lon":121.4893404,"name":"aqua烘焙坊","decorType":"sweetshop"},{"id":"node-13279112362","lat":24.9961073,"lon":121.4859913,"name":"亞霏髮型設計","decorType":"hair_salon"},{"id":"node-13279118197","lat":24.9952225,"lon":121.4852647,"name":"球球幼犬寵物店","decorType":"zoo"},{"id":"node-13279121376","lat":24.9943767,"lon":121.4896543,"name":"煒立電器有限公司","decorType":"electronics"},{"id":"node-13279126697","lat":24.996351,"lon":121.4839744,"name":"紅冠3C 專業二手買賣","decorType":"electronics"},{"id":"node-13279134728","lat":24.9968275,"lon":121.4881998,"name":"晉茂五金超商","decorType":"electronics"},{"id":"node-13279144599","lat":24.9960997,"lon":121.4862836,"name":"菲比髮廊","decorType":"hair_salon"},{"id":"node-13279164869","lat":24.9979638,"lon":121.4855911,"name":"雲兒工坊","decorType":"sweetshop"},{"id":"node-13279182486","lat":25.0002034,"lon":121.4848227,"name":"益圓車輪餅","decorType":"sweetshop"},{"id":"node-13279193695","lat":24.9955409,"lon":121.4832318,"name":"中和-良安藥局","decorType":"pharmacy"},{"id":"node-13279207126","lat":24.9974358,"lon":121.4836801,"name":"芋仙珍味","decorType":"sweetshop"},{"id":"node-13279207681","lat":24.9926351,"lon":121.4909395,"name":"錦和高中圖書館","decorType":"library"},{"id":"node-13279214953","lat":25.0009416,"lon":121.4913688,"name":"空氣島卡丁車 中和場","decorType":"theme_park"},{"id":"node-13279218034","lat":24.9933144,"lon":121.4888932,"name":"錦和運動公園兒童遊戲場","decorType":"park"},{"id":"node-13282243019","lat":24.9951831,"lon":121.4834248,"name":"剪丹點 Hair Cut","decorType":"hair_salon"},{"id":"way-74347903","lat":24.9929721,"lon":121.4857489,"name":"中和交流道","decorType":"bridge"},{"id":"way-107153771","lat":24.9923364,"lon":121.4853621,"name":"中和交流道","decorType":"bridge"},{"id":"way-111986916","lat":24.9992109,"lon":121.4933266,"name":"板南路","decorType":"bridge"},{"id":"way-112002646","lat":24.9978024,"lon":121.4902862,"name":"二八張溪","decorType":"waterside"},{"id":"way-137082550","lat":24.9919188,"lon":121.4858139,"name":"中和交流道","decorType":"bridge"},{"id":"way-137082552","lat":24.998815,"lon":121.4852078,"name":"中和交流道","decorType":"bridge"},{"id":"way-137082560","lat":24.9923629,"lon":121.4850344,"name":"中和交流道","decorType":"bridge"},{"id":"way-182995611","lat":24.9936768,"lon":121.4878854,"name":"中正二橋","decorType":"bridge"},{"id":"way-224320918","lat":24.9939099,"lon":121.4929005,"name":"未命名橋樑","decorType":"bridge"},{"id":"way-234382500","lat":24.9929698,"lon":121.4857028,"name":"中和交流道","decorType":"bridge"},{"id":"way-253668350","lat":24.9925026,"lon":121.488392,"name":"錦和運動公園","decorType":"park"},{"id":"way-255691589","lat":25.0023549,"lon":121.4944572,"name":"未命名橋樑","decorType":"bridge"},{"id":"way-263195284","lat":24.9935567,"lon":121.4858492,"name":"中正三橋","decorType":"bridge"},{"id":"way-270270331","lat":25.0074136,"lon":121.4953316,"name":"未命名橋樑","decorType":"bridge"},{"id":"way-289521675","lat":25.0021838,"lon":121.4944769,"name":"中山路二段","decorType":"bridge"},{"id":"way-289521676","lat":25.0022197,"lon":121.4944719,"name":"中山路二段","decorType":"bridge"},{"id":"way-324373494","lat":24.9969754,"lon":121.4934578,"name":"碧河宮","decorType":"shrine"},{"id":"way-324373499","lat":24.9975908,"lon":121.4928852,"name":"連城路174巷","decorType":"bridge"},{"id":"way-335375091","lat":24.9983448,"lon":121.4952137,"name":"未命名橋樑","decorType":"bridge"},{"id":"way-347871699","lat":25.0041816,"lon":121.4941042,"name":"未命名橋樑","decorType":"bridge"},{"id":"way-385173014","lat":25.0052618,"lon":121.4960847,"name":"華中橋","decorType":"bridge"},{"id":"way-385173023","lat":25.0063196,"lon":121.4953153,"name":"未命名橋樑","decorType":"bridge"},{"id":"way-385173027","lat":25.0064933,"lon":121.4957721,"name":"未命名橋樑","decorType":"bridge"},{"id":"way-385196068","lat":25.0050873,"lon":121.4960797,"name":"華中橋","decorType":"bridge"},{"id":"way-438399830","lat":24.9929811,"lon":121.4874649,"name":"新北市中和國民運動中心","decorType":"stadium"},{"id":"way-468467656","lat":25.0000035,"lon":121.4915043,"name":"碧河里公園","decorType":"park"},{"id":"way-468467658","lat":25.0015059,"lon":121.4955193,"name":"未命名公園","decorType":"park"},{"id":"way-468467660","lat":25.0018626,"lon":121.4949529,"name":"景麗婚宴會館","decorType":"restaurant"},{"id":"way-547581975","lat":24.9934028,"lon":121.4938091,"name":"未命名公園","decorType":"park"},{"id":"way-548106791","lat":24.9945617,"lon":121.4858577,"name":"未命名公園","decorType":"park"},{"id":"way-548108251","lat":24.9936491,"lon":121.4869549,"name":"未命名水邊","decorType":"waterside"},{"id":"way-548108252","lat":24.9937058,"lon":121.4892709,"name":"未命名水邊","decorType":"waterside"},{"id":"way-548108253","lat":24.9937365,"lon":121.4908693,"name":"未命名水邊","decorType":"waterside"},{"id":"way-548108254","lat":24.993561,"lon":121.48428,"name":"未命名水邊","decorType":"waterside"},{"id":"way-548111260","lat":24.9931925,"lon":121.4888811,"name":"未命名水邊","decorType":"waterside"},{"id":"way-549062316","lat":24.9974522,"lon":121.4867261,"name":"未命名公園","decorType":"park"},{"id":"way-549241816","lat":24.9938569,"lon":121.4905926,"name":"未命名橋樑","decorType":"bridge"},{"id":"way-550414882","lat":24.9920392,"lon":121.4938073,"name":"未命名公園","decorType":"park"},{"id":"way-550414883","lat":24.991953,"lon":121.4937285,"name":"未命名公園","decorType":"park"},{"id":"way-550414889","lat":24.9936761,"lon":121.4939318,"name":"未命名公園","decorType":"park"},{"id":"way-558414477","lat":25.0072889,"lon":121.4850689,"name":"元隆公園","decorType":"park"},{"id":"way-628783526","lat":24.9948641,"lon":121.485236,"name":"瓏山林台北中和飯店","decorType":"hotel"},{"id":"way-659566468","lat":25.0063202,"lon":121.4959128,"name":"未命名橋樑","decorType":"bridge"},{"id":"way-689716033","lat":25.0035917,"lon":121.4945074,"name":"未命名公園","decorType":"park"},{"id":"way-689716036","lat":25.0050915,"lon":121.4950827,"name":"景平路989巷","decorType":"bridge"},{"id":"way-695857045","lat":24.9937457,"lon":121.4906479,"name":"中正一橋","decorType":"bridge"},{"id":"way-696115805","lat":25.006837,"lon":121.4948122,"name":"未命名橋樑","decorType":"bridge"},{"id":"way-696391782","lat":24.9935259,"lon":121.4834446,"name":"中正四橋","decorType":"bridge"},{"id":"way-696391786","lat":24.9935387,"lon":121.4854931,"name":"中正三橋","decorType":"bridge"},{"id":"way-711881186","lat":24.9922753,"lon":121.4856329,"name":"未命名水邊","decorType":"waterside"},{"id":"way-711881191","lat":24.9973149,"lon":121.4852327,"name":"中和交流道","decorType":"bridge"},{"id":"way-711881192","lat":24.995666,"lon":121.4853432,"name":"中和交流道","decorType":"bridge"},{"id":"way-711881193","lat":24.9956629,"lon":121.4854093,"name":"中和交流道","decorType":"bridge"},{"id":"way-762683028","lat":24.9988483,"lon":121.4850946,"name":"中和交流道","decorType":"bridge"},{"id":"way-822004525","lat":25.0043224,"lon":121.4904066,"name":"捷運橋和站","decorType":"station"},{"id":"way-822576187","lat":24.9935997,"lon":121.4855626,"name":"中正三橋","decorType":"bridge"},{"id":"way-830061757","lat":25.0020432,"lon":121.4900669,"name":"未命名公園","decorType":"park"},{"id":"way-844166864","lat":24.9926429,"lon":121.4921777,"name":"未命名森林","decorType":"forest"},{"id":"way-844166865","lat":24.9922506,"lon":121.4920854,"name":"未命名森林","decorType":"forest"},{"id":"way-968214212","lat":25.0061244,"lon":121.4934387,"name":"二八張溪","decorType":"waterside"},{"id":"way-1060033486","lat":25.0014106,"lon":121.4944966,"name":"未命名橋樑","decorType":"bridge"},{"id":"way-1068381797","lat":24.9973454,"lon":121.4918619,"name":"連城路194巷","decorType":"bridge"},{"id":"way-1068381799","lat":24.9969453,"lon":121.4930444,"name":"未命名橋樑","decorType":"bridge"},{"id":"way-1072158441","lat":24.994032,"lon":121.4857789,"name":"中和交流道","decorType":"bridge"},{"id":"way-1072158442","lat":24.9935666,"lon":121.4857808,"name":"中和交流道","decorType":"bridge"},{"id":"way-1072158443","lat":24.9942273,"lon":121.4856922,"name":"中和交流道","decorType":"bridge"},{"id":"way-1072158444","lat":24.9935625,"lon":121.4856961,"name":"中和交流道","decorType":"bridge"},{"id":"way-1072158445","lat":24.9945428,"lon":121.4855094,"name":"中和交流道","decorType":"bridge"},{"id":"way-1072158446","lat":24.993562,"lon":121.4856281,"name":"中和交流道","decorType":"bridge"},{"id":"way-1072158447","lat":24.9941997,"lon":121.4855244,"name":"中和交流道","decorType":"bridge"},{"id":"way-1072158448","lat":24.9935644,"lon":121.4855324,"name":"中和交流道","decorType":"bridge"},{"id":"way-1188385529","lat":25.0067154,"lon":121.4931776,"name":"二八張溪","decorType":"waterside"},{"id":"way-1198225128","lat":25.0024261,"lon":121.4937016,"name":"未命名水邊","decorType":"waterside"},{"id":"way-1198233842","lat":25.0043993,"lon":121.4950544,"name":"未命名水邊","decorType":"waterside"},{"id":"way-1228832737","lat":25.0043515,"lon":121.4904398,"name":"未命名公車站","decorType":"bus_stop"},{"id":"way-1228832738","lat":25.0043512,"lon":121.4904394,"name":"未命名公車站","decorType":"bus_stop"},{"id":"way-1228832739","lat":25.0022723,"lon":121.4956688,"name":"未命名公車站","decorType":"bus_stop"},{"id":"way-1246055973","lat":25.006023,"lon":121.4954837,"name":"未命名森林","decorType":"forest"},{"id":"way-1246055974","lat":25.0064019,"lon":121.4957814,"name":"未命名森林","decorType":"forest"},{"id":"way-1246055975","lat":25.0070097,"lon":121.4956077,"name":"未命名森林","decorType":"forest"},{"id":"way-1246055976","lat":25.0057,"lon":121.495734,"name":"未命名橋樑","decorType":"bridge"},{"id":"way-1246055980","lat":25.0069526,"lon":121.4950472,"name":"未命名森林","decorType":"forest"},{"id":"way-1246274874","lat":25.0059928,"lon":121.4934858,"name":"未命名橋樑","decorType":"bridge"},{"id":"way-1246274875","lat":25.0066637,"lon":121.494769,"name":"未命名公園","decorType":"park"},{"id":"way-1340110307","lat":24.9983127,"lon":121.4842729,"name":"全聯福利中心","decorType":"supermarket"},{"id":"way-1382609616","lat":25.0042263,"lon":121.4939581,"name":"二八張溪","decorType":"waterside"},{"id":"way-1382609617","lat":25.0022016,"lon":121.4944593,"name":"二八張溪","decorType":"waterside"},{"id":"way-1382609619","lat":25.0074033,"lon":121.4926898,"name":"二八張溪","decorType":"waterside"},{"id":"way-1382609620","lat":25.0071157,"lon":121.4931122,"name":"未命名水邊","decorType":"waterside"},{"id":"way-1382609638","lat":24.9936037,"lon":121.4856658,"name":"二八張溪","decorType":"waterside"},{"id":"way-1408707166","lat":24.9961102,"lon":121.4895851,"name":"綻賞","decorType":"park"},{"id":"way-1418047433","lat":24.9940522,"lon":121.492532,"name":"中正路","decorType":"bridge"},{"id":"way-1418047435","lat":24.9941553,"lon":121.4926615,"name":"中正路","decorType":"bridge"},{"id":"way-1418047436","lat":24.9939544,"lon":121.4924539,"name":"中正路","decorType":"bridge"},{"id":"way-1418358768","lat":25.0022515,"lon":121.4955378,"name":"未命名公車站","decorType":"bus_stop"},{"id":"way-1418358772","lat":24.9949704,"lon":121.4855924,"name":"未命名橋樑","decorType":"bridge"},{"id":"way-1418564215","lat":25.0010148,"lon":121.4872134,"name":"錦和路","decorType":"bridge"},{"id":"way-1419307372","lat":25.0002356,"lon":121.4892936,"name":"建康路","decorType":"bridge"},{"id":"way-1423885659","lat":25.0012893,"lon":121.4879964,"name":"建一路","decorType":"bridge"},{"id":"way-1423885661","lat":25.0013062,"lon":121.4880919,"name":"建一路","decorType":"bridge"},{"id":"way-1430527522","lat":24.9978658,"lon":121.4958638,"name":"全聯福利中心","decorType":"supermarket"}]}