{"bbox":{"south":24.991912,"north":25.007519,"west":121.483062,"east":121.496094},"pois":[{"id":"node-2285210353","lat":24.997377,"lon":121.494089,"name":"全家便利商店","decorType":"convenience"},{"id":"node-2614374654","lat":24.997577,"lon":121.484962,"name":"7-Eleven","decorType":"convenience"},{"id":"node-2614374655","lat":24.996826,"lon":121.485716,"name":"7-Eleven","decorType":"convenience"},{"id":"node-2614374656","lat":24.996979,"lon":121.485579,"name":"全家便利商店","decorType":"convenience"},{"id":"node-2614374657","lat":24.99813,"lon":121.485556,"name":"7-Eleven","decorType":"convenience"},{"id":"node-2614374658","lat":25.001124,"lon":121.483492,"name":"全家便利商店","decorType":"convenience"},{"id":"node-2614385423","lat":24.996064,"lon":121.487983,"name":"すき家","decorType":"burger"},{"id":"node-2614385426","lat":24.996093,"lon":121.486349,"name":"50嵐","decorType":"cafe"},{"id":"node-2614385428","lat":24.996091,"lon":121.486036,"name":"好餓早午餐","decorType":"restaurant"},{"id":"node-2614385431","lat":24.996931,"lon":121.486423,"name":"星巴克","decorType":"cafe"},{"id":"node-2614385434","lat":24.998447,"lon":121.487483,"name":"星巴克","decorType":"cafe"},{"id":"node-2614385445","lat":24.997144,"lon":121.487953,"name":"7-Eleven","decorType":"convenience"},{"id":"node-2614385450","lat":24.996077,"lon":121.488584,"name":"必勝客","decorType":"restaurant"},{"id":"node-2614421418","lat":25.001358,"lon":121.484685,"name":"真鍋","decorType":"restaurant"},{"id":"node-2614421432","lat":24.998672,"lon":121.488234,"name":"瓦城","decorType":"restaurant"},{"id":"node-2618477948","lat":24.995897,"lon":121.488055,"name":"7-Eleven","decorType":"convenience"},{"id":"node-2618477949","lat":24.996113,"lon":121.486493,"name":"全家便利商店","decorType":"convenience"},{"id":"node-2624310281","lat":24.996553,"lon":121.486443,"name":"全家便利商店","decorType":"convenience"},{"id":"node-2679822087","lat":24.99825,"lon":121.494817,"name":"中和國稅局","decorType":"bus_stop"},{"id":"node-2679822089","lat":24.99817,"lon":121.495113,"name":"中和國稅局","decorType":"bus_stop"},{"id":"node-2679822091","lat":24.997392,"lon":121.49357,"name":"台貿一村","decorType":"bus_stop"},{"id":"node-2679822093","lat":24.997183,"lon":121.493699,"name":"台貿一村","decorType":"bus_stop"},{"id":"node-2679822100","lat":24.996308,"lon":121.486241,"name":"連城中正路口","decorType":"bus_stop"},{"id":"node-2679822102","lat":24.99614,"lon":121.486028,"name":"連城中正路口","decorType":"bus_stop"},{"id":"node-2679822104","lat":24.996022,"lon":121.483222,"name":"連城路","decorType":"bus_stop"},{"id":"node-2679822106","lat":24.995784,"lon":121.483381,"name":"連城路","decorType":"bus_stop"},{"id":"node-2727090654","lat":25.002372,"lon":121.494898,"name":"水上鮮生猛海鮮","decorType":"restaurant"},{"id":"node-2727090703","lat":25.002403,"lon":121.495359,"name":"津榮飯包","decorType":"restaurant"},{"id":"node-2929232545","lat":25.002614,"lon":121.492312,"name":"中和保養廠","decorType":"bus_stop"},{"id":"node-2929232546","lat":25.003076,"lon":121.491798,"name":"中和保養廠","decorType":"bus_stop"},{"id":"node-2929232547","lat":25.004984,"lon":121.486313,"name":"中山錦和路口","decorType":"bus_stop"},{"id":"node-2929232548","lat":25.00478,"lon":121.48629,"name":"中山錦和路口","decorType":"bus_stop"},{"id":"node-2929232549","lat":25.003719,"lon":121.489731,"name":"中山路","decorType":"bus_stop"},{"id":"node-2929232550","lat":25.003818,"lon":121.490069,"name":"中山路","decorType":"bus_stop"},{"id":"node-3139881662","lat":24.994396,"lon":121.488741,"name":"中和國民運動中心","decorType":"bus_stop"},{"id":"node-3139881663","lat":24.994207,"lon":121.487138,"name":"中正里一","decorType":"bus_stop"},{"id":"node-3311203216","lat":24.996768,"lon":121.492119,"name":"中和連城路郵局","decorType":"post_office"},{"id":"node-3328449212","lat":24.996087,"lon":121.486785,"name":"日月亭素食","decorType":"restaurant"},{"id":"node-3328449213","lat":24.996224,"lon":121.490623,"name":"何德昌藥局","decorType":"pharmacy"},{"id":"node-3328449215","lat":24.99609,"lon":121.489535,"name":"傳奇","decorType":"cafe"},{"id":"node-3328449216","lat":24.995622,"lon":121.489925,"name":"全家便利商店","decorType":"convenience"},{"id":"node-3328449217","lat":24.996279,"lon":121.491525,"name":"全家便利商店","decorType":"convenience"},{"id":"node-3328449220","lat":24.996075,"lon":121.487347,"name":"藏咖哩","decorType":"burger"},{"id":"node-3328449223","lat":24.996253,"lon":121.490979,"name":"台灣大哥大","decorType":"electronics"},{"id":"node-3328449228","lat":24.996064,"lon":121.487627,"name":"天廚素食坊","decorType":"restaurant"},{"id":"node-3328449230","lat":24.99606,"lon":121.487922,"name":"屈臣氏","decorType":"pharmacy"},{"id":"node-3328449235","lat":24.996078,"lon":121.48879,"name":"悟饕池上飯包","decorType":"restaurant"},{"id":"node-3328449240","lat":24.996056,"lon":121.48937,"name":"清心福全","decorType":"cafe"},{"id":"node-3328449244","lat":24.996093,"lon":121.486846,"name":"筷子手","decorType":"restaurant"},{"id":"node-3328450047","lat":24.996332,"lon":121.491907,"name":"連城小館","decorType":"restaurant"},{"id":"node-3328450050","lat":24.997645,"lon":121.494428,"name":"金津焢肉排骨便當","decorType":"restaurant"},{"id":"node-3417501609","lat":24.994057,"lon":121.495923,"name":"全家便利商店","decorType":"convenience"},{"id":"node-3417501615","lat":24.993665,"lon":121.495444,"name":"中和中正路郵局","decorType":"post_office"},{"id":"node-3419812582","lat":24.994057,"lon":121.495726,"name":"北城脆皮烤鴨中和旗艦總店","decorType":"sushi"},{"id":"node-3419812583","lat":24.994066,"lon":121.495823,"name":"食蔬房","decorType":"restaurant"},{"id":"node-3424475240","lat":24.997731,"lon":121.494455,"name":"麵線王","decorType":"restaurant"},{"id":"node-3424475241","lat":24.999067,"lon":121.495828,"name":"中和牛家莊","decorType":"restaurant"},{"id":"node-3424475243","lat":24.998829,"lon":121.495909,"name":"哥基多桑","decorType":"restaurant"},{"id":"node-3424475247","lat":24.997461,"lon":121.49423,"name":"早安美芝城","decorType":"burger"},{"id":"node-3424475250","lat":24.998896,"lon":121.495958,"name":"烤堂","decorType":"restaurant"},{"id":"node-3424475254","lat":24.997556,"lon":121.494287,"name":"雅香自助快餐","decorType":"restaurant"},{"id":"node-3424566626","lat":24.996184,"lon":121.49131,"name":"William","decorType":"hair_salon"},{"id":"node-3424566628","lat":24.99725,"lon":121.493874,"name":"伊蕾名店","decorType":"clothing"},{"id":"node-3424566633","lat":24.996168,"lon":121.48997,"name":"協利五金行","decorType":"hardware"},{"id":"node-3424566639","lat":24.996222,"lon":121.490275,"name":"太陽神水電料","decorType":"hardware"},{"id":"node-3424566640","lat":24.996147,"lon":121.489761,"name":"巨林美而美","decorType":"burger"},{"id":"node-3424566641","lat":24.998435,"lon":121.495585,"name":"彰和蔘藥行","decorType":"pharmacy"},{"id":"node-3424566644","lat":24.996013,"lon":121.489272,"name":"立健健保特約藥局","decorType":"pharmacy"},{"id":"node-3424566648","lat":24.99615,"lon":121.490219,"name":"福滿堂","decorType":"restaurant"},{"id":"node-3424566649","lat":24.996018,"lon":121.49134,"name":"紡莎服飾","decorType":"clothing"},{"id":"node-3424566650","lat":24.998488,"lon":121.495667,"name":"美而美","decorType":"restaurant"},{"id":"node-3424566651","lat":24.996284,"lon":121.491293,"name":"金蕎蛋糕","decorType":"bakery"},{"id":"node-3424888991","lat":25.000996,"lon":121.495054,"name":"全球複合式休閒館","decorType":"stadium"},{"id":"node-3439427183","lat":25.002465,"lon":121.496042,"name":"卡瓦咖啡","decorType":"cafe"},{"id":"node-3439427184","lat":25.002409,"lon":121.495581,"name":"呷尚寶","decorType":"burger"},{"id":"node-3439427185","lat":25.00328,"lon":121.495422,"name":"福美慈惠堂","decorType":"shrine"},{"id":"node-3439427201","lat":25.002441,"lon":121.495865,"name":"麥香早餐店","decorType":"restaurant"},{"id":"node-3440499381","lat":25.004725,"lon":121.496091,"name":"媚之坊髮型","decorType":"hair_salon"},{"id":"node-3450799206","lat":24.996313,"lon":121.495053,"name":"大貿百貨生活館","decorType":"supermarket"},{"id":"node-3450799207","lat":24.997412,"lon":121.494597,"name":"普濟宮","decorType":"shrine"},{"id":"node-3450799244","lat":24.997455,"lon":121.494385,"name":"高仕涼麵壽司","decorType":"restaurant"},{"id":"node-3450799245","lat":24.997227,"lon":121.494476,"name":"7-Eleven","decorType":"convenience"},{"id":"node-3465414840","lat":24.999054,"lon":121.496056,"name":"越南商店","decorType":"convenience"},{"id":"node-3512628798","lat":24.994081,"lon":121.495602,"name":"弘晉建材行","decorType":"hardware"},{"id":"node-3512628799","lat":24.99408,"lon":121.495529,"name":"日盛工具五金","decorType":"hardware"},{"id":"node-3540982892","lat":25.002915,"lon":121.492424,"name":"中和中山路郵局","decorType":"post_office"},{"id":"node-3540983501","lat":25.002476,"lon":121.493333,"name":"巴黎草莓","decorType":"cosmetics"},{"id":"node-3540983507","lat":25.004426,"lon":121.488263,"name":"祥興樓水漾會館","decorType":"hotel"},{"id":"node-3540983564","lat":25.002734,"lon":121.492478,"name":"未命名郵局","decorType":"post_office"},{"id":"node-3540983599","lat":25.002644,"lon":121.492815,"name":"萊爾富","decorType":"convenience"},{"id":"node-3540983601","lat":25.00451,"lon":121.488665,"name":"賣亨堡","decorType":"burger"},{"id":"node-3540983603","lat":25.002391,"lon":121.495262,"name":"電線桿fun鬆料理","decorType":"restaurant"},{"id":"node-3540983605","lat":25.003695,"lon":121.490422,"name":"黃金海岸活蝦之家","decorType":"restaurant"},{"id":"node-3540983606","lat":25.003555,"lon":121.490986,"name":"腿庫飯","decorType":"restaurant"},{"id":"node-3540983607","lat":25.00204,"lon":121.493896,"name":"7-Eleven","decorType":"convenience"},{"id":"node-3557795440","lat":25.00203,"lon":121.493724,"name":"大都會男女時尚會館","decorType":"cosmetics"},{"id":"node-3592565162","lat":24.995422,"lon":121.483609,"name":"全家便利商店","decorType":"convenience"},{"id":"node-3592565163","lat":24.99557,"lon":121.483607,"name":"7-Eleven","decorType":"convenience"},{"id":"node-3594110785","lat":24.996521,"lon":121.483549,"name":"成都豆漿大王","decorType":"restaurant"},{"id":"node-3594110787","lat":24.995639,"lon":121.483082,"name":"早餐","decorType":"restaurant"},{"id":"node-3594594879","lat":25.003648,"lon":121.490861,"name":"oh.my.軋","decorType":"sweetshop"},{"id":"node-3594594882","lat":25.002425,"lon":121.495802,"name":"嘉泰電動工具","decorType":"hardware"},{"id":"node-3594595043","lat":25.002418,"lon":121.495743,"name":"精香自助餐","decorType":"restaurant"},{"id":"node-3594595047","lat":25.001806,"lon":121.49328,"name":"貴族世家","decorType":"restaurant"},{"id":"node-3594595048","lat":25.006488,"lon":121.488016,"name":"7-Eleven","decorType":"convenience"},{"id":"node-3683800290","lat":25.003548,"lon":121.488118,"name":"中山路口","decorType":"bus_stop"},{"id":"node-3683800292","lat":25.001426,"lon":121.488135,"name":"光寶電子","decorType":"bus_stop"},{"id":"node-3683800293","lat":25.001803,"lon":121.487892,"name":"光寶電子","decorType":"bus_stop"},{"id":"node-3683800297","lat":24.996925,"lon":121.488185,"name":"建一路","decorType":"bus_stop"},{"id":"node-3683800298","lat":24.998852,"lon":121.488032,"name":"建一路","decorType":"bus_stop"},{"id":"node-3683800299","lat":25.00509,"lon":121.489343,"name":"板南路口","decorType":"bus_stop"},{"id":"node-3683800300","lat":25.005272,"lon":121.489157,"name":"板南路口","decorType":"bus_stop"},{"id":"node-3683800302","lat":25.005724,"lon":121.490883,"name":"清心福全","decorType":"cafe"},{"id":"node-3683800304","lat":25.007024,"lon":121.489329,"name":"立德街","decorType":"bus_stop"},{"id":"node-3683800322","lat":25.005675,"lon":121.490678,"name":"7-Eleven","decorType":"convenience"},{"id":"node-3683800323","lat":24.994978,"lon":121.49032,"name":"錦和路","decorType":"bus_stop"},{"id":"node-3683800324","lat":24.995549,"lon":121.489945,"name":"錦和路","decorType":"bus_stop"},{"id":"node-3683807226","lat":25.000403,"lon":121.4883,"name":"7-Eleven","decorType":"convenience"},{"id":"node-3689633940","lat":24.99846,"lon":121.487225,"name":"全家便利商店","decorType":"convenience"},{"id":"node-3689633944","lat":24.997409,"lon":121.487919,"name":"全家便利商店","decorType":"convenience"},{"id":"node-3689633945","lat":24.994484,"lon":121.488712,"name":"7-Eleven","decorType":"convenience"},{"id":"node-3708200038","lat":24.997923,"lon":121.483703,"name":"未命名超市","decorType":"supermarket"},{"id":"node-3708200047","lat":25.000469,"lon":121.483769,"name":"美廉社","decorType":"supermarket"},{"id":"node-3708200048","lat":24.999591,"lon":121.483876,"name":"茶湯會","decorType":"cafe"},{"id":"node-3708200049","lat":24.999252,"lon":121.483893,"name":"萊爾富","decorType":"convenience"},{"id":"node-3708200050","lat":25.001027,"lon":121.483676,"name":"顧巴肚紅油炒手","decorType":"restaurant"},{"id":"node-3708200052","lat":25.000764,"lon":121.483564,"name":"7-Eleven","decorType":"convenience"},{"id":"node-3710078777","lat":25.00309,"lon":121.492633,"name":"承恩食品","decorType":"convenience"},{"id":"node-3727533659","lat":24.992446,"lon":121.4907,"name":"錦和高中","decorType":"bus_stop"},{"id":"node-3727698326","lat":24.992889,"lon":121.495055,"name":"力行里","decorType":"bus_stop"},{"id":"node-3727698327","lat":24.993069,"lon":121.495719,"name":"力行里","decorType":"bus_stop"},{"id":"node-4033374015","lat":24.994087,"lon":121.485012,"name":"君迪商旅","decorType":"hotel"},{"id":"node-4045352257","lat":25.000555,"lon":121.488229,"name":"全家便利商店","decorType":"convenience"},{"id":"node-4045352258","lat":25.005689,"lon":121.492212,"name":"全家便利商店","decorType":"convenience"},{"id":"node-4045352268","lat":25.00608,"lon":121.492542,"name":"橋和路","decorType":"bus_stop"},{"id":"node-4045352269","lat":25.00608,"lon":121.493821,"name":"橋和路","decorType":"bus_stop"},{"id":"node-4045352274","lat":25.004402,"lon":121.487888,"name":"生猛活海鮮","decorType":"restaurant"},{"id":"node-4045381175","lat":25.006761,"lon":121.489893,"name":"萊爾富","decorType":"convenience"},{"id":"node-4103392189","lat":25.002355,"lon":121.484323,"name":"揚日式料理","decorType":"restaurant"},{"id":"node-4152018290","lat":25.002368,"lon":121.484304,"name":"揚日式料理","decorType":"restaurant"},{"id":"node-4169713689","lat":25.002153,"lon":121.484609,"name":"中原里","decorType":"bus_stop"},{"id":"node-4169713690","lat":25.00332,"lon":121.484978,"name":"中原里","decorType":"bus_stop"},{"id":"node-4169713691","lat":24.994165,"lon":121.488647,"name":"中和國民運動中心","decorType":"bus_stop"},{"id":"node-4169713693","lat":25.005912,"lon":121.483779,"name":"中正中山路口","decorType":"bus_stop"},{"id":"node-4169713694","lat":25.006463,"lon":121.483985,"name":"中正中山路口","decorType":"bus_stop"},{"id":"node-4169713695","lat":24.997235,"lon":121.485486,"name":"中正路","decorType":"bus_stop"},{"id":"node-4169713696","lat":24.998781,"lon":121.484882,"name":"中正路","decorType":"bus_stop"},{"id":"node-4169713697","lat":24.994204,"lon":121.492306,"name":"平和路口","decorType":"bus_stop"},{"id":"node-4169713698","lat":25.000757,"lon":121.485198,"name":"平河里","decorType":"bus_stop"},{"id":"node-4169713699","lat":25.000769,"lon":121.484793,"name":"平河里","decorType":"bus_stop"},{"id":"node-4169713700","lat":24.997001,"lon":121.485029,"name":"心中市","decorType":"bus_stop"},{"id":"node-4169713709","lat":24.994524,"lon":121.487291,"name":"連城路口","decorType":"bus_stop"},{"id":"node-4169713710","lat":24.993818,"lon":121.494141,"name":"雙和醫院","decorType":"bus_stop"},{"id":"node-4169713711","lat":24.994087,"lon":121.494458,"name":"雙和醫院","decorType":"bus_stop"},{"id":"node-4169713712","lat":25.000728,"lon":121.485261,"name":"7-Eleven","decorType":"convenience"},{"id":"node-4169713713","lat":25.006384,"lon":121.484127,"name":"7-Eleven","decorType":"convenience"},{"id":"node-4277687735","lat":24.996463,"lon":121.495698,"name":"悠菓手作烘焙","decorType":"bakery"},{"id":"node-4580834630","lat":24.993267,"lon":121.495952,"name":"Mooni 暮倪","decorType":"restaurant"},{"id":"node-5110489228","lat":25.006143,"lon":121.494746,"name":"博濟宮","decorType":"shrine"},{"id":"node-5110489229","lat":25.006534,"lon":121.495997,"name":"中和乾元宮","decorType":"shrine"},{"id":"node-5444300911","lat":25.004604,"lon":121.490246,"name":"橋和","decorType":"station"},{"id":"node-5444300912","lat":25.002317,"lon":121.49585,"name":"中和","decorType":"station"},{"id":"node-5661164145","lat":25.002201,"lon":121.495628,"name":"連合里","decorType":"bus_stop"},{"id":"node-5804485931","lat":24.996339,"lon":121.488446,"name":"樂活健康鍋","decorType":"restaurant"},{"id":"node-6310595840","lat":24.998665,"lon":121.484943,"name":"川頁居酒屋","decorType":"restaurant"},{"id":"node-6389073478","lat":24.998488,"lon":121.487657,"name":"摩斯漢堡","decorType":"burger"},{"id":"node-6389095974","lat":24.998797,"lon":121.487955,"name":"7-Eleven","decorType":"convenience"},{"id":"node-6389095975","lat":25.004098,"lon":121.487941,"name":"7-Eleven","decorType":"convenience"},{"id":"node-6389095976","lat":25.004775,"lon":121.486593,"name":"全家便利商店","decorType":"convenience"},{"id":"node-6389095977","lat":25.00504,"lon":121.485709,"name":"7-Eleven","decorType":"convenience"},{"id":"node-6389095978","lat":24.99937,"lon":121.483732,"name":"全家便利商店","decorType":"convenience"},{"id":"node-6406949819","lat":24.998984,"lon":121.4849,"name":"中和站","decorType":"bus_stop"},{"id":"node-6408520996","lat":24.998331,"lon":121.486462,"name":"T J Cafe","decorType":"cafe"},{"id":"node-6416162017","lat":25.000284,"lon":121.48536,"name":"The Loft - 沐舍時尚酒店","decorType":"hotel"},{"id":"node-6416219074","lat":24.999049,"lon":121.483865,"name":"天德宮","decorType":"shrine"},{"id":"node-6416251569","lat":24.997757,"lon":121.485553,"name":"郵務收據點","decorType":"post_office"},{"id":"node-6715598490","lat":25.005387,"lon":121.492295,"name":"7-Eleven","decorType":"convenience"},{"id":"node-6843969835","lat":25.005604,"lon":121.492167,"name":"巧味","decorType":"restaurant"},{"id":"node-6852206837","lat":24.997732,"lon":121.485733,"name":"新北市召會32會所","decorType":"shrine"},{"id":"node-7191222738","lat":25.004773,"lon":121.490261,"name":"捷運橋和站1號出口","decorType":"station"},{"id":"node-7217108221","lat":24.997594,"lon":121.487801,"name":"大心","decorType":"restaurant"},{"id":"node-7400899533","lat":24.997275,"lon":121.485465,"name":"中和站","decorType":"bus_stop"},{"id":"node-7653431212","lat":25.006913,"lon":121.487218,"name":"國際科學園區","decorType":"bus_stop"},{"id":"node-7653431213","lat":25.006709,"lon":121.487195,"name":"國際科學園區","decorType":"bus_stop"},{"id":"node-7653431214","lat":25.004487,"lon":121.490191,"name":"捷運橋和站","decorType":"bus_stop"},{"id":"node-7653431215","lat":25.004547,"lon":121.490325,"name":"捷運橋和站","decorType":"bus_stop"},{"id":"node-8118272757","lat":25.006139,"lon":121.494057,"name":"全家便利商店","decorType":"convenience"},{"id":"node-8118272761","lat":25.004735,"lon":121.483249,"name":"全家便利商店","decorType":"convenience"},{"id":"node-8118272762","lat":25.005513,"lon":121.484923,"name":"全家便利商店","decorType":"convenience"},{"id":"node-8222182639","lat":25.000891,"lon":121.487868,"name":"我家牛排","decorType":"restaurant"},{"id":"node-8330698331","lat":25.006253,"lon":121.486091,"name":"原岩中和店","decorType":"stadium"},{"id":"node-8385304882","lat":24.992995,"lon":121.495612,"name":"八方雲集","decorType":"burger"},{"id":"node-8385313239","lat":25.003035,"lon":121.483181,"name":"八方雲集","decorType":"burger"},{"id":"node-8435620680","lat":24.992119,"lon":121.494054,"name":"雙和醫院(院區)","decorType":"bus_stop"},{"id":"node-8442738378","lat":25.002105,"lon":121.495094,"name":"捷運中和站(中山路)","decorType":"bus_stop"},{"id":"node-8442738379","lat":25.002001,"lon":121.493739,"name":"家美工業區","decorType":"bus_stop"},{"id":"node-8442738380","lat":25.002532,"lon":121.492924,"name":"家美工業區","decorType":"bus_stop"},{"id":"node-8458558350","lat":24.993492,"lon":121.487809,"name":"錦和公園","decorType":"bus_stop"},{"id":"node-8458558351","lat":24.996297,"lon":121.48423,"name":"連城中正路口","decorType":"bus_stop"},{"id":"node-8458558352","lat":24.996132,"lon":121.484437,"name":"連城中正路口","decorType":"bus_stop"},{"id":"node-8458558353","lat":24.995492,"lon":121.485272,"name":"瓏山林台北中和飯店","decorType":"bus_stop"},{"id":"node-8458851250","lat":24.992539,"lon":121.490888,"name":"錦和高中","decorType":"bus_stop"},{"id":"node-8458851251","lat":24.9943,"lon":121.490732,"name":"錦和路口","decorType":"bus_stop"},{"id":"node-8460824825","lat":24.99986,"lon":121.483716,"name":"新生街","decorType":"bus_stop"},{"id":"node-8460824827","lat":24.99685,"lon":121.483737,"name":"二八張","decorType":"bus_stop"},{"id":"node-8460824828","lat":24.996763,"lon":121.483612,"name":"二八張","decorType":"bus_stop"},{"id":"node-8460824830","lat":24.99981,"lon":121.483817,"name":"新生街","decorType":"bus_stop"},{"id":"node-8634134673","lat":24.995222,"lon":121.488487,"name":"享享廚室","decorType":"restaurant"},{"id":"node-9104038393","lat":24.996688,"lon":121.492144,"name":"台貿一村","decorType":"bus_stop"},{"id":"node-9104038394","lat":24.996548,"lon":121.49219,"name":"台貿一村","decorType":"bus_stop"},{"id":"node-9441384618","lat":25.005241,"lon":121.488149,"name":"藏壽司","decorType":"burger"},{"id":"node-9660073554","lat":24.996434,"lon":121.4956,"name":"蝦皮店到店","decorType":"convenience"},{"id":"node-9660073555","lat":24.995889,"lon":121.494574,"name":"美廉社","decorType":"supermarket"},{"id":"node-9737465276","lat":24.995881,"lon":121.483705,"name":"洪記涼麵","decorType":"restaurant"},{"id":"node-9807732762","lat":24.996624,"lon":121.491886,"name":"乾一杯","decorType":"restaurant"},{"id":"node-9807732765","lat":24.996609,"lon":121.491797,"name":"山尚碳燒羊肉爐-中和店","decorType":"restaurant"},{"id":"node-9807732766","lat":24.996598,"lon":121.491748,"name":"7-Eleven","decorType":"convenience"},{"id":"node-10076704886","lat":24.998239,"lon":121.487777,"name":"1010湘(中和建一店)","decorType":"restaurant"},{"id":"node-10076730526","lat":24.998436,"lon":121.486614,"name":"富康活力遠東藥局","decorType":"pharmacy"},{"id":"node-10255339490","lat":24.994929,"lon":121.490217,"name":"美廉社","decorType":"supermarket"},{"id":"node-11773856175","lat":25.000112,"lon":121.487877,"name":"路易莎咖啡","decorType":"cafe"},{"id":"node-12737888711","lat":24.995874,"lon":121.483097,"name":"連城路","decorType":"bus_stop"},{"id":"node-12756011102","lat":24.996618,"lon":121.483567,"name":"未命名超市","decorType":"supermarket"},{"id":"node-12756104379","lat":24.996625,"lon":121.483532,"name":"壽司田","decorType":"restaurant"},{"id":"node-13017172681","lat":25.005167,"lon":121.487874,"name":"涮乃葉","decorType":"restaurant"},{"id":"node-13277170990","lat":24.99531,"lon":121.483489,"name":"星笛玲造型坊","decorType":"hair_salon"},{"id":"node-13277171417","lat":24.995743,"lon":121.483672,"name":"日式威廉 連城店","decorType":"hair_salon"},{"id":"node-13277180760","lat":24.998496,"lon":121.484783,"name":"心妍造型美髮","decorType":"hair_salon"},{"id":"node-13277198207","lat":24.996347,"lon":121.483851,"name":"大林男女美髮","decorType":"hair_salon"},{"id":"node-13277198885","lat":24.996087,"lon":121.48798,"name":"すき家Sukiya 中和連城店","decorType":"burger"},{"id":"node-13277199070","lat":24.994518,"lon":121.483596,"name":"洗衫鄰咖逼","decorType":"laundry"},{"id":"node-13277200398","lat":24.998174,"lon":121.487259,"name":"My幾圈 甜點專賣店-新北中和店","decorType":"sweetshop"},{"id":"node-13277217191","lat":24.997901,"lon":121.48828,"name":"起司rock鐵板潛艇堡","decorType":"burger"},{"id":"node-13277222825","lat":24.998449,"lon":121.484937,"name":"美國戴克斯特投幣自助洗","decorType":"laundry"},{"id":"node-13277224234","lat":24.994113,"lon":121.488179,"name":"隆興大型洗衣","decorType":"laundry"},{"id":"node-13277224523","lat":24.996545,"lon":121.492249,"name":"洗多屋自助洗衣店連城二店","decorType":"laundry"},{"id":"node-13277254335","lat":24.995945,"lon":121.483703,"name":"Latee烘焙","decorType":"sweetshop"},{"id":"node-13277256879","lat":24.998086,"lon":121.48934,"name":"aqua烘焙坊","decorType":"sweetshop"},{"id":"node-13279112362","lat":24.996107,"lon":121.485991,"name":"亞霏髮型設計","decorType":"hair_salon"},{"id":"node-13279118197","lat":24.995223,"lon":121.485265,"name":"球球幼犬寵物店","decorType":"zoo"},{"id":"node-13279121376","lat":24.994377,"lon":121.489654,"name":"煒立電器有限公司","decorType":"electronics"},{"id":"node-13279126697","lat":24.996351,"lon":121.483974,"name":"紅冠3C 專業二手買賣","decorType":"electronics"},{"id":"node-13279134728","lat":24.996828,"lon":121.4882,"name":"晉茂五金超商","decorType":"electronics"},{"id":"node-13279144599","lat":24.9961,"lon":121.486284,"name":"菲比髮廊","decorType":"hair_salon"},{"id":"node-13279164869","lat":24.997964,"lon":121.485591,"name":"雲兒工坊","decorType":"sweetshop"},{"id":"node-13279182486","lat":25.000203,"lon":121.484823,"name":"益圓車輪餅","decorType":"sweetshop"},{"id":"node-13279193695","lat":24.995541,"lon":121.483232,"name":"中和-良安藥局","decorType":"pharmacy"},{"id":"node-13279207126","lat":24.997436,"lon":121.48368,"name":"芋仙珍味","decorType":"sweetshop"},{"id":"node-13279207681","lat":24.992635,"lon":121.49094,"name":"錦和高中圖書館","decorType":"library"},{"id":"node-13279214953","lat":25.000942,"lon":121.491369,"name":"空氣島卡丁車 中和場","decorType":"theme_park"},{"id":"node-13279218034","lat":24.993314,"lon":121.488893,"name":"錦和運動公園兒童遊戲場","decorType":"park"},{"id":"node-13282243019","lat":24.995183,"lon":121.483425,"name":"剪丹點 Hair Cut","decorType":"hair_salon"},{"id":"way-74347903","lat":24.992972,"lon":121.485749,"name":"中和交流道","decorType":"bridge"},{"id":"way-107153771","lat":24.992336,"lon":121.485362,"name":"中和交流道","decorType":"bridge"},{"id":"way-111986916","lat":24.999211,"lon":121.493327,"name":"板南路","decorType":"bridge"},{"id":"way-112002646","lat":24.997802,"lon":121.490286,"name":"二八張溪","decorType":"waterside"},{"id":"way-137082550","lat":24.991919,"lon":121.485814,"name":"中和交流道","decorType":"bridge"},{"id":"way-137082552","lat":24.998815,"lon":121.485208,"name":"中和交流道","decorType":"bridge"},{"id":"way-137082560","lat":24.992363,"lon":121.485034,"name":"中和交流道","decorType":"bridge"},{"id":"way-182995611","lat":24.993677,"lon":121.487885,"name":"中正二橋","decorType":"bridge"},{"id":"way-224320918","lat":24.99391,"lon":121.492901,"name":"未命名橋樑","decorType":"bridge"},{"id":"way-234382500","lat":24.99297,"lon":121.485703,"name":"中和交流道","decorType":"bridge"},{"id":"way-253668350","lat":24.992503,"lon":121.488392,"name":"錦和運動公園","decorType":"park"},{"id":"way-255691589","lat":25.002355,"lon":121.494457,"name":"未命名橋樑","decorType":"bridge"},{"id":"way-263195284","lat":24.993557,"lon":121.485849,"name":"中正三橋","decorType":"bridge"},{"id":"way-270270331","lat":25.007414,"lon":121.495332,"name":"未命名橋樑","decorType":"bridge"},{"id":"way-289521675","lat":25.002184,"lon":121.494477,"name":"中山路二段","decorType":"bridge"},{"id":"way-289521676","lat":25.00222,"lon":121.494472,"name":"中山路二段","decorType":"bridge"},{"id":"way-324373494","lat":24.996975,"lon":121.493458,"name":"碧河宮","decorType":"shrine"},{"id":"way-324373499","lat":24.997591,"lon":121.492885,"name":"連城路174巷","decorType":"bridge"},{"id":"way-335375091","lat":24.998345,"lon":121.495214,"name":"未命名橋樑","decorType":"bridge"},{"id":"way-347871699","lat":25.004182,"lon":121.494104,"name":"未命名橋樑","decorType":"bridge"},{"id":"way-385173014","lat":25.005262,"lon":121.496085,"name":"華中橋","decorType":"bridge"},{"id":"way-385173023","lat":25.00632,"lon":121.495315,"name":"未命名橋樑","decorType":"bridge"},{"id":"way-385173027","lat":25.006493,"lon":121.495772,"name":"未命名橋樑","decorType":"bridge"},{"id":"way-385196068","lat":25.005087,"lon":121.49608,"name":"華中橋","decorType":"bridge"},{"id":"way-438399830","lat":24.992981,"lon":121.487465,"name":"新北市中和國民運動中心","decorType":"stadium"},{"id":"way-468467656","lat":25.000004,"lon":121.491504,"name":"碧河里公園","decorType":"park"},{"id":"way-468467658","lat":25.001506,"lon":121.495519,"name":"未命名公園","decorType":"park"},{"id":"way-468467660","lat":25.001863,"lon":121.494953,"name":"景麗婚宴會館","decorType":"restaurant"},{"id":"way-547581975","lat":24.993403,"lon":121.493809,"name":"未命名公園","decorType":"park"},{"id":"way-548106791","lat":24.994562,"lon":121.485858,"name":"未命名公園","decorType":"park"},{"id":"way-548108251","lat":24.993649,"lon":121.486955,"name":"未命名水邊","decorType":"waterside"},{"id":"way-548108252","lat":24.993706,"lon":121.489271,"name":"未命名水邊","decorType":"waterside"},{"id":"way-548108253","lat":24.993737,"lon":121.490869,"name":"未命名水邊","decorType":"waterside"},{"id":"way-548108254","lat":24.993561,"lon":121.48428,"name":"未命名水邊","decorType":"waterside"},{"id":"way-548111260","lat":24.993193,"lon":121.488881,"name":"未命名水邊","decorType":"waterside"},{"id":"way-549062316","lat":24.997452,"lon":121.486726,"name":"未命名公園","decorType":"park"},{"id":"way-549241816","lat":24.993857,"lon":121.490593,"name":"未命名橋樑","decorType":"bridge"},{"id":"way-550414882","lat":24.992039,"lon":121.493807,"name":"未命名公園","decorType":"park"},{"id":"way-550414883","lat":24.991953,"lon":121.493729,"name":"未命名公園","decorType":"park"},{"id":"way-550414889","lat":24.993676,"lon":121.493932,"name":"未命名公園","decorType":"park"},{"id":"way-558414477","lat":25.007289,"lon":121.485069,"name":"元隆公園","decorType":"park"},{"id":"way-628783526","lat":24.994864,"lon":121.485236,"name":"瓏山林台北中和飯店","decorType":"hotel"},{"id":"way-659566468","lat":25.00632,"lon":121.495913,"name":"未命名橋樑","decorType":"bridge"},{"id":"way-689716033","lat":25.003592,"lon":121.494507,"name":"未命名公園","decorType":"park"},{"id":"way-689716036","lat":25.005092,"lon":121.495083,"name":"景平路989巷","decorType":"bridge"},{"id":"way-695857045","lat":24.993746,"lon":121.490648,"name":"中正一橋","decorType":"bridge"},{"id":"way-696115805","lat":25.006837,"lon":121.494812,"name":"未命名橋樑","decorType":"bridge"},{"id":"way-696391782","lat":24.993526,"lon":121.483445,"name":"中正四橋","decorType":"bridge"},{"id":"way-696391786","lat":24.993539,"lon":121.485493,"name":"中正三橋","decorType":"bridge"},{"id":"way-711881186","lat":24.992275,"lon":121.485633,"name":"未命名水邊","decorType":"waterside"},{"id":"way-711881191","lat":24.997315,"lon":121.485233,"name":"中和交流道","decorType":"bridge"},{"id":"way-711881192","lat":24.995666,"lon":121.485343,"name":"中和交流道","decorType":"bridge"},{"id":"way-711881193","lat":24.995663,"lon":121.485409,"name":"中和交流道","decorType":"bridge"},{"id":"way-762683028","lat":24.998848,"lon":121.485095,"name":"中和交流道","decorType":"bridge"},{"id":"way-822004525","lat":25.004322,"lon":121.490407,"name":"捷運橋和站","decorType":"station"},{"id":"way-822576187","lat":24.9936,"lon":121.485563,"name":"中正三橋","decorType":"bridge"},{"id":"way-830061757","lat":25.002043,"lon":121.490067,"name":"未命名公園","decorType":"park"},{"id":"way-844166864","lat":24.992643,"lon":121.492178,"name":"未命名森林","decorType":"forest"},{"id":"way-844166865","lat":24.992251,"lon":121.492085,"name":"未命名森林","decorType":"forest"},{"id":"way-968214212","lat":25.006124,"lon":121.493439,"name":"二八張溪","decorType":"waterside"},{"id":"way-1060033486","lat":25.001411,"lon":121.494497,"name":"未命名橋樑","decorType":"bridge"},{"id":"way-1068381797","lat":24.997345,"lon":121.491862,"name":"連城路194巷","decorType":"bridge"},{"id":"way-1068381799","lat":24.996945,"lon":121.493044,"name":"未命名橋樑","decorType":"bridge"},{"id":"way-1072158441","lat":24.994032,"lon":121.485779,"name":"中和交流道","decorType":"bridge"},{"id":"way-1072158442","lat":24.993567,"lon":121.485781,"name":"中和交流道","decorType":"bridge"},{"id":"way-1072158443","lat":24.994227,"lon":121.485692,"name":"中和交流道","decorType":"bridge"},{"id":"way-1072158444","lat":24.993563,"lon":121.485696,"name":"中和交流道","decorType":"bridge"},{"id":"way-1072158445","lat":24.994543,"lon":121.485509,"name":"中和交流道","decorType":"bridge"},{"id":"way-1072158446","lat":24.993562,"lon":121.485628,"name":"中和交流道","decorType":"bridge"},{"id":"way-1072158447","lat":24.9942,"lon":121.485524,"name":"中和交流道","decorType":"bridge"},{"id":"way-1072158448","lat":24.993564,"lon":121.485532,"name":"中和交流道","decorType":"bridge"},{"id":"way-1188385529","lat":25.006715,"lon":121.493178,"name":"二八張溪","decorType":"waterside"},{"id":"way-1198225128","lat":25.002426,"lon":121.493702,"name":"未命名水邊","decorType":"waterside"},{"id":"way-1198233842","lat":25.004399,"lon":121.495054,"name":"未命名水邊","decorType":"waterside"},{"id":"way-1228832737","lat":25.004352,"lon":121.49044,"name":"未命名公車站","decorType":"bus_stop"},{"id":"way-1228832738","lat":25.004351,"lon":121.490439,"name":"未命名公車站","decorType":"bus_stop"},{"id":"way-1228832739","lat":25.002272,"lon":121.495669,"name":"未命名公車站","decorType":"bus_stop"},{"id":"way-1246055973","lat":25.006023,"lon":121.495484,"name":"未命名森林","decorType":"forest"},{"id":"way-1246055974","lat":25.006402,"lon":121.495781,"name":"未命名森林","decorType":"forest"},{"id":"way-1246055975","lat":25.00701,"lon":121.495608,"name":"未命名森林","decorType":"forest"},{"id":"way-1246055976","lat":25.0057,"lon":121.495734,"name":"未命名橋樑","decorType":"bridge"},{"id":"way-1246055980","lat":25.006953,"lon":121.495047,"name":"未命名森林","decorType":"forest"},{"id":"way-1246274874","lat":25.005993,"lon":121.493486,"name":"未命名橋樑","decorType":"bridge"},{"id":"way-1246274875","lat":25.006664,"lon":121.494769,"name":"未命名公園","decorType":"park"},{"id":"way-1340110307","lat":24.998313,"lon":121.484273,"name":"全聯福利中心","decorType":"supermarket"},{"id":"way-1382609616","lat":25.004226,"lon":121.493958,"name":"二八張溪","decorType":"waterside"},{"id":"way-1382609617","lat":25.002202,"lon":121.494459,"name":"二八張溪","decorType":"waterside"},{"id":"way-1382609619","lat":25.007403,"lon":121.49269,"name":"二八張溪","decorType":"waterside"},{"id":"way-1382609620","lat":25.007116,"lon":121.493112,"name":"未命名水邊","decorType":"waterside"},{"id":"way-1382609638","lat":24.993604,"lon":121.485666,"name":"二八張溪","decorType":"waterside"},{"id":"way-1408707166","lat":24.99611,"lon":121.489585,"name":"綻賞","decorType":"park"},{"id":"way-1418047433","lat":24.994052,"lon":121.492532,"name":"中正路","decorType":"bridge"},{"id":"way-1418047435","lat":24.994155,"lon":121.492662,"name":"中正路","decorType":"bridge"},{"id":"way-1418047436","lat":24.993954,"lon":121.492454,"name":"中正路","decorType":"bridge"},{"id":"way-1418358768","lat":25.002252,"lon":121.495538,"name":"未命名公車站","decorType":"bus_stop"},{"id":"way-1418358772","lat":24.99497,"lon":121.485592,"name":"未命名橋樑","decorType":"bridge"},{"id":"way-1418564215","lat":25.001015,"lon":121.487213,"name":"錦和路","decorType":"bridge"},{"id":"way-1419307372","lat":25.000236,"lon":121.489294,"name":"建康路","decorType":"bridge"},{"id":"way-1423885659","lat":25.001289,"lon":121.487996,"name":"建一路","decorType":"bridge"},{"id":"way-1423885661","lat":25.001306,"lon":121.488092,"name":"建一路","decorType":"bridge"},{"id":"way-1430527522","lat":24.997866,"lon":121.495864,"name":"全聯福利中心","decorType":"supermarket"}]}