{"bbox":{"south":24.991912,"north":25.007519,"west":121.639438,"east":121.652469},"pois":[{"id":"node-2482609159","lat":24.994969,"lon":121.639649,"name":"三貢嶺山","decorType":"mountain"},{"id":"node-2895253175","lat":25.006067,"lon":121.6514,"name":"客家熱炒","decorType":"restaurant"},{"id":"node-2895253176","lat":25.005986,"lon":121.651416,"name":"石碇雙溪口浸信會","decorType":"shrine"},{"id":"node-2895253177","lat":25.005898,"lon":121.651431,"name":"翡翠谷飲食店","decorType":"restaurant"},{"id":"node-2895253178","lat":25.005778,"lon":121.651488,"name":"鮮堡漢堡台北石碇店","decorType":"restaurant"},{"id":"node-2895255106","lat":25.005836,"lon":121.651458,"name":"雙益商店","decorType":"convenience"},{"id":"node-2895255107","lat":25.006241,"lon":121.651485,"name":"7-Eleven","decorType":"convenience"},{"id":"node-2895255108","lat":25.006177,"lon":121.651436,"name":"全家便利商店","decorType":"convenience"},{"id":"node-2895255109","lat":25.005891,"lon":121.65171,"name":"雙溪口","decorType":"bus_stop"},{"id":"node-2895255111","lat":25.005719,"lon":121.651566,"name":"雙溪口","decorType":"bus_stop"},{"id":"node-2907476182","lat":25.000073,"lon":121.652206,"name":"外按橋","decorType":"bus_stop"},{"id":"node-2907476183","lat":25.000052,"lon":121.652037,"name":"外按橋","decorType":"bus_stop"},{"id":"node-4237518592","lat":25.001951,"lon":121.642521,"name":"楓子林山","decorType":"mountain"},{"id":"node-4834782745","lat":24.99862,"lon":121.649098,"name":"未命名神社","decorType":"shrine"},{"id":"node-5340229115","lat":25.006644,"lon":121.651874,"name":"雙溪口","decorType":"bus_stop"},{"id":"node-5340229116","lat":25.006436,"lon":121.651931,"name":"雙溪口","decorType":"bus_stop"},{"id":"node-8432380497","lat":25.007133,"lon":121.652052,"name":"臨時站","decorType":"bus_stop"},{"id":"node-8432380498","lat":25.007108,"lon":121.652106,"name":"臨時站","decorType":"bus_stop"},{"id":"way-198170014","lat":25.000181,"lon":121.651338,"name":"蔣渭水高速公路","decorType":"bridge"},{"id":"way-228558783","lat":25.007463,"lon":121.651656,"name":"未命名橋樑","decorType":"bridge"},{"id":"way-228558785","lat":25.00696,"lon":121.651321,"name":"雙溪橋","decorType":"bridge"},{"id":"way-254103905","lat":25.000205,"lon":121.651432,"name":"蔣渭水高速公路","decorType":"bridge"},{"id":"way-285900232","lat":25.004639,"lon":121.651469,"name":"淡蘭吊橋","decorType":"bridge"},{"id":"way-330764106","lat":25.004678,"lon":121.651084,"name":"未命名橋樑","decorType":"bridge"},{"id":"way-468378593","lat":24.993984,"lon":121.651382,"name":"石碇虎爺公廟","decorType":"shrine"},{"id":"way-481312972","lat":24.998452,"lon":121.639673,"name":"烏月溪","decorType":"waterside"},{"id":"way-545347448","lat":25.00027,"lon":121.651719,"name":"外按橋","decorType":"bridge"},{"id":"way-786459614","lat":24.99215,"lon":121.639681,"name":"未命名橋樑","decorType":"bridge"},{"id":"way-1104494738","lat":25.006952,"lon":121.651335,"name":"雙溪橋","decorType":"bridge"},{"id":"way-1104494741","lat":25.000279,"lon":121.651722,"name":"外按橋","decorType":"bridge"},{"id":"way-1429735384","lat":24.999194,"lon":121.64061,"name":"未命名水邊","decorType":"waterside"},{"id":"way-1430138512","lat":24.99847,"lon":121.649477,"name":"石碇行德慈惠堂","decorType":"shrine"}]}