{"bbox":{"south":24.991912,"north":25.007519,"west":121.457,"east":121.470031},"pois":[{"id":"node-1395806992","lat":24.997367,"lon":121.463679,"name":"7-Eleven","decorType":"convenience"},{"id":"node-1398644370","lat":25.000464,"lon":121.46341,"name":"喫鍋趣","decorType":"restaurant"},{"id":"node-1398644371","lat":24.994674,"lon":121.462101,"name":"全家便利商店","decorType":"convenience"},{"id":"node-1398644381","lat":24.9962,"lon":121.462753,"name":"萊爾富","decorType":"convenience"},{"id":"node-1398644382","lat":24.996137,"lon":121.461505,"name":"7-Eleven","decorType":"convenience"},{"id":"node-1406791543","lat":24.996373,"lon":121.462746,"name":"屈臣氏","decorType":"pharmacy"},{"id":"node-1408111639","lat":24.99628,"lon":121.462996,"name":"滷底撈","decorType":"restaurant"},{"id":"node-1411751314","lat":24.996036,"lon":121.462047,"name":"太師傅便當","decorType":"restaurant"},{"id":"node-1411751315","lat":24.994343,"lon":121.466494,"name":"全家便利商店","decorType":"convenience"},{"id":"node-1411751317","lat":24.996484,"lon":121.463228,"name":"小林髮廊","decorType":"hair_salon"},{"id":"node-1411751318","lat":25.000215,"lon":121.463446,"name":"廣香龍華樓","decorType":"restaurant"},{"id":"node-1411751321","lat":24.99609,"lon":121.462281,"name":"茶的魔手","decorType":"cafe"},{"id":"node-1411751323","lat":24.996265,"lon":121.462243,"name":"池上木片便當","decorType":"restaurant"},{"id":"node-1411751332","lat":24.996057,"lon":121.462133,"name":"未命名自主洗衣店&乾洗店","decorType":"laundry"},{"id":"node-1411751366","lat":25.002157,"lon":121.462834,"name":"萬香台式烤鴨","decorType":"restaurant"},{"id":"node-1411751368","lat":24.996731,"lon":121.463485,"name":"長青連鎖藥局","decorType":"pharmacy"},{"id":"node-1411751369","lat":24.996599,"lon":121.463055,"name":"1/2鬆餅廚房","decorType":"restaurant"},{"id":"node-1412407356","lat":25.005213,"lon":121.462269,"name":"華西街生炒花枝","decorType":"restaurant"},{"id":"node-1412407357","lat":25.002359,"lon":121.462511,"name":"錢都涮涮鍋","decorType":"restaurant"},{"id":"node-1412407361","lat":25.00295,"lon":121.462492,"name":"7-Eleven","decorType":"convenience"},{"id":"node-1415262717","lat":24.999583,"lon":121.462984,"name":"全家便利商店","decorType":"convenience"},{"id":"node-1415262720","lat":25.002116,"lon":121.461026,"name":"7-Eleven","decorType":"convenience"},{"id":"node-1444856613","lat":24.992239,"lon":121.462535,"name":"全家便利商店","decorType":"convenience"},{"id":"node-1444856686","lat":24.993674,"lon":121.464722,"name":"7-Eleven","decorType":"convenience"},{"id":"node-1720302264","lat":24.999572,"lon":121.458316,"name":"全家便利商店","decorType":"convenience"},{"id":"node-1720302266","lat":24.997177,"lon":121.457244,"name":"萊爾富","decorType":"convenience"},{"id":"node-1720305497","lat":24.993424,"lon":121.457351,"name":"全家便利商店","decorType":"convenience"},{"id":"node-1736930333","lat":25.007352,"lon":121.46064,"name":"上越國際髮型","decorType":"hair_salon"},{"id":"node-1736930339","lat":25.007158,"lon":121.461703,"name":"四季便當","decorType":"restaurant"},{"id":"node-1736930355","lat":25.007401,"lon":121.461891,"name":"蘇菲雅婚紗社","decorType":"clothing"},{"id":"node-1736930358","lat":25.007111,"lon":121.460396,"name":"7-Eleven","decorType":"convenience"},{"id":"node-1818561593","lat":24.996105,"lon":121.461322,"name":"康是美","decorType":"pharmacy"},{"id":"node-1994678577","lat":24.994811,"lon":121.466071,"name":"家樂福","decorType":"supermarket"},{"id":"node-1994678593","lat":24.994572,"lon":121.466232,"name":"7-Eleven","decorType":"convenience"},{"id":"node-1994678937","lat":24.995206,"lon":121.465943,"name":"美廉社","decorType":"supermarket"},{"id":"node-1994679275","lat":24.995766,"lon":121.464996,"name":"7-Eleven","decorType":"convenience"},{"id":"node-1994679606","lat":24.995841,"lon":121.464661,"name":"美廉社","decorType":"supermarket"},{"id":"node-1994680391","lat":24.996571,"lon":121.46648,"name":"江浙小館","decorType":"restaurant"},{"id":"node-2602834665","lat":24.994523,"lon":121.46133,"name":"OK超商","decorType":"convenience"},{"id":"node-2602834691","lat":25.0019,"lon":121.460866,"name":"中興醫院","decorType":"bus_stop"},{"id":"node-2602834697","lat":25.001978,"lon":121.460523,"name":"中興醫院","decorType":"bus_stop"},{"id":"node-2602834702","lat":24.995314,"lon":121.463165,"name":"五權街口","decorType":"bus_stop"},{"id":"node-2602834716","lat":24.995727,"lon":121.463388,"name":"五權街口","decorType":"bus_stop"},{"id":"node-2602834722","lat":25.001861,"lon":121.460762,"name":"全家便利商店","decorType":"convenience"},{"id":"node-2602834726","lat":24.997355,"lon":121.464421,"name":"壽德新村","decorType":"bus_stop"},{"id":"node-2602834734","lat":24.997614,"lon":121.464056,"name":"壽德新村","decorType":"bus_stop"},{"id":"node-2602834740","lat":25.001385,"lon":121.463021,"name":"重慶忠孝路口","decorType":"bus_stop"},{"id":"node-2602834745","lat":25.001659,"lon":121.462702,"name":"重慶忠孝路口","decorType":"bus_stop"},{"id":"node-2602834748","lat":25.002153,"lon":121.462485,"name":"忠孝路","decorType":"bus_stop"},{"id":"node-2602834752","lat":25.00226,"lon":121.462279,"name":"忠孝路","decorType":"bus_stop"},{"id":"node-2602834764","lat":25.001562,"lon":121.462718,"name":"清心福全","decorType":"cafe"},{"id":"node-2602834768","lat":25.002644,"lon":121.459904,"name":"福星里","decorType":"bus_stop"},{"id":"node-2602834774","lat":25.00275,"lon":121.459736,"name":"福星里","decorType":"bus_stop"},{"id":"node-2602834820","lat":24.998299,"lon":121.463773,"name":"重慶國中","decorType":"bus_stop"},{"id":"node-2602834822","lat":24.998572,"lon":121.4639,"name":"重慶國中","decorType":"bus_stop"},{"id":"node-2602834825","lat":24.994542,"lon":121.461386,"name":"重慶國小","decorType":"bus_stop"},{"id":"node-2602834828","lat":24.994829,"lon":121.46208,"name":"重慶國小","decorType":"bus_stop"},{"id":"node-2602834833","lat":24.998801,"lon":121.463625,"name":"飯匠","decorType":"restaurant"},{"id":"node-2611788691","lat":24.995262,"lon":121.457808,"name":"信義路","decorType":"bus_stop"},{"id":"node-2611788692","lat":24.995358,"lon":121.45754,"name":"信義路","decorType":"bus_stop"},{"id":"node-2611788694","lat":24.996089,"lon":121.461236,"name":"大同3C","decorType":"electronics"},{"id":"node-2611788695","lat":25.007009,"lon":121.461824,"name":"審計公廨","decorType":"bus_stop"},{"id":"node-2611788696","lat":25.007035,"lon":121.461753,"name":"審計公廨","decorType":"bus_stop"},{"id":"node-2611788697","lat":25.003848,"lon":121.462457,"name":"後埔國小","decorType":"bus_stop"},{"id":"node-2611788698","lat":25.003916,"lon":121.462353,"name":"後埔國小","decorType":"bus_stop"},{"id":"node-2611788699","lat":25.007253,"lon":121.460896,"name":"後站商圈","decorType":"bus_stop"},{"id":"node-2611788700","lat":25.007226,"lon":121.461102,"name":"摩斯漢堡","decorType":"burger"},{"id":"node-2611788704","lat":24.994392,"lon":121.459842,"name":"板橋後站","decorType":"bus_stop"},{"id":"node-2611788705","lat":24.994515,"lon":121.459806,"name":"板橋後站","decorType":"bus_stop"},{"id":"node-2611788709","lat":24.995953,"lon":121.460634,"name":"狀元麵館","decorType":"restaurant"},{"id":"node-2611788711","lat":24.997803,"lon":121.463344,"name":"重慶國中 (國慶路)","decorType":"bus_stop"},{"id":"node-2611788713","lat":25.000133,"lon":121.463465,"name":"追樂火鍋","decorType":"restaurant"},{"id":"node-2615807704","lat":25.005808,"lon":121.463828,"name":"實踐成都街口","decorType":"bus_stop"},{"id":"node-2615807706","lat":25.005916,"lon":121.46397,"name":"實踐成都街口","decorType":"bus_stop"},{"id":"node-2615807708","lat":25.003505,"lon":121.464266,"name":"後埔國小","decorType":"bus_stop"},{"id":"node-2615807712","lat":25.004034,"lon":121.464296,"name":"後埔國小","decorType":"bus_stop"},{"id":"node-3048390249","lat":25.00028,"lon":121.462955,"name":"茶湯會","decorType":"cafe"},{"id":"node-3166784688","lat":24.992701,"lon":121.464741,"name":"五權公園","decorType":"bus_stop"},{"id":"node-3166784689","lat":24.992729,"lon":121.464564,"name":"五權公園","decorType":"bus_stop"},{"id":"node-3166784690","lat":24.993903,"lon":121.466492,"name":"壽德街口","decorType":"bus_stop"},{"id":"node-3166784691","lat":24.993694,"lon":121.465972,"name":"壽德街口","decorType":"bus_stop"},{"id":"node-3166784692","lat":24.992601,"lon":121.460087,"name":"干城路口","decorType":"bus_stop"},{"id":"node-3166784693","lat":24.992779,"lon":121.460084,"name":"干城路口","decorType":"bus_stop"},{"id":"node-3166784696","lat":25.003779,"lon":121.469671,"name":"德光路","decorType":"bus_stop"},{"id":"node-3166784697","lat":25.003947,"lon":121.469641,"name":"德光路","decorType":"bus_stop"},{"id":"node-3166784700","lat":25.001574,"lon":121.468929,"name":"民德路口","decorType":"bus_stop"},{"id":"node-3166784701","lat":25.00192,"lon":121.468754,"name":"民德路口","decorType":"bus_stop"},{"id":"node-3166789018","lat":24.99998,"lon":121.468692,"name":"自強國小 (民德路)","decorType":"bus_stop"},{"id":"node-3166789019","lat":24.999783,"lon":121.468506,"name":"自強國小 (民德路)","decorType":"bus_stop"},{"id":"node-3166789022","lat":24.997233,"lon":121.467892,"name":"華福街口","decorType":"bus_stop"},{"id":"node-3166789023","lat":24.997574,"lon":121.468101,"name":"華福街口","decorType":"bus_stop"},{"id":"node-3243957044","lat":25.004539,"lon":121.459917,"name":"鄉雲里","decorType":"bus_stop"},{"id":"node-3243957045","lat":25.004694,"lon":121.458019,"name":"全家便利商店","decorType":"convenience"},{"id":"node-3243957046","lat":25.003078,"lon":121.457023,"name":"貴興路","decorType":"bus_stop"},{"id":"node-3312142361","lat":24.991953,"lon":121.468146,"name":"7-Eleven","decorType":"convenience"},{"id":"node-3317275801","lat":24.999958,"lon":121.458217,"name":"仁愛新村","decorType":"bus_stop"},{"id":"node-3317275802","lat":24.999753,"lon":121.458404,"name":"仁愛新村","decorType":"bus_stop"},{"id":"node-3317275848","lat":25.006987,"lon":121.458772,"name":"館前西路","decorType":"bus_stop"},{"id":"node-3317275853","lat":24.997211,"lon":121.457205,"name":"豫章工商","decorType":"bus_stop"},{"id":"node-3317275854","lat":24.997446,"lon":121.457091,"name":"豫章工商","decorType":"bus_stop"},{"id":"node-3317275855","lat":25.005547,"lon":121.459593,"name":"鄉雲里","decorType":"bus_stop"},{"id":"node-3336564655","lat":25.003199,"lon":121.468238,"name":"民德路","decorType":"bus_stop"},{"id":"node-3336564656","lat":25.003299,"lon":121.468034,"name":"民德路","decorType":"bus_stop"},{"id":"node-3336564663","lat":25.002686,"lon":121.465955,"name":"福德里","decorType":"bus_stop"},{"id":"node-3336564664","lat":25.002721,"lon":121.465368,"name":"福德里","decorType":"bus_stop"},{"id":"node-3336565997","lat":24.994152,"lon":121.46811,"name":"華安街口","decorType":"bus_stop"},{"id":"node-3336565998","lat":24.994153,"lon":121.46838,"name":"華安街口","decorType":"bus_stop"},{"id":"node-3336660150","lat":24.993663,"lon":121.457205,"name":"益華紡織","decorType":"bus_stop"},{"id":"node-3336660151","lat":24.99338,"lon":121.457755,"name":"益華紡織","decorType":"bus_stop"},{"id":"node-3419805451","lat":25.005534,"lon":121.45703,"name":"白新洗衣連鎖","decorType":"laundry"},{"id":"node-3444671405","lat":25.005762,"lon":121.461965,"name":"平價牛排","decorType":"restaurant"},{"id":"node-3444671406","lat":25.005851,"lon":121.461951,"name":"山東最佳典飯","decorType":"restaurant"},{"id":"node-3444671408","lat":25.006084,"lon":121.461889,"name":"聯強電信","decorType":"electronics"},{"id":"node-3444671410","lat":25.006229,"lon":121.46187,"name":"MICHA","decorType":"bakery"},{"id":"node-3444671418","lat":25.006456,"lon":121.461821,"name":"全聯福利中心","decorType":"supermarket"},{"id":"node-3444671419","lat":25.006367,"lon":121.461833,"name":"三井3C","decorType":"electronics"},{"id":"node-3444671420","lat":25.006417,"lon":121.46158,"name":"金色年代旅店","decorType":"hotel"},{"id":"node-3444671427","lat":25.006375,"lon":121.461973,"name":"芊翔男士禮服","decorType":"clothing"},{"id":"node-3444671429","lat":25.006513,"lon":121.461941,"name":"媽咪亞媽媽裝","decorType":"clothing"},{"id":"node-3444671431","lat":25.006671,"lon":121.461902,"name":"LARKE Hair","decorType":"hair_salon"},{"id":"node-3444671432","lat":25.006754,"lon":121.461888,"name":"南北電子材料行","decorType":"hardware"},{"id":"node-3444671437","lat":25.00694,"lon":121.461745,"name":"全家便利商店","decorType":"convenience"},{"id":"node-3444671438","lat":25.007015,"lon":121.461734,"name":"布拉格精品婚紗","decorType":"clothing"},{"id":"node-3444671439","lat":25.006938,"lon":121.461861,"name":"懿品小珍","decorType":"restaurant"},{"id":"node-3444671440","lat":25.007011,"lon":121.461856,"name":"拓元西服名店","decorType":"clothing"},{"id":"node-3444671443","lat":25.007334,"lon":121.461667,"name":"法緹新絲路","decorType":"clothing"},{"id":"node-3444713869","lat":25.007471,"lon":121.462398,"name":"Acer宏碁授權服務中心","decorType":"electronics"},{"id":"node-3444713872","lat":25.007375,"lon":121.462274,"name":"首府大旅社","decorType":"hotel"},{"id":"node-3444713998","lat":25.007338,"lon":121.461578,"name":"日式威廉","decorType":"hair_salon"},{"id":"node-3444714000","lat":25.007184,"lon":121.460558,"name":"It","decorType":"clothing"},{"id":"node-3444714001","lat":25.00731,"lon":121.461359,"name":"ABK","decorType":"clothing"},{"id":"node-3444714002","lat":25.007296,"lon":121.461284,"name":"紗法亞婚紗","decorType":"clothing"},{"id":"node-3472560493","lat":25.007356,"lon":121.459709,"name":"上海銀鳳樓","decorType":"restaurant"},{"id":"node-3473061993","lat":25.00729,"lon":121.459672,"name":"街角二彌","decorType":"restaurant"},{"id":"node-3671191750","lat":25.000318,"lon":121.463424,"name":"擎天通訊","decorType":"electronics"},{"id":"node-3671191751","lat":25.000379,"lon":121.463421,"name":"寶雅板橋重慶店","decorType":"supermarket"},{"id":"node-3712942720","lat":25.001115,"lon":121.468753,"name":"中和國光街郵局","decorType":"post_office"},{"id":"node-3940358065","lat":25.005072,"lon":121.461617,"name":"Osteria Vecchia Roma","decorType":"restaurant"},{"id":"node-4101227397","lat":25.000796,"lon":121.468904,"name":"郵局口滷味","decorType":"restaurant"},{"id":"node-4101259389","lat":24.996276,"lon":121.4628,"name":"國慶路鹽水雞","decorType":"restaurant"},{"id":"node-4105656290","lat":25.007213,"lon":121.460783,"name":"阿國麻辣麵線","decorType":"restaurant"},{"id":"node-4147389961","lat":24.996133,"lon":121.461718,"name":"郵局","decorType":"bus_stop"},{"id":"node-4147389962","lat":24.995592,"lon":121.459779,"name":"7-Eleven","decorType":"convenience"},{"id":"node-4147389966","lat":24.998904,"lon":121.463345,"name":"素食炸物","decorType":"restaurant"},{"id":"node-4149477983","lat":25.006748,"lon":121.457229,"name":"宮賓旅舍","decorType":"hotel"},{"id":"node-4149484092","lat":25.007035,"lon":121.457425,"name":"館前西路","decorType":"bus_stop"},{"id":"node-4152025089","lat":25.00482,"lon":121.457845,"name":"泰味廚房","decorType":"restaurant"},{"id":"node-4258235954","lat":24.992481,"lon":121.458654,"name":"晟揚骨科診所","decorType":"pharmacy"},{"id":"node-4258235955","lat":24.992666,"lon":121.459121,"name":"光頭呂蔥抓餅","decorType":"burger"},{"id":"node-4258255075","lat":24.992203,"lon":121.458897,"name":"軒源藥局","decorType":"pharmacy"},{"id":"node-4258264108","lat":24.99195,"lon":121.458816,"name":"山葡萄家常食窟","decorType":"restaurant"},{"id":"node-4258266156","lat":24.991914,"lon":121.458719,"name":"7-Eleven","decorType":"convenience"},{"id":"node-4315304909","lat":25.007334,"lon":121.460505,"name":"零時差","decorType":"restaurant"},{"id":"node-4405357992","lat":25.003093,"lon":121.459899,"name":"85度C","decorType":"cafe"},{"id":"node-4631479065","lat":25.001062,"lon":121.468774,"name":"7-Eleven","decorType":"convenience"},{"id":"node-4631479066","lat":25.001011,"lon":121.468991,"name":"民德豆漿大王","decorType":"restaurant"},{"id":"node-4631479067","lat":25.002045,"lon":121.468977,"name":"7-Eleven","decorType":"convenience"},{"id":"node-4674829790","lat":24.997521,"lon":121.467553,"name":"明漢參藥號中藥行","decorType":"pharmacy"},{"id":"node-4736039022","lat":25.00688,"lon":121.459134,"name":"檸檬草","decorType":"restaurant"},{"id":"node-4846801484","lat":24.994608,"lon":121.460831,"name":"小潘蛋糕坊","decorType":"sweetshop"},{"id":"node-4846801485","lat":24.99614,"lon":121.461569,"name":"喬治藥局","decorType":"pharmacy"},{"id":"node-4846801488","lat":24.996238,"lon":121.462057,"name":"伊雷名店","decorType":"clothing"},{"id":"node-4846801490","lat":24.99635,"lon":121.462622,"name":"躍獅國慶藥局","decorType":"pharmacy"},{"id":"node-4846801491","lat":24.996095,"lon":121.46236,"name":"漁城","decorType":"restaurant"},{"id":"node-4846801492","lat":24.997952,"lon":121.463583,"name":"永和豆漿大王","decorType":"restaurant"},{"id":"node-4846801496","lat":24.997702,"lon":121.463622,"name":"欣欣書坊","decorType":"library"},{"id":"node-4846801498","lat":24.997569,"lon":121.463638,"name":"八方雲集","decorType":"burger"},{"id":"node-4846801499","lat":24.997615,"lon":121.46363,"name":"佇品重慶店","decorType":"restaurant"},{"id":"node-4846801500","lat":24.99716,"lon":121.463652,"name":"派克脆皮雞排","decorType":"restaurant"},{"id":"node-4846801502","lat":24.99696,"lon":121.463589,"name":"元氣家族麵飯館","decorType":"restaurant"},{"id":"node-4846801503","lat":24.996636,"lon":121.463434,"name":"虎威牛排","decorType":"restaurant"},{"id":"node-4846801504","lat":24.996387,"lon":121.46311,"name":"樂聚鍋物","decorType":"restaurant"},{"id":"node-4846801505","lat":24.996535,"lon":121.463308,"name":"Speed hair salon","decorType":"hair_salon"},{"id":"node-5024556722","lat":24.9969,"lon":121.465385,"name":"阿舜平價牛排","decorType":"restaurant"},{"id":"node-5344584424","lat":25.003521,"lon":121.457327,"name":"炒之莊快炒","decorType":"restaurant"},{"id":"node-5344586026","lat":25.003841,"lon":121.457636,"name":"八方雲集","decorType":"burger"},{"id":"node-5344605623","lat":25.003364,"lon":121.457351,"name":"隨緣素食","decorType":"restaurant"},{"id":"node-5563238221","lat":24.995518,"lon":121.458267,"name":"貴族世家","decorType":"restaurant"},{"id":"node-5707055581","lat":25.002386,"lon":121.463139,"name":"鍋賣局百元小火鍋-板橋忠孝店","decorType":"restaurant"},{"id":"node-5707055582","lat":25.002387,"lon":121.463069,"name":"食為天餡餅粥麵食館","decorType":"restaurant"},{"id":"node-5707055584","lat":25.002606,"lon":121.464369,"name":"全家便利商店","decorType":"convenience"},{"id":"node-5707055585","lat":25.002551,"lon":121.464112,"name":"三媽臭臭鍋-板橋忠孝店","decorType":"restaurant"},{"id":"node-5707055586","lat":25.002547,"lon":121.463951,"name":"潮味決","decorType":"restaurant"},{"id":"node-6029650168","lat":25.001402,"lon":121.462783,"name":"老五鍋貼","decorType":"restaurant"},{"id":"node-6029650181","lat":24.998823,"lon":121.463356,"name":"S&D COFFEE SHOP","decorType":"cafe"},{"id":"node-6029650182","lat":24.998133,"lon":121.463875,"name":"益堂麵包店","decorType":"bakery"},{"id":"node-6029650183","lat":25.00057,"lon":121.463771,"name":"全聯福利中心","decorType":"supermarket"},{"id":"node-6029650184","lat":25.002887,"lon":121.464391,"name":"板橋後埔郵局","decorType":"post_office"},{"id":"node-6440290229","lat":25.007209,"lon":121.459845,"name":"路易莎咖啡","decorType":"cafe"},{"id":"node-6843954135","lat":25.004259,"lon":121.457578,"name":"炒飯製研所","decorType":"restaurant"},{"id":"node-6977230090","lat":24.999417,"lon":121.468653,"name":"全聯福利中心","decorType":"supermarket"},{"id":"node-7187435758","lat":24.997436,"lon":121.457279,"name":"佑全板橋四川藥局","decorType":"pharmacy"},{"id":"node-7657301108","lat":25.007096,"lon":121.458285,"name":"館前西路口","decorType":"bus_stop"},{"id":"node-7777546503","lat":24.995371,"lon":121.457229,"name":"全家便利商店","decorType":"convenience"},{"id":"node-7918938742","lat":24.999507,"lon":121.458853,"name":"阿香仁愛餛飩麵","decorType":"restaurant"},{"id":"node-8118272829","lat":25.007139,"lon":121.459274,"name":"全家便利商店","decorType":"convenience"},{"id":"node-8385313228","lat":24.994271,"lon":121.466382,"name":"八方雲集","decorType":"burger"},{"id":"node-8385313751","lat":25.003874,"lon":121.469385,"name":"八方雲集","decorType":"burger"},{"id":"node-8385313824","lat":25.00503,"lon":121.464164,"name":"八方雲集","decorType":"burger"},{"id":"node-8600762316","lat":25.002498,"lon":121.459568,"name":"Just Kitchen - Banqiao","decorType":"restaurant"},{"id":"node-9229352490","lat":25.002075,"lon":121.460752,"name":"星巴克","decorType":"cafe"},{"id":"node-9229352494","lat":25.002026,"lon":121.460588,"name":"屈臣氏","decorType":"pharmacy"},{"id":"node-9229352495","lat":25.002024,"lon":121.460452,"name":"肯德基","decorType":"burger"},{"id":"node-9229352496","lat":25.00185,"lon":121.460584,"name":"全國電子","decorType":"electronics"},{"id":"node-9229352497","lat":25.001819,"lon":121.460447,"name":"杏一藥局","decorType":"pharmacy"},{"id":"node-9229352498","lat":25.001794,"lon":121.460283,"name":"大樹藥局","decorType":"pharmacy"},{"id":"node-9229352500","lat":25.002532,"lon":121.459818,"name":"萬壽專業藥局","decorType":"pharmacy"},{"id":"node-9229352502","lat":25.003034,"lon":121.459848,"name":"OK超商","decorType":"convenience"},{"id":"node-9229352504","lat":25.00459,"lon":121.459742,"name":"7-Eleven","decorType":"convenience"},{"id":"node-9229352505","lat":25.005366,"lon":121.459892,"name":"順發3C","decorType":"electronics"},{"id":"node-9229352506","lat":25.00555,"lon":121.459537,"name":"鞋全家福","decorType":"clothing"},{"id":"node-9229352515","lat":25.003997,"lon":121.462532,"name":"小倆口麵飯館","decorType":"restaurant"},{"id":"node-9229352516","lat":25.00426,"lon":121.464099,"name":"罕多咖啡","decorType":"cafe"},{"id":"node-9229363417","lat":25.00427,"lon":121.464359,"name":"肉多多火鍋","decorType":"restaurant"},{"id":"node-9229363419","lat":25.007099,"lon":121.463558,"name":"7-Eleven","decorType":"convenience"},{"id":"node-9229363420","lat":25.007136,"lon":121.463824,"name":"四海遊龍","decorType":"restaurant"},{"id":"node-9229363421","lat":25.007287,"lon":121.460105,"name":"7-Eleven","decorType":"convenience"},{"id":"node-9229363426","lat":25.006072,"lon":121.459771,"name":"全家便利商店","decorType":"convenience"},{"id":"node-9229363429","lat":25.005282,"lon":121.464168,"name":"7-Eleven","decorType":"convenience"},{"id":"node-9229363430","lat":25.004794,"lon":121.464205,"name":"高野電器","decorType":"electronics"},{"id":"node-9229363431","lat":25.0047,"lon":121.464232,"name":"必勝客","decorType":"restaurant"},{"id":"node-9229363433","lat":25.002817,"lon":121.46456,"name":"梁社漢排骨","decorType":"restaurant"},{"id":"node-9229363434","lat":25.002673,"lon":121.464619,"name":"馬可先生","decorType":"bakery"},{"id":"node-9229363435","lat":25.000807,"lon":121.463287,"name":"全家便利商店","decorType":"convenience"},{"id":"node-9229363439","lat":24.999652,"lon":121.463059,"name":"甘泉魚麵","decorType":"restaurant"},{"id":"node-9345396828","lat":24.992026,"lon":121.468154,"name":"初食早午參","decorType":"cafe"},{"id":"node-9351908807","lat":25.002564,"lon":121.464028,"name":"蝦皮店到店","decorType":"convenience"},{"id":"node-9414479537","lat":24.992903,"lon":121.464688,"name":"蝦皮店到店","decorType":"convenience"},{"id":"node-9424219899","lat":25.005374,"lon":121.465333,"name":"蝦皮店到店","decorType":"convenience"},{"id":"node-9424219900","lat":25.00516,"lon":121.465173,"name":"美廉社","decorType":"supermarket"},{"id":"node-9660073556","lat":24.996608,"lon":121.466058,"name":"蝦皮店到店","decorType":"convenience"},{"id":"node-9742765546","lat":24.994259,"lon":121.459686,"name":"板橋後站","decorType":"bus_stop"},{"id":"node-9742765547","lat":24.994282,"lon":121.459587,"name":"板橋後站","decorType":"bus_stop"},{"id":"node-9778464150","lat":24.996345,"lon":121.463492,"name":"夏天洗衣坊","decorType":"laundry"},{"id":"node-9867852316","lat":25.002291,"lon":121.459457,"name":"麻古茶坊","decorType":"cafe"},{"id":"node-9867874517","lat":25.002402,"lon":121.459498,"name":"50嵐","decorType":"cafe"},{"id":"node-9867874518","lat":24.99966,"lon":121.458364,"name":"圓石","decorType":"cafe"},{"id":"node-10003414192","lat":24.99243,"lon":121.46798,"name":"美廉社","decorType":"supermarket"},{"id":"node-10074070860","lat":24.993452,"lon":121.462482,"name":"OK超商","decorType":"convenience"},{"id":"node-10074094594","lat":24.994235,"lon":121.46229,"name":"麥味登","decorType":"restaurant"},{"id":"node-10074098992","lat":24.998667,"lon":121.466749,"name":"品漾早午餐","decorType":"restaurant"},{"id":"node-10074104477","lat":24.999515,"lon":121.46838,"name":"南崁聯福利中心","decorType":"supermarket"},{"id":"node-10074143500","lat":24.995351,"lon":121.465829,"name":"麥味登","decorType":"restaurant"},{"id":"node-10074143501","lat":24.998458,"lon":121.466317,"name":"全家便利商店","decorType":"convenience"},{"id":"node-10074174608","lat":24.999657,"lon":121.468662,"name":"萊爾富","decorType":"convenience"},{"id":"node-10074177993","lat":24.993294,"lon":121.457909,"name":"愛登堡早餐店","decorType":"restaurant"},{"id":"node-10092610298","lat":24.992705,"lon":121.463465,"name":"鍋寶寶火鍋店","decorType":"restaurant"},{"id":"node-10720170447","lat":25.003275,"lon":121.462034,"name":"麥味登","decorType":"restaurant"},{"id":"node-11061673373","lat":25.007369,"lon":121.460682,"name":"陸品藥局","decorType":"pharmacy"},{"id":"node-11061673377","lat":25.007036,"lon":121.460404,"name":"清翼居旅店","decorType":"hotel"},{"id":"node-11061673378","lat":25.007279,"lon":121.460028,"name":"台北輕旅複合式旅店","decorType":"hotel"},{"id":"node-11061673379","lat":25.007425,"lon":121.462179,"name":"有之和牛","decorType":"restaurant"},{"id":"node-12183735306","lat":24.998255,"lon":121.46346,"name":"牛肉麵","decorType":"restaurant"},{"id":"node-12455471654","lat":25.007348,"lon":121.465246,"name":"故事屋（文學館）","decorType":"library"},{"id":"node-12570502800","lat":25.006772,"lon":121.459871,"name":"Yen Inn","decorType":"hotel"},{"id":"node-13167277060","lat":25.005497,"lon":121.464108,"name":"全家便利商店","decorType":"convenience"},{"id":"node-13167277097","lat":25.005717,"lon":121.464069,"name":"宇宙手作烘培日式料理","decorType":"restaurant"},{"id":"node-13172649187","lat":25.005647,"lon":121.463791,"name":"食代不同","decorType":"restaurant"},{"id":"node-13172649188","lat":25.005603,"lon":121.463811,"name":"甘泉魚麵","decorType":"restaurant"},{"id":"node-13172649189","lat":25.005544,"lon":121.463819,"name":"Hi 姐姐早午餐","decorType":"restaurant"},{"id":"node-13172742942","lat":25.006535,"lon":121.463877,"name":"碳燒羊肉專賣店","decorType":"restaurant"},{"id":"node-13172744105","lat":25.007463,"lon":121.463674,"name":"JSMIX 大尺碼服飾","decorType":"clothing"},{"id":"node-13172744108","lat":25.007234,"lon":121.463481,"name":"大魔大滿足鍋物","decorType":"restaurant"},{"id":"node-13172749082","lat":25.006516,"lon":121.463664,"name":"星辰藥局","decorType":"pharmacy"},{"id":"node-13245435528","lat":24.995894,"lon":121.464991,"name":"壽德里活動中心","decorType":"bus_stop"},{"id":"node-13245435529","lat":24.995917,"lon":121.46486,"name":"壽德里活動中心","decorType":"bus_stop"},{"id":"node-13245435531","lat":24.996717,"lon":121.465355,"name":"全家便利商店","decorType":"convenience"},{"id":"node-13245484550","lat":24.995028,"lon":121.466116,"name":"壽德街","decorType":"bus_stop"},{"id":"node-13245484551","lat":24.994873,"lon":121.466077,"name":"壽德街","decorType":"bus_stop"},{"id":"node-13247159726","lat":24.993547,"lon":121.46765,"name":"臨洋港生猛活海鮮","decorType":"restaurant"},{"id":"node-13249467115","lat":24.992621,"lon":121.467745,"name":"外婆家古早味蛋糕","decorType":"sweetshop"},{"id":"node-13249467116","lat":24.992667,"lon":121.467998,"name":"石頭厝土魠魚羹","decorType":"restaurant"},{"id":"node-13249467119","lat":24.992092,"lon":121.468155,"name":"采佳早午餐","decorType":"restaurant"},{"id":"node-13249467191","lat":24.992838,"lon":121.467682,"name":"弘爺漢堡","decorType":"burger"},{"id":"node-13249467192","lat":24.992942,"lon":121.467659,"name":"萊爾富","decorType":"convenience"},{"id":"node-13249467194","lat":24.99307,"lon":121.467816,"name":"聯興糕點","decorType":"sweetshop"},{"id":"node-13371462905","lat":24.996088,"lon":121.462091,"name":"郵局","decorType":"bus_stop"},{"id":"node-13413775724","lat":24.99972,"lon":121.468641,"name":"萊爾富","decorType":"convenience"},{"id":"node-13423799026","lat":25.001033,"lon":121.465564,"name":"萊爾富","decorType":"convenience"},{"id":"way-127293849","lat":24.996223,"lon":121.459984,"name":"兒童公園","decorType":"park"},{"id":"way-130008118","lat":24.995709,"lon":121.461481,"name":"國慶郵局","decorType":"post_office"},{"id":"way-182876068","lat":24.997523,"lon":121.468426,"name":"明德公園","decorType":"park"},{"id":"way-182876069","lat":24.995719,"lon":121.467805,"name":"未命名公園","decorType":"park"},{"id":"way-204011428","lat":24.992673,"lon":121.465185,"name":"五權公園","decorType":"park"},{"id":"way-255867130","lat":25.007275,"lon":121.466048,"name":"中華電信學院餐廳","decorType":"restaurant"},{"id":"way-281751881","lat":25.005801,"lon":121.467236,"name":"沙坑","decorType":"park"},{"id":"way-292201560","lat":25.007499,"lon":121.458139,"name":"馥都飯店","decorType":"hotel"},{"id":"way-324504885","lat":24.997631,"lon":121.464727,"name":"和平公園","decorType":"park"},{"id":"way-324504886","lat":24.997576,"lon":121.465019,"name":"華福公園","decorType":"park"},{"id":"way-334980062","lat":25.001746,"lon":121.456908,"name":"愛買","decorType":"supermarket"},{"id":"way-337375565","lat":25.005906,"lon":121.462082,"name":"冠君大飯店","decorType":"hotel"},{"id":"way-337375567","lat":25.006708,"lon":121.461677,"name":"HERANS愛倫斯精品婚紗會館","decorType":"clothing"},{"id":"way-337375568","lat":25.006843,"lon":121.461929,"name":"法拉莉婚紗","decorType":"clothing"},{"id":"way-337375569","lat":25.00729,"lon":121.46184,"name":"希臘婚禮","decorType":"clothing"},{"id":"way-337379753","lat":25.007331,"lon":121.461962,"name":"後埔福德宮","decorType":"shrine"},{"id":"way-400094339","lat":24.997404,"lon":121.459995,"name":"新北市立圖書館板橋忠孝分館","decorType":"library"},{"id":"way-583175432","lat":24.998895,"lon":121.469045,"name":"清穗公園","decorType":"park"},{"id":"way-734380152","lat":24.998427,"lon":121.456095,"name":"未命名公園","decorType":"park"},{"id":"way-808001748","lat":24.993922,"lon":121.461244,"name":"和平路安樂巷8弄","decorType":"bridge"},{"id":"way-808001769","lat":24.994339,"lon":121.461243,"name":"A-Mart","decorType":"convenience"},{"id":"way-999820273","lat":24.999568,"lon":121.463883,"name":"板橋福德祠","decorType":"shrine"},{"id":"way-1244833333","lat":24.994192,"lon":121.467157,"name":"未命名公園","decorType":"park"},{"id":"way-1244959768","lat":24.993123,"lon":121.465945,"name":"未命名公園","decorType":"park"},{"id":"way-1245262236","lat":24.996589,"lon":121.46947,"name":"未命名公園","decorType":"park"},{"id":"way-1245262237","lat":24.99645,"lon":121.46948,"name":"未命名公園","decorType":"park"},{"id":"way-1245262238","lat":24.996348,"lon":121.469547,"name":"未命名公園","decorType":"park"},{"id":"way-1245262239","lat":24.996259,"lon":121.469613,"name":"未命名公園","decorType":"park"},{"id":"way-1245262240","lat":24.996076,"lon":121.469654,"name":"未命名公園","decorType":"park"},{"id":"way-1245262241","lat":24.996278,"lon":121.469762,"name":"未命名公園","decorType":"park"},{"id":"way-1245262242","lat":24.996359,"lon":121.469698,"name":"未命名公園","decorType":"park"},{"id":"way-1245262257","lat":24.998912,"lon":121.468785,"name":"未命名公園","decorType":"park"},{"id":"way-1301427093","lat":25.007072,"lon":121.465398,"name":"未命名水邊","decorType":"waterside"},{"id":"way-1301427096","lat":25.006966,"lon":121.465481,"name":"板橋放送所","decorType":"park"},{"id":"way-1316346070","lat":24.996007,"lon":121.462092,"name":"猋師傅","decorType":"restaurant"},{"id":"way-1332571404","lat":25.005543,"lon":121.457934,"name":"觀音亭","decorType":"shrine"},{"id":"way-1006182052","lat":25.005257,"lon":121.442623,"name":"大漢溪","decorType":"waterside"}]}