{"bbox":{"south":24.991912,"north":25.007519,"west":121.56125,"east":121.574281},"pois":[{"id":"way-432120647","lat":24.998519,"lon":121.561469,"name":"未命名橋樑","decorType":"bridge"},{"id":"way-432120651","lat":24.999001,"lon":121.561555,"name":"樂育樓","decorType":"university"},{"id":"way-432120676","lat":24.997934,"lon":121.561289,"name":"第二倉庫","decorType":"university"},{"id":"way-549714684","lat":25.002658,"lon":121.561282,"name":"萬芳10號公園綠地","decorType":"park"},{"id":"way-1299100147","lat":25.005953,"lon":121.561554,"name":"實踐大學木柵校地","decorType":"forest"},{"id":"way-1350668897","lat":24.993928,"lon":121.561437,"name":"未命名公園","decorType":"park"},{"id":"node-689418701","lat":24.998609,"lon":121.568123,"name":"萬芳社區","decorType":"station"},{"id":"node-689420115","lat":24.998246,"lon":121.573183,"name":"木柵","decorType":"station"},{"id":"node-1747306838","lat":24.997814,"lon":121.573987,"name":"捷運木柵站","decorType":"bus_stop"},{"id":"node-1880360910","lat":24.997572,"lon":121.562393,"name":"棕櫚泉社區","decorType":"bus_stop"},{"id":"node-2307722996","lat":24.992859,"lon":121.573803,"name":"萬壽橋頭(新光)","decorType":"bus_stop"},{"id":"node-2307723008","lat":24.993408,"lon":121.573655,"name":"萬壽橋頭(新光)","decorType":"bus_stop"},{"id":"node-2309011862","lat":24.998705,"lon":121.566231,"name":"萬利街口","decorType":"bus_stop"},{"id":"node-2309011865","lat":25.002712,"lon":121.571793,"name":"萬芳社區","decorType":"bus_stop"},{"id":"node-2309011867","lat":25.001983,"lon":121.561997,"name":"公務人員訓練處","decorType":"bus_stop"},{"id":"node-2309011873","lat":25.003413,"lon":121.562567,"name":"萬美社區","decorType":"bus_stop"},{"id":"node-2309011874","lat":25.003331,"lon":121.563057,"name":"萬美社區","decorType":"bus_stop"},{"id":"node-2309011881","lat":25.003389,"lon":121.56555,"name":"萬芳國宅","decorType":"bus_stop"},{"id":"node-2309011883","lat":25.003085,"lon":121.570585,"name":"萬寧街","decorType":"bus_stop"},{"id":"node-2309011885","lat":25.00426,"lon":121.570414,"name":"萬寧山莊","decorType":"bus_stop"},{"id":"node-2309011886","lat":25.004728,"lon":121.568004,"name":"名門社區","decorType":"bus_stop"},{"id":"node-2309011887","lat":24.998926,"lon":121.56783,"name":"捷運萬芳社區站","decorType":"bus_stop"},{"id":"node-2309011888","lat":25.001543,"lon":121.567533,"name":"萬芳國小","decorType":"bus_stop"},{"id":"node-2309011889","lat":25.00449,"lon":121.570855,"name":"和平東路四段","decorType":"bus_stop"},{"id":"node-2309011890","lat":25.001816,"lon":121.566081,"name":"萬芳派出所","decorType":"bus_stop"},{"id":"node-2309011895","lat":24.99973,"lon":121.573642,"name":"軍功新村","decorType":"bus_stop"},{"id":"node-2309011896","lat":24.997268,"lon":121.562554,"name":"棕櫚泉社區","decorType":"bus_stop"},{"id":"node-2310523676","lat":24.999156,"lon":121.567243,"name":"萬利街口","decorType":"bus_stop"},{"id":"node-2310523677","lat":25.00465,"lon":121.567994,"name":"名門社區","decorType":"bus_stop"},{"id":"node-2310523678","lat":24.999976,"lon":121.573748,"name":"軍功新村","decorType":"bus_stop"},{"id":"node-2310523694","lat":24.999271,"lon":121.574203,"name":"7-Eleven","decorType":"convenience"},{"id":"node-2310523697","lat":25.002878,"lon":121.572034,"name":"萬芳社區","decorType":"bus_stop"},{"id":"node-2310523698","lat":25.004757,"lon":121.570486,"name":"和平東路四段","decorType":"bus_stop"},{"id":"node-2310523699","lat":25.004135,"lon":121.570473,"name":"萬寧山莊","decorType":"bus_stop"},{"id":"node-2310523701","lat":25.003277,"lon":121.570301,"name":"萬寧街","decorType":"bus_stop"},{"id":"node-2310523702","lat":25.003408,"lon":121.564902,"name":"萬芳國宅","decorType":"bus_stop"},{"id":"node-2310523703","lat":25.003527,"lon":121.562284,"name":"萬美社區","decorType":"bus_stop"},{"id":"node-2310523706","lat":25.001787,"lon":121.566358,"name":"萬芳派出所","decorType":"bus_stop"},{"id":"node-2310523707","lat":25.002134,"lon":121.567334,"name":"7-Eleven","decorType":"convenience"},{"id":"node-2310523708","lat":25.003448,"lon":121.563111,"name":"萬美社區","decorType":"bus_stop"},{"id":"node-2310523715","lat":25.001071,"lon":121.568068,"name":"萬芳國小","decorType":"bus_stop"},{"id":"node-2323939467","lat":25.005239,"lon":121.567367,"name":"名門社區","decorType":"bus_stop"},{"id":"node-2323939468","lat":25.005184,"lon":121.567745,"name":"名門社區","decorType":"bus_stop"},{"id":"node-2323939470","lat":24.997539,"lon":121.574036,"name":"捷運木柵站","decorType":"bus_stop"},{"id":"node-2323942819","lat":24.996494,"lon":121.572555,"name":"木柵高工","decorType":"bus_stop"},{"id":"node-2323942820","lat":24.99614,"lon":121.5724,"name":"木柵高工","decorType":"bus_stop"},{"id":"node-2323945694","lat":24.993462,"lon":121.571393,"name":"萬芳路口","decorType":"bus_stop"},{"id":"node-2323945695","lat":24.993541,"lon":121.571586,"name":"萬芳路口","decorType":"bus_stop"},{"id":"node-2323961451","lat":25.001819,"lon":121.56213,"name":"公務人員訓練處","decorType":"bus_stop"},{"id":"node-2414198383","lat":24.998724,"lon":121.569509,"name":"捷運萬芳社區站","decorType":"bus_stop"},{"id":"node-2414198384","lat":24.996337,"lon":121.570765,"name":"木柵高工","decorType":"bus_stop"},{"id":"node-2414198385","lat":24.998503,"lon":121.569686,"name":"捷運萬芳社區站","decorType":"bus_stop"},{"id":"node-2414198386","lat":24.996045,"lon":121.57055,"name":"木柵高工","decorType":"bus_stop"},{"id":"node-2424147441","lat":25.002501,"lon":121.56884,"name":"萬芳活動中心","decorType":"bus_stop"},{"id":"node-2424147452","lat":25.002397,"lon":121.568382,"name":"萬芳活動中心","decorType":"bus_stop"},{"id":"node-2424147459","lat":25.002281,"lon":121.569707,"name":"萬芳社區","decorType":"bus_stop"},{"id":"node-2424147464","lat":25.001737,"lon":121.570435,"name":"萬芳社區","decorType":"bus_stop"},{"id":"node-2424150555","lat":25.004993,"lon":121.563688,"name":"世界山莊","decorType":"bus_stop"},{"id":"node-2424150556","lat":25.005513,"lon":121.564135,"name":"世界山莊","decorType":"bus_stop"},{"id":"node-2482646608","lat":24.993291,"lon":121.562722,"name":"興隆山","decorType":"mountain"},{"id":"node-2482647127","lat":25.004532,"lon":121.574262,"name":"博嘉山","decorType":"mountain"},{"id":"node-2482647210","lat":24.994992,"lon":121.56762,"name":"興隆山東北峰","decorType":"mountain"},{"id":"node-2668530113","lat":25.004157,"lon":121.566386,"name":"抱子腳山","decorType":"mountain"},{"id":"node-3036510799","lat":24.997634,"lon":121.57423,"name":"品福飯食","decorType":"restaurant"},{"id":"node-3273405873","lat":24.998159,"lon":121.573361,"name":"捷運木柵站1號出口","decorType":"station"},{"id":"node-3273605570","lat":24.998688,"lon":121.568043,"name":"捷運萬芳社區站1號出口","decorType":"station"},{"id":"node-3474979693","lat":25.000966,"lon":121.570619,"name":"7-Eleven","decorType":"convenience"},{"id":"node-3475002893","lat":25.002028,"lon":121.567243,"name":"美廉社","decorType":"supermarket"},{"id":"node-3627318130","lat":25.00127,"lon":121.570594,"name":"杏-醫療用品","decorType":"pharmacy"},{"id":"node-3629279712","lat":25.00218,"lon":121.568224,"name":"文山萬美街郵局","decorType":"post_office"},{"id":"node-3629305729","lat":25.002217,"lon":121.568493,"name":"OK超商","decorType":"convenience"},{"id":"node-3629305730","lat":25.002117,"lon":121.567739,"name":"紋鳴號","decorType":"cafe"},{"id":"node-4275934490","lat":25.00222,"lon":121.56922,"name":"萬芳民眾閱覽室","decorType":"library"},{"id":"node-4275934597","lat":25.005163,"lon":121.567964,"name":"全家便利商店","decorType":"convenience"},{"id":"node-4325693981","lat":24.99861,"lon":121.574147,"name":"未命名神社","decorType":"shrine"},{"id":"node-4524864499","lat":24.997607,"lon":121.573823,"name":"未命名郵局","decorType":"post_office"},{"id":"node-4524864501","lat":24.998758,"lon":121.568508,"name":"未命名郵局","decorType":"post_office"},{"id":"node-4652893991","lat":25.000581,"lon":121.570792,"name":"美廉社","decorType":"supermarket"},{"id":"node-4691581789","lat":24.999016,"lon":121.574185,"name":"媽咪廚房","decorType":"restaurant"},{"id":"node-5110488981","lat":24.994742,"lon":121.561316,"name":"濃緹烘培坊","decorType":"bakery"},{"id":"node-5110488982","lat":24.994912,"lon":121.561482,"name":"全家便利商店","decorType":"convenience"},{"id":"node-5189522963","lat":25.000602,"lon":121.568017,"name":"未命名公園","decorType":"park"},{"id":"node-6205114079","lat":24.997659,"lon":121.573811,"name":"7-Eleven","decorType":"convenience"},{"id":"node-6743996942","lat":25.001743,"lon":121.568975,"name":"萬芳浸信會","decorType":"shrine"},{"id":"node-6743996943","lat":25.001933,"lon":121.568854,"name":"台北市召會第27會所","decorType":"shrine"},{"id":"node-6743996958","lat":25.000552,"lon":121.565714,"name":"長老教會萬芳教會","decorType":"shrine"},{"id":"node-6743996959","lat":25.00125,"lon":121.563249,"name":"列邦教會","decorType":"shrine"},{"id":"node-7194693283","lat":24.993295,"lon":121.574,"name":"阿卿麵線","decorType":"restaurant"},{"id":"node-7194706760","lat":24.991943,"lon":121.573888,"name":"揉道Nubun","decorType":"restaurant"},{"id":"node-7194706780","lat":24.993512,"lon":121.573965,"name":"龐家肉羹","decorType":"restaurant"},{"id":"node-7194706861","lat":24.993473,"lon":121.573988,"name":"191 enjoy 早餐店","decorType":"restaurant"},{"id":"node-7687619148","lat":24.997917,"lon":121.57356,"name":"品味烤肉串","decorType":"restaurant"},{"id":"node-7687620056","lat":24.997957,"lon":121.573595,"name":"王大豐麵線","decorType":"restaurant"},{"id":"node-7699361908","lat":24.995327,"lon":121.562093,"name":"阿梅小吃店","decorType":"restaurant"},{"id":"node-7699361909","lat":24.995402,"lon":121.561305,"name":"蓁的飯館","decorType":"restaurant"},{"id":"node-7772741781","lat":25.001121,"lon":121.569787,"name":"一心圓古早味滷味","decorType":"restaurant"},{"id":"node-7772769998","lat":24.998097,"lon":121.571061,"name":"不要問美食私房料理","decorType":"restaurant"},{"id":"node-7772769999","lat":25.001194,"lon":121.570605,"name":"林媽媽麵攤","decorType":"restaurant"},{"id":"node-7778780620","lat":25.001272,"lon":121.570607,"name":"早安萬芳早餐店","decorType":"restaurant"},{"id":"node-7778780627","lat":24.99851,"lon":121.570526,"name":"Taiwan Bistro 木柵二","decorType":"restaurant"},{"id":"node-7778780639","lat":25.001256,"lon":121.57066,"name":"恰到好處本舖","decorType":"restaurant"},{"id":"node-7778780650","lat":25.00114,"lon":121.570692,"name":"俐君小吃店","decorType":"restaurant"},{"id":"node-8432400558","lat":24.999654,"lon":121.569055,"name":"萬芳6號公園","decorType":"bus_stop"},{"id":"node-8432400559","lat":24.999962,"lon":121.56892,"name":"萬芳6號公園","decorType":"bus_stop"},{"id":"node-9401545424","lat":25.001893,"lon":121.567277,"name":"蝦皮店到店","decorType":"convenience"},{"id":"node-12496209698","lat":24.997469,"lon":121.574026,"name":"未命名餐廳","decorType":"restaurant"},{"id":"node-12765482437","lat":25.000524,"lon":121.573618,"name":"博嘉公園","decorType":"park"},{"id":"node-12765487433","lat":24.999968,"lon":121.57356,"name":"沐林","decorType":"bakery"},{"id":"way-55007694","lat":25.003005,"lon":121.563105,"name":"萬芳11號公園","decorType":"park"},{"id":"way-55567828","lat":25.00431,"lon":121.566206,"name":"140高地公園","decorType":"park"},{"id":"way-194633993","lat":24.998551,"lon":121.568049,"name":"未命名公車站","decorType":"bus_stop"},{"id":"way-194633996","lat":24.998645,"lon":121.568046,"name":"未命名公車站","decorType":"bus_stop"},{"id":"way-200927269","lat":24.994842,"lon":121.572157,"name":"景美溪右岸自行車道","decorType":"bridge"},{"id":"way-260750239","lat":24.998608,"lon":121.568039,"name":"捷運萬芳社區站","decorType":"station"},{"id":"way-260883825","lat":24.992215,"lon":121.571335,"name":"未命名橋樑","decorType":"bridge"},{"id":"way-261655733","lat":24.992042,"lon":121.570169,"name":"未命名森林","decorType":"forest"},{"id":"way-304618176","lat":25.00009,"lon":121.570583,"name":"未命名公園","decorType":"park"},{"id":"way-304618177","lat":24.999674,"lon":121.569254,"name":"萬芳六號公園","decorType":"park"},{"id":"way-410452477","lat":25.004775,"lon":121.561484,"name":"公訓處步道","decorType":"bridge"},{"id":"way-432120646","lat":24.998428,"lon":121.561896,"name":"日新樓","decorType":"university"},{"id":"way-432120648","lat":24.998608,"lon":121.561676,"name":"未命名橋樑","decorType":"bridge"},{"id":"way-432120649","lat":24.998644,"lon":121.561619,"name":"未命名橋樑","decorType":"bridge"},{"id":"way-432120652","lat":25.000039,"lon":121.561616,"name":"莊敬樓","decorType":"university"},{"id":"way-432120654","lat":24.998113,"lon":121.561882,"name":"警技場","decorType":"university"},{"id":"way-432120670","lat":25.000722,"lon":121.562354,"name":"情境教學中心","decorType":"university"},{"id":"way-432120671","lat":24.999635,"lon":121.562052,"name":"三民樓","decorType":"university"},{"id":"way-432120673","lat":24.998024,"lon":121.561408,"name":"至美樓(醫護室)","decorType":"university"},{"id":"way-456206443","lat":24.999186,"lon":121.567568,"name":"萬芳三號公園","decorType":"park"},{"id":"way-456293323","lat":25.001551,"lon":121.561799,"name":"萬芳9號綠地","decorType":"park"},{"id":"way-491353750","lat":24.995953,"lon":121.563606,"name":"未命名公園","decorType":"park"},{"id":"way-495448972","lat":24.99214,"lon":121.572951,"name":"未命名橋樑","decorType":"bridge"},{"id":"way-535367374","lat":25.00073,"lon":121.566352,"name":"未命名體育館","decorType":"stadium"},{"id":"way-535367381","lat":25.00071,"lon":121.56704,"name":"未命名公園","decorType":"park"},{"id":"way-535367384","lat":25.001154,"lon":121.5685,"name":"未命名公園","decorType":"park"},{"id":"way-549714680","lat":24.999875,"lon":121.566781,"name":"萬芳一號公園","decorType":"park"},{"id":"way-549714683","lat":25.001442,"lon":121.563626,"name":"萬芳12號公園","decorType":"park"},{"id":"way-575059219","lat":24.999205,"lon":121.566759,"name":"萬芳二號公園","decorType":"park"},{"id":"way-586068484","lat":25.006449,"lon":121.56884,"name":"椰城公園","decorType":"park"},{"id":"way-595808497","lat":25.002544,"lon":121.56966,"name":"萬芳七號公園","decorType":"park"},{"id":"way-617827761","lat":25.001184,"lon":121.568868,"name":"萬芳四號公園","decorType":"park"},{"id":"way-710699840","lat":24.997847,"lon":121.573879,"name":"木柵聖尊廟","decorType":"shrine"},{"id":"way-718041352","lat":25.000504,"lon":121.573582,"name":"未命名公園","decorType":"park"},{"id":"way-718132093","lat":25.000278,"lon":121.564637,"name":"萬利公園綠地","decorType":"park"},{"id":"way-718132094","lat":25.00034,"lon":121.565352,"name":"萬芳14號公園","decorType":"park"},{"id":"way-718132132","lat":25.001166,"lon":121.567772,"name":"生水生態池","decorType":"waterside"},{"id":"way-718132133","lat":24.997877,"lon":121.565915,"name":"萬芳天祐宮","decorType":"shrine"},{"id":"way-721280600","lat":25.005519,"lon":121.571271,"name":"未命名水邊","decorType":"waterside"},{"id":"way-721280601","lat":25.003903,"lon":121.57195,"name":"軍功坑","decorType":"waterside"},{"id":"way-790260407","lat":24.998322,"lon":121.573093,"name":"未命名公車站","decorType":"bus_stop"},{"id":"way-790260408","lat":24.998219,"lon":121.573068,"name":"未命名公車站","decorType":"bus_stop"},{"id":"way-844001037","lat":24.993984,"lon":121.561464,"name":"未命名公園","decorType":"park"},{"id":"way-1042369697","lat":24.999263,"lon":121.571511,"name":"未命名森林","decorType":"forest"},{"id":"way-1065882645","lat":24.993978,"lon":121.56992,"name":"德善祠","decorType":"shrine"},{"id":"way-1254559498","lat":24.997155,"lon":121.57028,"name":"福德宮","decorType":"shrine"},{"id":"way-1266800146","lat":24.994677,"lon":121.574197,"name":"頭廷魁文史館","decorType":"art_gallery"},{"id":"way-1288011255","lat":24.99542,"lon":121.569147,"name":"未命名橋樑","decorType":"bridge"},{"id":"way-1288462173","lat":24.995177,"lon":121.563712,"name":"福興宮","decorType":"shrine"},{"id":"way-1288462187","lat":24.995263,"lon":121.563861,"name":"未命名橋樑","decorType":"bridge"},{"id":"way-1290628504","lat":24.995216,"lon":121.570099,"name":"未命名水邊","decorType":"waterside"},{"id":"way-1290628505","lat":24.995452,"lon":121.569306,"name":"未命名水邊","decorType":"waterside"},{"id":"way-1290628514","lat":24.995407,"lon":121.569188,"name":"未命名橋樑","decorType":"bridge"},{"id":"way-1292262558","lat":25.005358,"lon":121.565608,"name":"未命名公園","decorType":"park"},{"id":"way-1292262597","lat":25.00259,"lon":121.569662,"name":"萬芳福德宮","decorType":"shrine"},{"id":"way-1292774779","lat":24.995194,"lon":121.569163,"name":"慈光寺","decorType":"shrine"},{"id":"way-1354671970","lat":25.002057,"lon":121.562831,"name":"未命名橋樑","decorType":"bridge"},{"id":"way-1354671971","lat":25.002169,"lon":121.562669,"name":"未命名橋樑","decorType":"bridge"},{"id":"way-1354672001","lat":25.002294,"lon":121.561397,"name":"未命名橋樑","decorType":"bridge"},{"id":"way-1355984216","lat":25.001781,"lon":121.571157,"name":"未命名水邊","decorType":"waterside"},{"id":"way-1444631136","lat":25.005361,"lon":121.570239,"name":"軍功坑","decorType":"waterside"},{"id":"way-1444631137","lat":25.005088,"lon":121.57144,"name":"軍功坑","decorType":"waterside"},{"id":"way-1444631138","lat":25.002253,"lon":121.57245,"name":"軍功坑","decorType":"waterside"},{"id":"way-1444631139","lat":25.002442,"lon":121.57235,"name":"軍功坑","decorType":"waterside"},{"id":"way-1444631140","lat":25.002571,"lon":121.572311,"name":"軍功坑","decorType":"waterside"},{"id":"way-1444631141","lat":25.002681,"lon":121.572309,"name":"軍功坑","decorType":"waterside"}]}