{"bbox":{"south":24.991912499999998,"north":25.00751875,"west":121.509125,"east":121.52215625},"pois":[{"id":"way-1198218238","lat":24.9966587,"lon":121.5110157,"name":"未命名水邊","decorType":"waterside"},{"id":"node-2069531107","lat":25.006354,"lon":121.5210628,"name":"池湖豆漿大王","decorType":"restaurant"},{"id":"node-2215948932","lat":25.0022941,"lon":121.5106926,"name":"麥當勞","decorType":"burger"},{"id":"node-2216099453","lat":25.0017654,"lon":121.5151559,"name":"E61 咖啡場所","decorType":"cafe"},{"id":"node-2216495492","lat":25.0029365,"lon":121.5130667,"name":"波波食堂雞蛋仔專賣店","decorType":"burger"},{"id":"node-2216534992","lat":25.0010186,"lon":121.5147727,"name":"潭墘里","decorType":"bus_stop"},{"id":"node-2216534997","lat":25.0023911,"lon":121.5109662,"name":"捷運永安市場站","decorType":"bus_stop"},{"id":"node-2407137760","lat":24.9920143,"lon":121.5158976,"name":"捷運景平站","decorType":"bus_stop"},{"id":"node-2407137762","lat":24.9923547,"lon":121.5129551,"name":"南勢角 (景平路)","decorType":"bus_stop"},{"id":"node-2407137771","lat":24.9941593,"lon":121.5127386,"name":"智光商職","decorType":"bus_stop"},{"id":"node-2407137772","lat":24.9959122,"lon":121.5142454,"name":"智光商職","decorType":"bus_stop"},{"id":"node-2407137773","lat":24.9985947,"lon":121.5165773,"name":"中興新村","decorType":"bus_stop"},{"id":"node-2407137774","lat":25.0009095,"lon":121.5175692,"name":"得和路口","decorType":"bus_stop"},{"id":"node-2407137775","lat":25.0002361,"lon":121.5190975,"name":"得和路","decorType":"bus_stop"},{"id":"node-2430685125","lat":24.996229,"lon":121.5148733,"name":"吉野家","decorType":"burger"},{"id":"node-2430739269","lat":24.9965987,"lon":121.5151158,"name":"7-Eleven","decorType":"convenience"},{"id":"node-2491474586","lat":25.0054687,"lon":121.5188827,"name":"永利路","decorType":"bus_stop"},{"id":"node-2491474587","lat":25.0033472,"lon":121.5173283,"name":"永和國小","decorType":"bus_stop"},{"id":"node-2491474588","lat":25.0033706,"lon":121.5214274,"name":"福和國中","decorType":"bus_stop"},{"id":"node-2491474607","lat":25.00505,"lon":121.5171728,"name":"金銀大廈","decorType":"bus_stop"},{"id":"node-2509549127","lat":24.9955652,"lon":121.5141203,"name":"智光商職","decorType":"bus_stop"},{"id":"node-2509549128","lat":24.9982928,"lon":121.5164849,"name":"中興新村","decorType":"bus_stop"},{"id":"node-2509549133","lat":25.0005117,"lon":121.5177509,"name":"得和路口","decorType":"bus_stop"},{"id":"node-2509549140","lat":24.9947947,"lon":121.5134365,"name":"智光商職","decorType":"bus_stop"},{"id":"node-2509549145","lat":25.005417,"lon":121.5188564,"name":"永利路","decorType":"bus_stop"},{"id":"node-2509549146","lat":25.0024934,"lon":121.517547,"name":"永和國小","decorType":"bus_stop"},{"id":"node-2509549147","lat":25.0031834,"lon":121.5214875,"name":"福和國中","decorType":"bus_stop"},{"id":"node-2509549200","lat":25.0050548,"lon":121.5172716,"name":"金銀大廈","decorType":"bus_stop"},{"id":"node-2517658772","lat":24.9963988,"lon":121.5148466,"name":"中興二村","decorType":"bus_stop"},{"id":"node-2517658776","lat":24.9969186,"lon":121.5151706,"name":"中興二村","decorType":"bus_stop"},{"id":"node-2517658791","lat":25.0018834,"lon":121.5149734,"name":"八二三紀念公園","decorType":"bus_stop"},{"id":"node-2517658792","lat":25.001899,"lon":121.5151179,"name":"八二三紀念公園","decorType":"bus_stop"},{"id":"node-2517658828","lat":24.9976986,"lon":121.511922,"name":"安平路","decorType":"bus_stop"},{"id":"node-2517658853","lat":25.0001006,"lon":121.516052,"name":"得和路","decorType":"bus_stop"},{"id":"node-2517658952","lat":25.0057478,"lon":121.5129822,"name":"永和路口","decorType":"bus_stop"},{"id":"node-2517658956","lat":25.0052719,"lon":121.5143781,"name":"永安市場","decorType":"bus_stop"},{"id":"node-2517658961","lat":25.0037696,"lon":121.5132689,"name":"永安市場(永貞)","decorType":"bus_stop"},{"id":"node-2517658976","lat":24.9994287,"lon":121.5134596,"name":"潭墘","decorType":"bus_stop"},{"id":"node-2639372626","lat":24.9924041,"lon":121.5161617,"name":"大全聯","decorType":"supermarket"},{"id":"node-2639372748","lat":24.9923761,"lon":121.5163501,"name":"全家便利商店","decorType":"convenience"},{"id":"node-2639373768","lat":24.9931699,"lon":121.517138,"name":"7-Eleven","decorType":"convenience"},{"id":"node-2639374046","lat":24.9936512,"lon":121.51724,"name":"未命名餐廳","decorType":"restaurant"},{"id":"node-2639391178","lat":24.9930386,"lon":121.5152042,"name":"7-Eleven","decorType":"convenience"},{"id":"node-2658740611","lat":24.9965849,"lon":121.5199739,"name":"全家便利商店","decorType":"convenience"},{"id":"node-2678961908","lat":25.0074723,"lon":121.5186765,"name":"福和路","decorType":"bus_stop"},{"id":"node-2678961909","lat":25.0063911,"lon":121.5169679,"name":"福和里","decorType":"bus_stop"},{"id":"node-2678961910","lat":25.006622,"lon":121.5169322,"name":"福和里","decorType":"bus_stop"},{"id":"node-2678961911","lat":25.0067358,"lon":121.5171331,"name":"福和里","decorType":"bus_stop"},{"id":"node-2734137791","lat":25.002537,"lon":121.5108829,"name":"布列德(永安店)","decorType":"bakery"},{"id":"node-2820063983","lat":24.9931106,"lon":121.5091695,"name":"中和教會","decorType":"bus_stop"},{"id":"node-2820063986","lat":24.9928528,"lon":121.5116033,"name":"南勢角","decorType":"bus_stop"},{"id":"node-2820063991","lat":24.9921933,"lon":121.5173092,"name":"捷運景平站","decorType":"bus_stop"},{"id":"node-2866571176","lat":24.9921502,"lon":121.5161735,"name":"景平","decorType":"station"},{"id":"node-2929253543","lat":25.0059031,"lon":121.5106505,"name":"保平路口","decorType":"bus_stop"},{"id":"node-2929253544","lat":25.0059325,"lon":121.5107997,"name":"保平路口","decorType":"bus_stop"},{"id":"node-2977114533","lat":25.0063786,"lon":121.5103947,"name":"全家便利商店","decorType":"convenience"},{"id":"node-2977114534","lat":25.007173,"lon":121.5208573,"name":"永和區公所 (永貞路)","decorType":"bus_stop"},{"id":"node-2977303910","lat":25.0074036,"lon":121.5124768,"name":"和陞屋牛排","decorType":"restaurant"},{"id":"node-2977303920","lat":25.0074245,"lon":121.5117612,"name":"美廉社","decorType":"supermarket"},{"id":"node-2978373417","lat":25.0016181,"lon":121.5100632,"name":"摩斯漢堡","decorType":"burger"},{"id":"node-2978376919","lat":25.0022462,"lon":121.5105354,"name":"家樂福超市","decorType":"supermarket"},{"id":"node-3031546125","lat":25.0003205,"lon":121.5091905,"name":"華泰新城","decorType":"bus_stop"},{"id":"node-3033778597","lat":25.0024949,"lon":121.5108085,"name":"捷運永安市場站","decorType":"bus_stop"},{"id":"node-3093798934","lat":24.9998457,"lon":121.5174423,"name":"全聯福利中心","decorType":"supermarket"},{"id":"node-3116012536","lat":24.9964531,"lon":121.5209545,"name":"愛買永和店","decorType":"supermarket"},{"id":"node-3116012537","lat":24.9964631,"lon":121.5208655,"name":"星巴克","decorType":"cafe"},{"id":"node-3139866436","lat":25.0000566,"lon":121.5207955,"name":"秀朗國小","decorType":"bus_stop"},{"id":"node-3139866437","lat":24.9998871,"lon":121.5208199,"name":"秀朗國小","decorType":"bus_stop"},{"id":"node-3144940089","lat":24.994722,"lon":121.5200006,"name":"馥萱芝士蛋糕","decorType":"bakery"},{"id":"node-3155757904","lat":25.0000882,"lon":121.519225,"name":"得和路","decorType":"bus_stop"},{"id":"node-3155757905","lat":24.9925415,"lon":121.5144672,"name":"東森廣場","decorType":"bus_stop"},{"id":"node-3180257857","lat":24.9942966,"lon":121.5219316,"name":"秀山國小","decorType":"bus_stop"},{"id":"node-3180257858","lat":24.9946823,"lon":121.5220557,"name":"秀山國小","decorType":"bus_stop"},{"id":"node-3180257859","lat":24.9941783,"lon":121.5203314,"name":"秀山站","decorType":"bus_stop"},{"id":"node-3180257860","lat":24.9947848,"lon":121.5201467,"name":"秀山站","decorType":"bus_stop"},{"id":"node-3180269352","lat":25.002289,"lon":121.5109503,"name":"捷運永安市場站1號出口","decorType":"station"},{"id":"node-3180269388","lat":25.0032299,"lon":121.5214103,"name":"鮮天下","decorType":"restaurant"},{"id":"node-3180269389","lat":25.0036036,"lon":121.5212762,"name":"7-Eleven","decorType":"convenience"},{"id":"node-3180287362","lat":25.0041158,"lon":121.5163929,"name":"永和國小","decorType":"bus_stop"},{"id":"node-3180287363","lat":25.0042229,"lon":121.5160455,"name":"永和國小","decorType":"bus_stop"},{"id":"node-3180287364","lat":25.0040798,"lon":121.5129605,"name":"永安市場(永貞)","decorType":"bus_stop"},{"id":"node-3208558488","lat":25.0067444,"lon":121.5168912,"name":"三媽臭臭鍋","decorType":"restaurant"},{"id":"node-3208669122","lat":25.007283,"lon":121.5171282,"name":"全家便利商店","decorType":"convenience"},{"id":"node-3208671174","lat":25.0074993,"lon":121.5170699,"name":"萬香台式烤鴨 永和店","decorType":"restaurant"},{"id":"node-3212444658","lat":24.9985915,"lon":121.5092313,"name":"躍獅藥局","decorType":"pharmacy"},{"id":"node-3334402511","lat":24.9990453,"lon":121.5169223,"name":"中興新村","decorType":"bus_stop"},{"id":"node-3334402512","lat":24.996172,"lon":121.5124336,"name":"宜安吉立","decorType":"bus_stop"},{"id":"node-3334402513","lat":24.99632,"lon":121.5125334,"name":"宜安吉立","decorType":"bus_stop"},{"id":"node-3334402514","lat":24.9996657,"lon":121.5173687,"name":"寶雅","decorType":"pharmacy"},{"id":"node-3334402516","lat":24.9994399,"lon":121.5172465,"name":"燦坤3C","decorType":"electronics"},{"id":"node-3334402566","lat":24.9971116,"lon":121.5115199,"name":"7-Eleven","decorType":"convenience"},{"id":"node-3334402567","lat":24.9985319,"lon":121.516457,"name":"7-Eleven","decorType":"convenience"},{"id":"node-3426316145","lat":25.0028797,"lon":121.5114349,"name":"吉野家","decorType":"burger"},{"id":"node-3426316598","lat":25.0021526,"lon":121.5108271,"name":"7-Eleven","decorType":"convenience"},{"id":"node-3459327611","lat":25.0014532,"lon":121.5199015,"name":"芭樂樹公園","decorType":"park"},{"id":"node-3480446642","lat":24.9976003,"lon":121.5105892,"name":"中和宜安郵局","decorType":"post_office"},{"id":"node-3480448309","lat":24.9977169,"lon":121.5104363,"name":"7-Eleven","decorType":"convenience"},{"id":"node-3480448975","lat":24.9991147,"lon":121.5113765,"name":"全家便利商店","decorType":"convenience"},{"id":"node-3480451182","lat":24.9952823,"lon":121.5098143,"name":"7-Eleven","decorType":"convenience"},{"id":"node-3480453640","lat":24.9972121,"lon":121.5152186,"name":"永和中正路郵局","decorType":"post_office"},{"id":"node-3497480270","lat":25.0073084,"lon":121.5119197,"name":"陳記燒臘","decorType":"restaurant"},{"id":"node-3497480271","lat":25.0062015,"lon":121.5104033,"name":"7-Eleven","decorType":"convenience"},{"id":"node-3497480272","lat":25.0058681,"lon":121.5107039,"name":"匯 日本料理","decorType":"restaurant"},{"id":"node-3497480273","lat":25.0059635,"lon":121.5106046,"name":"上界青熱炒店","decorType":"restaurant"},{"id":"node-3497480274","lat":25.0065612,"lon":121.5102093,"name":"一品屋涮涮鍋","decorType":"restaurant"},{"id":"node-3497480275","lat":25.0066026,"lon":121.5109184,"name":"金仙魯肉飯","decorType":"restaurant"},{"id":"node-3497497481","lat":25.0074284,"lon":121.5094389,"name":"清心福全","decorType":"cafe"},{"id":"node-3497497487","lat":25.0064009,"lon":121.5101163,"name":"北斗肉圓","decorType":"restaurant"},{"id":"node-3593631941","lat":25.0018631,"lon":121.5144328,"name":"未命名公園","decorType":"park"},{"id":"node-3593631942","lat":25.001933,"lon":121.5144328,"name":"未命名公園","decorType":"park"},{"id":"node-3594111992","lat":24.9973895,"lon":121.510884,"name":"宜安路","decorType":"bus_stop"},{"id":"node-3594139993","lat":24.9975472,"lon":121.5109036,"name":"宜安路","decorType":"bus_stop"},{"id":"node-3594139994","lat":24.9984679,"lon":121.5093869,"name":"華泰新城","decorType":"bus_stop"},{"id":"node-3594139995","lat":24.9985068,"lon":121.5095587,"name":"華泰新城","decorType":"bus_stop"},{"id":"node-3631514151","lat":25.0025738,"lon":121.5109191,"name":"屈臣氏","decorType":"pharmacy"},{"id":"node-3631514152","lat":25.0011186,"lon":121.5097612,"name":"燦坤3C","decorType":"electronics"},{"id":"node-3800717745","lat":25.0024105,"lon":121.5109003,"name":"永安市場","decorType":"station"},{"id":"node-3809419515","lat":25.0007666,"lon":121.5146537,"name":"紅牛碳烤牛排","decorType":"restaurant"},{"id":"node-3809419516","lat":25.000719,"lon":121.5147474,"name":"碳之家 碳烤三明治","decorType":"restaurant"},{"id":"node-3903935839","lat":24.9962862,"lon":121.5105841,"name":"全聯福利中心","decorType":"supermarket"},{"id":"node-3904126501","lat":24.9964272,"lon":121.5109838,"name":"璟福藥局","decorType":"pharmacy"},{"id":"node-3904251379","lat":24.99669,"lon":121.5111199,"name":"魔力早餐","decorType":"burger"},{"id":"node-3904251380","lat":24.9966877,"lon":121.5118146,"name":"OK超商","decorType":"convenience"},{"id":"node-3904251381","lat":24.9970887,"lon":121.5112432,"name":"大板城","decorType":"restaurant"},{"id":"node-3911418718","lat":24.992665,"lon":121.5100702,"name":"7-Eleven","decorType":"convenience"},{"id":"node-4054804409","lat":24.9990342,"lon":121.5171515,"name":"肯德基","decorType":"burger"},{"id":"node-4169822213","lat":24.994529,"lon":121.5132193,"name":"智光商職","decorType":"bus_stop"},{"id":"node-4322675989","lat":25.0032735,"lon":121.5181428,"name":"未命名麵包店","decorType":"bakery"},{"id":"node-4327959867","lat":24.9988287,"lon":121.5169714,"name":"全家便利商店","decorType":"convenience"},{"id":"node-4327978978","lat":25.000273,"lon":121.5178149,"name":"全家便利商店","decorType":"convenience"},{"id":"node-4327978979","lat":24.9982362,"lon":121.5164621,"name":"麥當勞","decorType":"burger"},{"id":"node-4327985540","lat":25.0001984,"lon":121.5203017,"name":"7-Eleven","decorType":"convenience"},{"id":"node-4375017151","lat":24.9940892,"lon":121.5220256,"name":"7-Eleven","decorType":"convenience"},{"id":"node-4385304366","lat":24.9920649,"lon":121.5095398,"name":"青聖宮","decorType":"shrine"},{"id":"node-4406426884","lat":24.9972241,"lon":121.5113559,"name":"未命名漢堡店","decorType":"burger"},{"id":"node-4406426888","lat":24.9951875,"lon":121.5100397,"name":"安平小館","decorType":"restaurant"},{"id":"node-4406427589","lat":24.9961186,"lon":121.510721,"name":"毛手毛腳","decorType":"hair_salon"},{"id":"node-4406427590","lat":24.9957588,"lon":121.5101844,"name":"台鹽生技","decorType":"convenience"},{"id":"node-4406427591","lat":24.9972879,"lon":121.5109488,"name":"奕采藥局","decorType":"pharmacy"},{"id":"node-4406983436","lat":24.9967706,"lon":121.5109726,"name":"震東水電材料行","decorType":"convenience"},{"id":"node-4406983437","lat":24.9963501,"lon":121.5109218,"name":"自助洗衣","decorType":"laundry"},{"id":"node-4406983438","lat":24.99688,"lon":121.5115708,"name":"劉家牛肉麵","decorType":"restaurant"},{"id":"node-4406983439","lat":24.9968022,"lon":121.5116593,"name":"甜不辣","decorType":"restaurant"},{"id":"node-4406983440","lat":24.9967487,"lon":121.511729,"name":"花媽壽司","decorType":"restaurant"},{"id":"node-4406983441","lat":24.9969675,"lon":121.5114474,"name":"IDEAS YD","decorType":"hair_salon"},{"id":"node-4611820690","lat":24.9984459,"lon":121.5108564,"name":"艾佳食品材料","decorType":"sweetshop"},{"id":"node-4664818089","lat":25.0073904,"lon":121.5162907,"name":"全家便利商店","decorType":"convenience"},{"id":"node-4752565125","lat":25.0000528,"lon":121.5164141,"name":"Hola加勒比海美食","decorType":"restaurant"},{"id":"node-4755688418","lat":24.9971771,"lon":121.5115743,"name":"亞米比薩","decorType":"restaurant"},{"id":"node-4755700310","lat":24.9967088,"lon":121.5118571,"name":"未命名郵局","decorType":"post_office"},{"id":"node-4755713030","lat":24.9970057,"lon":121.5114107,"name":"一桶天下","decorType":"restaurant"},{"id":"node-4995897895","lat":24.9957812,"lon":121.5102015,"name":"豆点，傳統豆花","decorType":"cafe"},{"id":"node-5266040818","lat":24.9980262,"lon":121.5198505,"name":"民權圖書館","decorType":"library"},{"id":"node-5372146607","lat":25.0074696,"lon":121.5091801,"name":"深坑臭豆腐","decorType":"restaurant"},{"id":"node-5372146608","lat":25.0073974,"lon":121.5092491,"name":"鴨肉冬粉","decorType":"restaurant"},{"id":"node-5661163199","lat":24.9942897,"lon":121.5127708,"name":"全家便利商店","decorType":"convenience"},{"id":"node-5661163201","lat":24.9966235,"lon":121.5151311,"name":"莊家班麻油雞","decorType":"restaurant"},{"id":"node-5661163202","lat":24.99657,"lon":121.5150869,"name":"Giordano","decorType":"clothing"},{"id":"node-5661163203","lat":24.9964436,"lon":121.5150225,"name":"大勝軒自助餐","decorType":"restaurant"},{"id":"node-6024209080","lat":25.000209,"lon":121.5198494,"name":"大和鐵板燒","decorType":"restaurant"},{"id":"node-6024209826","lat":24.9989772,"lon":121.5201077,"name":"7-Eleven","decorType":"convenience"},{"id":"node-6024211734","lat":24.9965956,"lon":121.5197337,"name":"肉多多","decorType":"restaurant"},{"id":"node-6024211735","lat":24.9967099,"lon":121.5197594,"name":"麥味登","decorType":"restaurant"},{"id":"node-6024229164","lat":24.9999928,"lon":121.5177329,"name":"Pizza ROCK","decorType":"restaurant"},{"id":"node-6024235321","lat":24.9965764,"lon":121.5201684,"name":"桔磨坊","decorType":"restaurant"},{"id":"node-6024237303","lat":24.9964791,"lon":121.5213733,"name":"三商巧福","decorType":"restaurant"},{"id":"node-6127437883","lat":25.0040788,"lon":121.5145696,"name":"路易莎咖啡","decorType":"cafe"},{"id":"node-6127903995","lat":24.9989966,"lon":121.5131385,"name":"Cliff's Pizza","decorType":"restaurant"},{"id":"node-6129995999","lat":24.9987674,"lon":121.5129567,"name":"素食","decorType":"restaurant"},{"id":"node-6130072767","lat":24.9988498,"lon":121.5118495,"name":"99 Café","decorType":"cafe"},{"id":"node-6130072774","lat":24.9962551,"lon":121.5172748,"name":"未命名公園","decorType":"park"},{"id":"node-6130072775","lat":24.9970936,"lon":121.5113024,"name":"85度C","decorType":"cafe"},{"id":"node-6130072782","lat":24.9954238,"lon":121.5137509,"name":"台灣大哥大","decorType":"electronics"},{"id":"node-6130097072","lat":24.9983469,"lon":121.5165261,"name":"我家牛排","decorType":"restaurant"},{"id":"node-6130097073","lat":24.9996462,"lon":121.5176311,"name":"台灣大哥大","decorType":"electronics"},{"id":"node-6130126781","lat":25.0040841,"lon":121.517207,"name":"路易莎咖啡","decorType":"cafe"},{"id":"node-6140138638","lat":25.0060487,"lon":121.5129669,"name":"未命名郵局","decorType":"post_office"},{"id":"node-6180411977","lat":25.0007638,"lon":121.5147026,"name":"雪腐","decorType":"restaurant"},{"id":"node-6180492010","lat":24.9986317,"lon":121.5094428,"name":"屈臣氏","decorType":"pharmacy"},{"id":"node-6180492011","lat":24.9987311,"lon":121.509346,"name":"日式威廉","decorType":"hair_salon"},{"id":"node-6180492012","lat":24.9990938,"lon":121.511253,"name":"馬修嚴選","decorType":"restaurant"},{"id":"node-6180492014","lat":24.9972885,"lon":121.5112354,"name":"金正好吃大腸麵線/宜安店","decorType":"restaurant"},{"id":"node-6180492015","lat":24.9983199,"lon":121.5104033,"name":"華泰豆花粉圓","decorType":"restaurant"},{"id":"node-6180492016","lat":24.9991211,"lon":121.5114356,"name":"全聯福利中心","decorType":"supermarket"},{"id":"node-6180492020","lat":24.9972591,"lon":121.5110903,"name":"燒烤店","decorType":"restaurant"},{"id":"node-6180492021","lat":24.9924155,"lon":121.5120279,"name":"霸味薑母鴨","decorType":"restaurant"},{"id":"node-6422643936","lat":24.9922031,"lon":121.5139152,"name":"7-Eleven","decorType":"convenience"},{"id":"node-6457436835","lat":24.9995361,"lon":121.5172874,"name":"漢堡王","decorType":"burger"},{"id":"node-6761545065","lat":25.0039551,"lon":121.514643,"name":"85度C","decorType":"cafe"},{"id":"node-6981277707","lat":24.9941925,"lon":121.5129666,"name":"U-girl中大齒碼","decorType":"clothing"},{"id":"node-6981277713","lat":24.9942119,"lon":121.5126809,"name":"Swifter","decorType":"clothing"},{"id":"node-7135853054","lat":25.0014732,"lon":121.5127748,"name":"水源會館","decorType":"restaurant"},{"id":"node-7140672547","lat":25.0061684,"lon":121.5212763,"name":"完全教育書局","decorType":"library"},{"id":"node-7183717877","lat":24.9919655,"lon":121.5162474,"name":"捷運景平站1號出口","decorType":"station"},{"id":"node-7254602085","lat":24.9932634,"lon":121.5173769,"name":"路易莎咖啡","decorType":"cafe"},{"id":"node-7728484631","lat":25.0074287,"lon":121.5137337,"name":"佳佳香鍋貼","decorType":"restaurant"},{"id":"node-7728572083","lat":25.0043556,"lon":121.5169939,"name":"永和國小 (永貞路)","decorType":"bus_stop"},{"id":"node-7728572084","lat":25.0042881,"lon":121.5171374,"name":"永和國小 (永貞路)","decorType":"bus_stop"},{"id":"node-7728619392","lat":25.00343,"lon":121.5147181,"name":"永安市場一","decorType":"bus_stop"},{"id":"node-7728619393","lat":25.0002991,"lon":121.5142205,"name":"7-Eleven","decorType":"convenience"},{"id":"node-7728619394","lat":25.0000086,"lon":121.5107853,"name":"安平里巡守隊","decorType":"bus_stop"},{"id":"node-7728619395","lat":25.0000274,"lon":121.5109067,"name":"中安街","decorType":"bus_stop"},{"id":"node-7728619396","lat":25.0006297,"lon":121.5110636,"name":"安平派出所","decorType":"bus_stop"},{"id":"node-7728619398","lat":25.0020694,"lon":121.5123712,"name":"中安街","decorType":"bus_stop"},{"id":"node-7728619399","lat":25.0018232,"lon":121.5120184,"name":"7-Eleven","decorType":"convenience"},{"id":"node-7728619400","lat":25.0018828,"lon":121.5120667,"name":"全家便利商店","decorType":"convenience"},{"id":"node-7728619401","lat":25.0010648,"lon":121.5097278,"name":"7-Eleven","decorType":"convenience"},{"id":"node-7728628172","lat":24.9941305,"lon":121.5200597,"name":"全家便利商店","decorType":"convenience"},{"id":"node-7728630856","lat":25.0007998,"lon":121.5177745,"name":"鍋賣局","decorType":"restaurant"},{"id":"node-7728637285","lat":25.0043051,"lon":121.5162738,"name":"7-Eleven","decorType":"convenience"},{"id":"node-7728637288","lat":25.0039879,"lon":121.5151955,"name":"永安市場","decorType":"bus_stop"},{"id":"node-7728637289","lat":25.0038238,"lon":121.5151204,"name":"永安市場","decorType":"bus_stop"},{"id":"node-7728644167","lat":24.9965153,"lon":121.5204889,"name":"屈臣氏","decorType":"pharmacy"},{"id":"node-7728644168","lat":24.9965469,"lon":121.5203145,"name":"燦坤3C","decorType":"electronics"},{"id":"node-7728810456","lat":25.0044656,"lon":121.5175921,"name":"萊爾富","decorType":"convenience"},{"id":"node-7728810458","lat":25.0036075,"lon":121.5174928,"name":"大三品蔥燒包","decorType":"restaurant"},{"id":"node-7728810459","lat":25.0039976,"lon":121.5174258,"name":"神牛","decorType":"restaurant"},{"id":"node-7728810460","lat":25.0040876,"lon":121.5174204,"name":"詩威特","decorType":"clothing"},{"id":"node-8024462006","lat":24.9972409,"lon":121.50958,"name":"8 lie down","decorType":"cafe"},{"id":"node-8118272753","lat":25.0057588,"lon":121.515516,"name":"全家便利商店","decorType":"convenience"},{"id":"node-8118272754","lat":25.0038219,"lon":121.5143207,"name":"全家便利商店","decorType":"convenience"},{"id":"node-8118272755","lat":25.0041863,"lon":121.5125607,"name":"全家便利商店","decorType":"convenience"},{"id":"node-8123362536","lat":24.9975533,"lon":121.5106508,"name":"滿福早午餐","decorType":"restaurant"},{"id":"node-8385304890","lat":24.9999907,"lon":121.5166256,"name":"八方雲集","decorType":"burger"},{"id":"node-8385313288","lat":24.993162,"lon":121.517321,"name":"八方雲集","decorType":"burger"},{"id":"node-8385313300","lat":25.0037987,"lon":121.5141686,"name":"八方雲集","decorType":"burger"},{"id":"node-8432400481","lat":25.00278,"lon":121.5175166,"name":"永和國小","decorType":"bus_stop"},{"id":"node-8432400487","lat":25.0016926,"lon":121.5121903,"name":"八二三紀念公園","decorType":"bus_stop"},{"id":"node-8435620681","lat":24.9936404,"lon":121.511541,"name":"安樂路口","decorType":"bus_stop"},{"id":"node-8458558355","lat":24.9948756,"lon":121.5200476,"name":"自強站","decorType":"bus_stop"},{"id":"node-8600772299","lat":24.9933105,"lon":121.5117858,"name":"Just Kitchen - Zhonghe","decorType":"restaurant"},{"id":"node-8826280430","lat":24.9939123,"lon":121.5218691,"name":"阿仁烤鴨","decorType":"restaurant"},{"id":"node-9336816700","lat":25.0019687,"lon":121.5102449,"name":"聖保羅烘焙花園","decorType":"restaurant"},{"id":"node-9377991076","lat":25.0038689,"lon":121.5154195,"name":"蝦皮店到店","decorType":"convenience"},{"id":"node-9377991078","lat":25.0068704,"lon":121.5169586,"name":"蝦皮店到店","decorType":"convenience"},{"id":"node-9377991079","lat":25.006227,"lon":121.5202513,"name":"蝦皮店到店","decorType":"convenience"},{"id":"node-9377991080","lat":25.0059562,"lon":121.5100881,"name":"蝦皮店到店","decorType":"convenience"},{"id":"node-9414479539","lat":24.9996248,"lon":121.5141872,"name":"蝦皮店到店","decorType":"convenience"},{"id":"node-9449166785","lat":24.9943292,"lon":121.5198987,"name":"請坐","decorType":"hair_salon"},{"id":"node-9599336342","lat":25.0026056,"lon":121.5128356,"name":"誠記河粉","decorType":"restaurant"},{"id":"node-9599432850","lat":25.0025714,"lon":121.5128092,"name":"高三孝","decorType":"restaurant"},{"id":"node-10001028018","lat":25.0031276,"lon":121.5132983,"name":"Cama Cafe 四號公園店","decorType":"cafe"},{"id":"node-10076693809","lat":24.9939476,"lon":121.5216762,"name":"千大藥局","decorType":"pharmacy"},{"id":"node-10076693811","lat":24.9939825,"lon":121.5219984,"name":"相思車輪餅","decorType":"restaurant"},{"id":"node-10076693812","lat":24.9944092,"lon":121.5220387,"name":"吉得堡漢堡","decorType":"restaurant"},{"id":"node-10094980739","lat":24.9938933,"lon":121.5220198,"name":"老王牛肉麵","decorType":"restaurant"},{"id":"node-10679742705","lat":25.0001489,"lon":121.5140178,"name":"圈外咖啡專門店 Kengai coffea","decorType":"cafe"},{"id":"node-10679786805","lat":24.9995017,"lon":121.5110505,"name":"掬園烘培店","decorType":"bakery"},{"id":"node-10814243249","lat":24.9928676,"lon":121.5152568,"name":"全家便利商店","decorType":"convenience"},{"id":"node-11333300700","lat":25.0074062,"lon":121.5164991,"name":"早午餐店","decorType":"restaurant"},{"id":"node-11364224660","lat":24.9977854,"lon":121.5199578,"name":"未命名郵局","decorType":"post_office"},{"id":"node-11364309493","lat":25.0056185,"lon":121.5198513,"name":"全聯福利中心","decorType":"supermarket"},{"id":"node-11364309495","lat":25.0052631,"lon":121.519312,"name":"打爆豬韓式燒肉吃到飽新北永和店","decorType":"restaurant"},{"id":"node-11364309496","lat":25.005145,"lon":121.519479,"name":"麥當勞","decorType":"burger"},{"id":"node-11364309497","lat":25.0051104,"lon":121.5195434,"name":"石二鍋 永和永利店","decorType":"restaurant"},{"id":"node-11560242319","lat":25.0060808,"lon":121.5207604,"name":"全家便利商店","decorType":"convenience"},{"id":"node-11560242321","lat":25.0059654,"lon":121.5202662,"name":"Go Go Mall 購物中心(廢)","decorType":"cosmetics"},{"id":"node-11569340320","lat":25.0011926,"lon":121.5120297,"name":"BUNA CAF'E 新北中和公園館","decorType":"restaurant"},{"id":"node-11583766970","lat":25.0067347,"lon":121.5100685,"name":"保平路口","decorType":"bus_stop"},{"id":"node-11583766974","lat":25.0038615,"lon":121.5120131,"name":"中和路口","decorType":"bus_stop"},{"id":"node-11586136859","lat":25.0050325,"lon":121.5139624,"name":"永和湄聖宮","decorType":"shrine"},{"id":"node-12048705783","lat":25.0038603,"lon":121.5181312,"name":"萊爾富 永和興工店","decorType":"convenience"},{"id":"node-12222019274","lat":25.0026436,"lon":121.5183841,"name":"優卡輕食","decorType":"restaurant"},{"id":"node-12756105395","lat":25.0072321,"lon":121.511715,"name":"老王原汁牛肉麵","decorType":"restaurant"},{"id":"node-12756222658","lat":25.0045978,"lon":121.5123072,"name":"達利早餐Daily Breakfast-永和永安店","decorType":"restaurant"},{"id":"node-12756375353","lat":25.0071696,"lon":121.5137818,"name":"翻轉屋 鍋燒意麵","decorType":"restaurant"},{"id":"node-12850544117","lat":25.0045027,"lon":121.5099498,"name":"未命名公園","decorType":"park"},{"id":"node-13000334028","lat":24.9939362,"lon":121.5217656,"name":"寓見早午餐","decorType":"restaurant"},{"id":"node-13008936032","lat":25.0024211,"lon":121.5107868,"name":"21世紀烤雞炸雞","decorType":"restaurant"},{"id":"node-13374389980","lat":25.0024835,"lon":121.5124131,"name":"秧米健康廚房","decorType":"restaurant"},{"id":"node-13413775722","lat":24.9962481,"lon":121.5126624,"name":"萊爾富","decorType":"convenience"},{"id":"node-13413775723","lat":24.9965437,"lon":121.5107971,"name":"萊爾富","decorType":"convenience"},{"id":"way-124350710","lat":25.0011279,"lon":121.5129716,"name":"八二三紀念公園(4號公園)","decorType":"park"},{"id":"way-124352121","lat":25.0014428,"lon":121.5128502,"name":"國立臺灣圖書館","decorType":"library"},{"id":"way-211684059","lat":24.9948566,"lon":121.5096411,"name":"安平路","decorType":"bridge"},{"id":"way-211684067","lat":24.9934454,"lon":121.5122071,"name":"潭墘橋","decorType":"bridge"},{"id":"way-233929065","lat":24.9962934,"lon":121.5169732,"name":"民有街","decorType":"bridge"},{"id":"way-245018521","lat":24.9948551,"lon":121.5156549,"name":"大勇街29巷","decorType":"bridge"},{"id":"way-314809915","lat":25.0014254,"lon":121.5173046,"name":"未命名公園","decorType":"park"},{"id":"way-338795085","lat":24.9991665,"lon":121.5183626,"name":"民治里公園","decorType":"park"},{"id":"way-387470344","lat":24.9969932,"lon":121.5111534,"name":"樂墘宮","decorType":"shrine"},{"id":"way-545595637","lat":24.9938066,"lon":121.5198101,"name":"未命名橋樑","decorType":"bridge"},{"id":"way-545595639","lat":24.9955655,"lon":121.517044,"name":"民光街","decorType":"bridge"},{"id":"way-545595640","lat":24.9939454,"lon":121.5174006,"name":"大勇街","decorType":"bridge"},{"id":"way-545595683","lat":24.9933824,"lon":121.5139141,"name":"景平路278巷","decorType":"bridge"},{"id":"way-545595686","lat":24.9947598,"lon":121.5159154,"name":"大勇街29巷2弄","decorType":"bridge"},{"id":"way-556972669","lat":25.0019145,"lon":121.5144306,"name":"共融式遊樂區","decorType":"park"},{"id":"way-582776485","lat":25.0045242,"lon":121.5099269,"name":"未命名公園","decorType":"park"},{"id":"way-593418464","lat":25.0017558,"lon":121.5177229,"name":"未命名公園","decorType":"park"},{"id":"way-777516400","lat":24.9941093,"lon":121.5167714,"name":"中興三村公園","decorType":"park"},{"id":"way-831069784","lat":25.0021646,"lon":121.5102671,"name":"全聯福利中心","decorType":"supermarket"},{"id":"way-957391852","lat":24.9946725,"lon":121.5215618,"name":"未命名體育館","decorType":"stadium"},{"id":"way-957391856","lat":24.9949399,"lon":121.5206395,"name":"未命名體育館","decorType":"stadium"},{"id":"way-968214171","lat":24.9987834,"lon":121.5183357,"name":"民治街72巷","decorType":"bridge"},{"id":"way-1042891794","lat":25.0011815,"lon":121.5138606,"name":"未命名水邊","decorType":"waterside"},{"id":"way-1076454388","lat":24.9940813,"lon":121.5187562,"name":"未命名公園","decorType":"park"},{"id":"way-1076454390","lat":24.9929279,"lon":121.5205618,"name":"未命名公園","decorType":"park"},{"id":"way-1198215313","lat":24.9940074,"lon":121.5180782,"name":"未命名水邊","decorType":"waterside"},{"id":"way-1198215314","lat":24.9971865,"lon":121.5171447,"name":"未命名水邊","decorType":"waterside"},{"id":"way-1198300586","lat":25.002922,"lon":121.5221365,"name":"未命名公園","decorType":"park"},{"id":"way-1198598898","lat":24.9933694,"lon":121.512928,"name":"未命名水邊","decorType":"waterside"},{"id":"way-1198598901","lat":24.9948579,"lon":121.5154976,"name":"未命名水邊","decorType":"waterside"},{"id":"way-1198636928","lat":24.9993253,"lon":121.5218873,"name":"精神堡壘","decorType":"park"},{"id":"way-1228832750","lat":24.9922197,"lon":121.5161968,"name":"未命名公車站","decorType":"bus_stop"},{"id":"way-1228832767","lat":24.9920556,"lon":121.5161782,"name":"未命名公車站","decorType":"bus_stop"},{"id":"way-1228832773","lat":25.0023283,"lon":121.5108445,"name":"未命名公車站","decorType":"bus_stop"},{"id":"way-1238508196","lat":24.9950553,"lon":121.5159432,"name":"未命名公園","decorType":"park"},{"id":"way-1238511847","lat":24.9953045,"lon":121.5142796,"name":"未命名公園","decorType":"park"},{"id":"way-1244589272","lat":25.001791,"lon":121.5128122,"name":"未命名公園","decorType":"park"},{"id":"way-1244589273","lat":25.0015949,"lon":121.5123321,"name":"未命名水邊","decorType":"waterside"},{"id":"way-1244589276","lat":25.001193,"lon":121.5119796,"name":"未命名公園","decorType":"park"},{"id":"way-1244589279","lat":25.0006712,"lon":121.5129142,"name":"未命名橋樑","decorType":"bridge"},{"id":"way-1244589283","lat":25.000604,"lon":121.5129446,"name":"未命名水邊","decorType":"waterside"},{"id":"way-1244589284","lat":25.000863,"lon":121.5130227,"name":"未命名水邊","decorType":"waterside"},{"id":"way-1244589285","lat":25.0006388,"lon":121.5129055,"name":"未命名水邊","decorType":"waterside"},{"id":"way-1244635897","lat":25.0003425,"lon":121.5114677,"name":"未命名森林","decorType":"forest"},{"id":"way-1244635898","lat":25.0001062,"lon":121.5119222,"name":"未命名森林","decorType":"forest"},{"id":"way-1244635902","lat":25.001646,"lon":121.5139228,"name":"未命名森林","decorType":"forest"},{"id":"way-1244635905","lat":25.0003424,"lon":121.5133879,"name":"未命名公園","decorType":"park"},{"id":"way-1244643150","lat":25.0021356,"lon":121.5129397,"name":"未命名公園","decorType":"park"},{"id":"way-1244643155","lat":25.0021596,"lon":121.5134276,"name":"未命名公園","decorType":"park"},{"id":"way-1244643156","lat":25.0022331,"lon":121.5138514,"name":"未命名森林","decorType":"forest"},{"id":"way-1244643159","lat":25.0016258,"lon":121.5135412,"name":"未命名公園","decorType":"park"},{"id":"way-1244643161","lat":25.0029428,"lon":121.5141752,"name":"未命名森林","decorType":"forest"},{"id":"way-1244643162","lat":25.002798,"lon":121.5135344,"name":"未命名森林","decorType":"forest"},{"id":"way-1244643163","lat":25.00076,"lon":121.5125103,"name":"未命名公園","decorType":"park"},{"id":"way-1244643164","lat":25.0009965,"lon":121.5122237,"name":"未命名公園","decorType":"park"},{"id":"way-1244643165","lat":25.0019137,"lon":121.5126207,"name":"未命名公園","decorType":"park"},{"id":"way-1244646388","lat":24.9998013,"lon":121.5127969,"name":"未命名公園","decorType":"park"},{"id":"way-1244646390","lat":24.9997343,"lon":121.5113487,"name":"未命名森林","decorType":"forest"},{"id":"way-1244646391","lat":25.0005467,"lon":121.5115374,"name":"未命名森林","decorType":"forest"},{"id":"way-1244646392","lat":24.9995671,"lon":121.5116099,"name":"未命名公園","decorType":"park"},{"id":"way-1244653352","lat":24.9992408,"lon":121.5116696,"name":"未命名森林","decorType":"forest"},{"id":"way-1244653357","lat":24.9990301,"lon":121.5124765,"name":"未命名公園","decorType":"park"},{"id":"way-1244653358","lat":24.9996281,"lon":121.5133278,"name":"未命名森林","decorType":"forest"},{"id":"way-1244653360","lat":25.0013704,"lon":121.5142078,"name":"未命名森林","decorType":"forest"},{"id":"way-1244653361","lat":25.0014039,"lon":121.5143596,"name":"未命名公園","decorType":"park"},{"id":"way-1244653362","lat":25.0009471,"lon":121.5143553,"name":"未命名森林","decorType":"forest"},{"id":"way-1244659421","lat":25.0033799,"lon":121.5140397,"name":"未命名公園","decorType":"park"},{"id":"way-1244659423","lat":25.003411,"lon":121.5143633,"name":"未命名森林","decorType":"forest"},{"id":"way-1244659424","lat":25.0008551,"lon":121.513264,"name":"未命名公園","decorType":"park"},{"id":"way-1244659425","lat":25.0004229,"lon":121.5132176,"name":"未命名公園","decorType":"park"},{"id":"way-1244659426","lat":25.0004896,"lon":121.5131325,"name":"未命名公園","decorType":"park"},{"id":"way-1244659427","lat":25.0001213,"lon":121.5128727,"name":"未命名公園","decorType":"park"},{"id":"way-1244659428","lat":24.9998595,"lon":121.5130355,"name":"未命名公園","decorType":"park"},{"id":"way-1244659429","lat":24.9998675,"lon":121.5131636,"name":"未命名公園","decorType":"park"},{"id":"way-1244659430","lat":25.0011591,"lon":121.5133634,"name":"未命名公園","decorType":"park"},{"id":"way-1244659431","lat":25.001321,"lon":121.5132992,"name":"未命名公園","decorType":"park"},{"id":"way-1244659432","lat":25.0008851,"lon":121.513446,"name":"未命名公園","decorType":"park"},{"id":"way-1244659433","lat":25.0007497,"lon":121.5138156,"name":"未命名森林","decorType":"forest"},{"id":"way-1244659434","lat":25.0005613,"lon":121.5132803,"name":"未命名公園","decorType":"park"},{"id":"way-1244659435","lat":25.0003072,"lon":121.5131158,"name":"未命名公園","decorType":"park"},{"id":"way-1244659436","lat":25.000207,"lon":121.5133579,"name":"未命名公園","decorType":"park"},{"id":"way-1244659437","lat":25.0000919,"lon":121.5130588,"name":"未命名公園","decorType":"park"},{"id":"way-1244661687","lat":24.9999887,"lon":121.5135861,"name":"未命名水邊","decorType":"waterside"},{"id":"way-1244662939","lat":25.0011657,"lon":121.5138367,"name":"未命名公園","decorType":"park"},{"id":"way-1244977874","lat":24.9991572,"lon":121.5124857,"name":"未命名公園","decorType":"park"},{"id":"way-1244977875","lat":24.9989793,"lon":121.5125844,"name":"未命名公園","decorType":"park"},{"id":"way-1244977876","lat":24.9989924,"lon":121.5123609,"name":"未命名公園","decorType":"park"},{"id":"way-1244977878","lat":25.0011219,"lon":121.5131013,"name":"未命名公園","decorType":"park"},{"id":"way-1244977879","lat":25.0009527,"lon":121.5126997,"name":"未命名公園","decorType":"park"},{"id":"way-1244977880","lat":25.0012136,"lon":121.5124025,"name":"未命名公園","decorType":"park"},{"id":"way-1246137703","lat":25.0045109,"lon":121.513858,"name":"未命名公園","decorType":"park"},{"id":"way-1246137704","lat":25.0044269,"lon":121.5139607,"name":"未命名公園","decorType":"park"},{"id":"way-1246137709","lat":25.005268,"lon":121.5136203,"name":"天主教永和聖母升天堂","decorType":"shrine"},{"id":"way-1306407488","lat":25.0055103,"lon":121.5219517,"name":"天橋","decorType":"bridge"},{"id":"way-1306407489","lat":25.0055482,"lon":121.5221282,"name":"天橋","decorType":"bridge"},{"id":"way-1306407490","lat":25.0054926,"lon":121.5220097,"name":"天橋","decorType":"bridge"},{"id":"way-1306412446","lat":25.0067373,"lon":121.5217486,"name":"未命名森林","decorType":"forest"},{"id":"way-1306730299","lat":24.9925687,"lon":121.5147446,"name":"未命名公園","decorType":"park"},{"id":"way-1306737904","lat":24.9927577,"lon":121.5134784,"name":"未命名公園","decorType":"park"},{"id":"way-1306737905","lat":24.9927894,"lon":121.5130025,"name":"未命名公園","decorType":"park"},{"id":"way-1306737906","lat":24.9927149,"lon":121.5132222,"name":"未命名公園","decorType":"park"},{"id":"way-1306739368","lat":24.9921046,"lon":121.5135566,"name":"未命名公園","decorType":"park"},{"id":"way-1306739369","lat":24.9920871,"lon":121.5137078,"name":"未命名公園","decorType":"park"},{"id":"way-1306743216","lat":24.9933378,"lon":121.5121178,"name":"潭墘橋","decorType":"bridge"},{"id":"way-1365136417","lat":24.9991788,"lon":121.5184998,"name":"民族公園","decorType":"park"}]}