{"bbox":{"south":25.007519,"north":25.023125,"west":121.548219,"east":121.56125},"pois":[{"id":"node-689442955","lat":25.01844,"lon":121.558905,"name":"麟光","decorType":"station"},{"id":"node-694420651","lat":25.011692,"lon":121.555236,"name":"中埔山","decorType":"mountain"},{"id":"node-2096026232","lat":25.022125,"lon":121.554641,"name":"7-Eleven","decorType":"convenience"},{"id":"node-2096026722","lat":25.02089,"lon":121.554953,"name":"萊爾富","decorType":"convenience"},{"id":"node-2306318140","lat":25.015158,"lon":121.551308,"name":"青峰活動中心","decorType":"bus_stop"},{"id":"node-2321487374","lat":25.02158,"lon":121.556681,"name":"玖定食","decorType":"restaurant"},{"id":"node-2323939466","lat":25.019368,"lon":121.557688,"name":"黎忠市場","decorType":"bus_stop"},{"id":"node-2323939469","lat":25.022906,"lon":121.554264,"name":"捷運六張犁站(和平)","decorType":"bus_stop"},{"id":"node-2323939471","lat":25.019547,"lon":121.557896,"name":"黎忠市場","decorType":"bus_stop"},{"id":"node-2323939473","lat":25.020916,"lon":121.556055,"name":"富陽街口","decorType":"bus_stop"},{"id":"node-2323939474","lat":25.021119,"lon":121.556154,"name":"富陽街口","decorType":"bus_stop"},{"id":"node-2323939475","lat":25.0192,"lon":121.558288,"name":"屈臣氏","decorType":"pharmacy"},{"id":"node-2323939476","lat":25.01826,"lon":121.558545,"name":"捷運麟光站","decorType":"bus_stop"},{"id":"node-2323939477","lat":25.015846,"lon":121.560808,"name":"麟光站","decorType":"bus_stop"},{"id":"node-2323939479","lat":25.015646,"lon":121.560917,"name":"麟光站","decorType":"bus_stop"},{"id":"node-2420798955","lat":25.01811,"lon":121.5483,"name":"自來水處(辛亥)","decorType":"bus_stop"},{"id":"node-2421546669","lat":25.015981,"lon":121.550823,"name":"青峰活動中心","decorType":"bus_stop"},{"id":"node-2595510397","lat":25.022045,"lon":121.554771,"name":"蘭泰泰式料理","decorType":"restaurant"},{"id":"node-2595513778","lat":25.022769,"lon":121.553962,"name":"六張犁郵局","decorType":"post_office"},{"id":"node-2595515631","lat":25.022903,"lon":121.553839,"name":"未命名郵局","decorType":"post_office"},{"id":"node-2619324446","lat":25.0163,"lon":121.550384,"name":"未命名郵局","decorType":"post_office"},{"id":"node-2621123793","lat":25.021097,"lon":121.548268,"name":"7-Eleven","decorType":"convenience"},{"id":"node-2760029675","lat":25.020388,"lon":121.554408,"name":"7-Eleven","decorType":"convenience"},{"id":"node-2760029680","lat":25.019701,"lon":121.553346,"name":"全家便利商店","decorType":"convenience"},{"id":"node-2760032805","lat":25.020226,"lon":121.552721,"name":"OK超商","decorType":"convenience"},{"id":"node-3003964554","lat":25.022606,"lon":121.549842,"name":"7-Eleven","decorType":"convenience"},{"id":"node-3082513511","lat":25.018568,"lon":121.557999,"name":"全家便利商店","decorType":"convenience"},{"id":"node-3154666479","lat":25.022642,"lon":121.55027,"name":"URBN culture🌱","decorType":"restaurant"},{"id":"node-3248691592","lat":25.022957,"lon":121.549944,"name":"北方餃子館","decorType":"restaurant"},{"id":"node-3273406731","lat":25.018644,"lon":121.55865,"name":"捷運麟光站1號出口","decorType":"station"},{"id":"node-3475999896","lat":25.018368,"lon":121.55709,"name":"7-Eleven","decorType":"convenience"},{"id":"node-3554214093","lat":25.018678,"lon":121.558946,"name":"7-Eleven","decorType":"convenience"},{"id":"node-3657868950","lat":25.021033,"lon":121.556487,"name":"思麥兒早餐屋","decorType":"restaurant"},{"id":"node-4017793493","lat":25.008773,"lon":121.55251,"name":"芳蘭山","decorType":"mountain"},{"id":"node-4082740389","lat":25.020958,"lon":121.554748,"name":"CoCo都可","decorType":"cafe"},{"id":"node-4082740390","lat":25.0207,"lon":121.554722,"name":"JnF義大利麵","decorType":"restaurant"},{"id":"node-4082740393","lat":25.021026,"lon":121.554802,"name":"傳家肉羹","decorType":"restaurant"},{"id":"node-4082740394","lat":25.020657,"lon":121.5547,"name":"八方雲集","decorType":"burger"},{"id":"node-4082740395","lat":25.020785,"lon":121.554832,"name":"利帥哥皮鞋店","decorType":"clothing"},{"id":"node-4082740396","lat":25.020056,"lon":121.55318,"name":"味多美烘培坊","decorType":"bakery"},{"id":"node-4082740397","lat":25.020529,"lon":121.552675,"name":"大安和平12","decorType":"cafe"},{"id":"node-4082740398","lat":25.02062,"lon":121.554646,"name":"屈臣氏","decorType":"pharmacy"},{"id":"node-4082740399","lat":25.019282,"lon":121.554075,"name":"樂業街","decorType":"bus_stop"},{"id":"node-4082740400","lat":25.019743,"lon":121.553333,"name":"樂業街","decorType":"bus_stop"},{"id":"node-4082740401","lat":25.020714,"lon":121.554747,"name":"海力士拉麵丼飯","decorType":"restaurant"},{"id":"node-4082740402","lat":25.020287,"lon":121.552895,"name":"燦坤3C","decorType":"electronics"},{"id":"node-4082740403","lat":25.020897,"lon":121.554687,"name":"田園烘培屋","decorType":"bakery"},{"id":"node-4082740404","lat":25.020515,"lon":121.552603,"name":"呷尚寶","decorType":"burger"},{"id":"node-4082740432","lat":25.018567,"lon":121.557186,"name":"未命名郵局","decorType":"post_office"},{"id":"node-4082740433","lat":25.018574,"lon":121.557122,"name":"臥龍富陽街口","decorType":"bus_stop"},{"id":"node-4082740455","lat":25.019904,"lon":121.553413,"name":"美廉社","decorType":"supermarket"},{"id":"node-4082740456","lat":25.019997,"lon":121.552033,"name":"聖明宮","decorType":"shrine"},{"id":"node-4082740457","lat":25.018447,"lon":121.557123,"name":"臥龍富陽街口","decorType":"bus_stop"},{"id":"node-4082740459","lat":25.020165,"lon":121.552599,"name":"臥龍飯包","decorType":"restaurant"},{"id":"node-4082740460","lat":25.01806,"lon":121.550311,"name":"芳和國中","decorType":"bus_stop"},{"id":"node-4082740461","lat":25.018138,"lon":121.550311,"name":"芳和國中","decorType":"bus_stop"},{"id":"node-4082740464","lat":25.01967,"lon":121.551897,"name":"黎明社教中心","decorType":"bus_stop"},{"id":"node-4082740465","lat":25.018131,"lon":121.550878,"name":"7-Eleven","decorType":"convenience"},{"id":"node-4083325656","lat":25.018298,"lon":121.557967,"name":"麥當勞","decorType":"burger"},{"id":"node-4142402851","lat":25.013618,"lon":121.553295,"name":"第二殯儀館","decorType":"bus_stop"},{"id":"node-4424518890","lat":25.022247,"lon":121.550567,"name":"韓村","decorType":"restaurant"},{"id":"node-4464814594","lat":25.022111,"lon":121.550418,"name":"泰比咖啡","decorType":"cafe"},{"id":"node-4524864535","lat":25.022308,"lon":121.554962,"name":"丹提咖啡","decorType":"cafe"},{"id":"node-4574573814","lat":25.022769,"lon":121.555264,"name":"麥味登","decorType":"restaurant"},{"id":"node-4574573815","lat":25.023047,"lon":121.555471,"name":"OK超商","decorType":"convenience"},{"id":"node-4669665495","lat":25.021966,"lon":121.554408,"name":"佐藤咖哩","decorType":"restaurant"},{"id":"node-4669665803","lat":25.022255,"lon":121.552556,"name":"苔毛咖啡","decorType":"cafe"},{"id":"node-4669666406","lat":25.021882,"lon":121.554418,"name":"陸角Omurice","decorType":"restaurant"},{"id":"node-4677018248","lat":25.02131,"lon":121.551393,"name":"OK超商","decorType":"convenience"},{"id":"node-4677018249","lat":25.021621,"lon":121.551313,"name":"全聯福利中心","decorType":"supermarket"},{"id":"node-4677018250","lat":25.021944,"lon":121.550961,"name":"7-Eleven","decorType":"convenience"},{"id":"node-4689769784","lat":25.02021,"lon":121.552666,"name":"毛毛屋複合式餐飲","decorType":"restaurant"},{"id":"node-4837986417","lat":25.02187,"lon":121.550179,"name":"于家水餃","decorType":"restaurant"},{"id":"node-4837986419","lat":25.022553,"lon":121.549798,"name":"貴格會基督教華美堂","decorType":"shrine"},{"id":"node-4837986420","lat":25.02234,"lon":121.550481,"name":"芳平水果店","decorType":"supermarket"},{"id":"node-4837986421","lat":25.022563,"lon":121.550176,"name":"花麻辣","decorType":"restaurant"},{"id":"node-5022180237","lat":25.012307,"lon":121.553203,"name":"未命名咖啡廳","decorType":"cafe"},{"id":"node-5110348614","lat":25.022185,"lon":121.55218,"name":"佛天宮","decorType":"shrine"},{"id":"node-5110348615","lat":25.02166,"lon":121.552484,"name":"臺北市召會第十六聚會所","decorType":"shrine"},{"id":"node-5110348616","lat":25.02171,"lon":121.555074,"name":"未命名郵局","decorType":"post_office"},{"id":"node-5110348617","lat":25.02052,"lon":121.55833,"name":"全聯福利中心","decorType":"supermarket"},{"id":"node-5110348621","lat":25.021666,"lon":121.555664,"name":"如新洗衣店","decorType":"laundry"},{"id":"node-5110348624","lat":25.021911,"lon":121.556602,"name":"OK超商","decorType":"convenience"},{"id":"node-5110348625","lat":25.021425,"lon":121.556626,"name":"美廉社","decorType":"supermarket"},{"id":"node-5110348632","lat":25.022954,"lon":121.555095,"name":"同客餃子館","decorType":"restaurant"},{"id":"node-5110348633","lat":25.022862,"lon":121.554941,"name":"雷記燒臘","decorType":"restaurant"},{"id":"node-5110348755","lat":25.02031,"lon":121.55654,"name":"未命名餐廳","decorType":"restaurant"},{"id":"node-5110348756","lat":25.020221,"lon":121.55649,"name":"一六八","decorType":"restaurant"},{"id":"node-5110348757","lat":25.021155,"lon":121.554973,"name":"茶湯會","decorType":"cafe"},{"id":"node-5110348759","lat":25.021393,"lon":121.555213,"name":"香港旺旺燒臘","decorType":"restaurant"},{"id":"node-5110348760","lat":25.021165,"lon":121.555256,"name":"Subway","decorType":"burger"},{"id":"node-5110348761","lat":25.021264,"lon":121.555366,"name":"康是美","decorType":"pharmacy"},{"id":"node-5275435509","lat":25.021337,"lon":121.554092,"name":"比特尼克咖啡","decorType":"cafe"},{"id":"node-5525734806","lat":25.017098,"lon":121.554793,"name":"福州山","decorType":"mountain"},{"id":"node-5525736298","lat":25.012153,"lon":121.556482,"name":"中埔山東峰","decorType":"mountain"},{"id":"node-5845257507","lat":25.019733,"lon":121.549241,"name":"郵筒","decorType":"post_office"},{"id":"node-5860379499","lat":25.018711,"lon":121.550633,"name":"福得早餐坊","decorType":"burger"},{"id":"node-5860388406","lat":25.018355,"lon":121.551052,"name":"富士咖喱","decorType":"restaurant"},{"id":"node-5860390405","lat":25.018604,"lon":121.550737,"name":"雅米早午餐","decorType":"burger"},{"id":"node-5862401628","lat":25.022907,"lon":121.5484,"name":"郵筒","decorType":"post_office"},{"id":"node-6437969471","lat":25.018253,"lon":121.558896,"name":"捷運麟光站2號出口","decorType":"station"},{"id":"node-6628474354","lat":25.017331,"lon":121.559276,"name":"和平青鳥","decorType":"library"},{"id":"node-6816692003","lat":25.020343,"lon":121.554081,"name":"西螺鴨膳師","decorType":"restaurant"},{"id":"node-7290159236","lat":25.022586,"lon":121.548311,"name":"台灣大哥大","decorType":"electronics"},{"id":"node-7308191327","lat":25.01852,"lon":121.553626,"name":"臺灣基督長老教會","decorType":"shrine"},{"id":"node-7698744086","lat":25.019831,"lon":121.558153,"name":"我不怕你泰胖","decorType":"restaurant"},{"id":"node-7765178682","lat":25.020213,"lon":121.556368,"name":"東區小吃","decorType":"restaurant"},{"id":"node-7765187601","lat":25.020162,"lon":121.556299,"name":"阿雪小吃","decorType":"restaurant"},{"id":"node-7765187607","lat":25.021233,"lon":121.556852,"name":"奇水餃","decorType":"restaurant"},{"id":"node-7765187613","lat":25.021005,"lon":121.556466,"name":"朝食虎嚥","decorType":"restaurant"},{"id":"node-7765187617","lat":25.021579,"lon":121.55134,"name":"永義滷肉飯","decorType":"restaurant"},{"id":"node-7765187625","lat":25.020259,"lon":121.556188,"name":"阿隆師臭豆腐","decorType":"restaurant"},{"id":"node-7765187630","lat":25.020319,"lon":121.556152,"name":"法樂天然素食","decorType":"restaurant"},{"id":"node-7765187640","lat":25.019586,"lon":121.557856,"name":"和平山東大饅頭","decorType":"restaurant"},{"id":"node-7765187650","lat":25.018177,"lon":121.55747,"name":"稼窩食光.JiaWo","decorType":"restaurant"},{"id":"node-7765187652","lat":25.02026,"lon":121.552438,"name":"佳家香香鍋","decorType":"restaurant"},{"id":"node-7765187655","lat":25.019536,"lon":121.553511,"name":"簡單點複合式早餐","decorType":"restaurant"},{"id":"node-7765187659","lat":25.021498,"lon":121.551155,"name":"這一家早午餐","decorType":"restaurant"},{"id":"node-7765187673","lat":25.02029,"lon":121.556435,"name":"市場口麵攤","decorType":"restaurant"},{"id":"node-7765187691","lat":25.020085,"lon":121.552443,"name":"Burger shop","decorType":"restaurant"},{"id":"node-7765187705","lat":25.019627,"lon":121.553245,"name":"盛記脆皮臭豆腐","decorType":"restaurant"},{"id":"node-7765187707","lat":25.020045,"lon":121.558125,"name":"四季蔬果，現做主菜便當","decorType":"restaurant"},{"id":"node-7765187708","lat":25.019544,"lon":121.553387,"name":"越南美食","decorType":"restaurant"},{"id":"node-7765187716","lat":25.020138,"lon":121.55626,"name":"古早味麻油雞","decorType":"restaurant"},{"id":"node-7765187729","lat":25.018117,"lon":121.557535,"name":"弘爺漢堡","decorType":"burger"},{"id":"node-7765187744","lat":25.01877,"lon":121.558266,"name":"漁厝台菜海鮮餐廳","decorType":"restaurant"},{"id":"node-7765187746","lat":25.021669,"lon":121.556688,"name":"荷包蛋先生","decorType":"restaurant"},{"id":"node-7765187749","lat":25.019213,"lon":121.552822,"name":"巷口中式早餐店","decorType":"restaurant"},{"id":"node-7765187764","lat":25.02068,"lon":121.552195,"name":"老山東蔥油餅韭菜盒涼麵食堂","decorType":"restaurant"},{"id":"node-7765187770","lat":25.019052,"lon":121.554363,"name":"活力早餐","decorType":"restaurant"},{"id":"node-7765187785","lat":25.02227,"lon":121.552571,"name":"離城放感情","decorType":"restaurant"},{"id":"node-7765187786","lat":25.021508,"lon":121.551202,"name":"井上禾食","decorType":"restaurant"},{"id":"node-7765187839","lat":25.020047,"lon":121.55791,"name":"黎忠小吃","decorType":"restaurant"},{"id":"node-7765187881","lat":25.020601,"lon":121.557369,"name":"肌肉海灘 MuscleBeach 信義廚房","decorType":"restaurant"},{"id":"node-7765187884","lat":25.01983,"lon":121.557835,"name":"張記肉圓","decorType":"restaurant"},{"id":"node-7765187888","lat":25.019419,"lon":121.553128,"name":"紅牌飲料","decorType":"restaurant"},{"id":"node-7765187896","lat":25.019793,"lon":121.555633,"name":"阿珍熱炒","decorType":"restaurant"},{"id":"node-7765187902","lat":25.020335,"lon":121.555846,"name":"傳統豆花sweet Douhua","decorType":"restaurant"},{"id":"node-7765187904","lat":25.019712,"lon":121.55769,"name":"香濱燒臘","decorType":"restaurant"},{"id":"node-7765187905","lat":25.020308,"lon":121.557155,"name":"我家牛排","decorType":"restaurant"},{"id":"node-7765187919","lat":25.020428,"lon":121.556394,"name":"阿清師港式煎餃蒸餃","decorType":"restaurant"},{"id":"node-7765187922","lat":25.019503,"lon":121.553571,"name":"大眾鹹酥雞樂業街","decorType":"restaurant"},{"id":"node-7765187927","lat":25.01893,"lon":121.55208,"name":"夏目曙食","decorType":"restaurant"},{"id":"node-7765187941","lat":25.019341,"lon":121.553179,"name":"台灣麵","decorType":"restaurant"},{"id":"node-7765187942","lat":25.023076,"lon":121.55638,"name":"貴州小吃","decorType":"restaurant"},{"id":"node-7765187943","lat":25.019382,"lon":121.558092,"name":"皇家水餃","decorType":"restaurant"},{"id":"node-7765187948","lat":25.022282,"lon":121.554033,"name":"嘉義雞肉飯","decorType":"restaurant"},{"id":"node-7765187964","lat":25.020586,"lon":121.552323,"name":"塔塔潤餅捲","decorType":"restaurant"},{"id":"node-7765187978","lat":25.021235,"lon":121.551509,"name":"清粥便當","decorType":"restaurant"},{"id":"node-7765187986","lat":25.020636,"lon":121.552246,"name":"富貴香滷味","decorType":"restaurant"},{"id":"node-7765188005","lat":25.02215,"lon":121.553653,"name":"壽司爸","decorType":"restaurant"},{"id":"node-7765188012","lat":25.019374,"lon":121.553224,"name":"輝哥大腸蚵仔麵線","decorType":"restaurant"},{"id":"node-7765188017","lat":25.020567,"lon":121.556915,"name":"阿文魷魚羹","decorType":"restaurant"},{"id":"node-7765188021","lat":25.018594,"lon":121.558208,"name":"潮麵","decorType":"restaurant"},{"id":"node-7765188397","lat":25.021996,"lon":121.5518,"name":"李家榕樹下快炒","decorType":"restaurant"},{"id":"node-7765188413","lat":25.019455,"lon":121.558004,"name":"真豪豆漿蔥燒餅","decorType":"restaurant"},{"id":"node-7765188414","lat":25.020222,"lon":121.556609,"name":"阿成牛肉麵","decorType":"restaurant"},{"id":"node-7765188422","lat":25.020193,"lon":121.556146,"name":"豆花粉圓","decorType":"restaurant"},{"id":"node-7765188423","lat":25.021277,"lon":121.556797,"name":"寶島鹹粥","decorType":"restaurant"},{"id":"node-7765188439","lat":25.021379,"lon":121.556644,"name":"上席小舘","decorType":"restaurant"},{"id":"node-7765188458","lat":25.021457,"lon":121.556861,"name":"Masao","decorType":"restaurant"},{"id":"node-7765188463","lat":25.019266,"lon":121.553089,"name":"祖傳乾麵","decorType":"restaurant"},{"id":"node-7765188486","lat":25.020138,"lon":121.556618,"name":"左爺爺的養生湯廚","decorType":"restaurant"},{"id":"node-7765188491","lat":25.021737,"lon":121.551133,"name":"米粉湯","decorType":"restaurant"},{"id":"node-7772741767","lat":25.018681,"lon":121.559151,"name":"和記豆漿店","decorType":"restaurant"},{"id":"node-7772741774","lat":25.02133,"lon":121.551403,"name":"阿母的店","decorType":"restaurant"},{"id":"node-7772741779","lat":25.020142,"lon":121.557733,"name":"咔咕醬早餐店","decorType":"restaurant"},{"id":"node-7772741782","lat":25.017148,"lon":121.560257,"name":"呷尚寶","decorType":"burger"},{"id":"node-7772769991","lat":25.021305,"lon":121.551102,"name":"老婆涼麵1號店","decorType":"restaurant"},{"id":"node-7772770002","lat":25.016806,"lon":121.560812,"name":"龍洞海產","decorType":"restaurant"},{"id":"node-7778780628","lat":25.021157,"lon":121.551617,"name":"滬上雞莊麵食館","decorType":"restaurant"},{"id":"node-7787631182","lat":25.021667,"lon":121.549775,"name":"好樹早午餐","decorType":"restaurant"},{"id":"node-8118207168","lat":25.020527,"lon":121.556382,"name":"7-Eleven","decorType":"convenience"},{"id":"node-8432400480","lat":25.01994,"lon":121.551978,"name":"黎明社教中心","decorType":"bus_stop"},{"id":"node-9180754911","lat":25.019941,"lon":121.557584,"name":"全家便利商店","decorType":"convenience"},{"id":"node-9362998875","lat":25.020148,"lon":121.554417,"name":"蝦皮店到店","decorType":"convenience"},{"id":"node-9395836056","lat":25.020244,"lon":121.557214,"name":"蝦皮店到店","decorType":"convenience"},{"id":"node-11612844469","lat":25.020469,"lon":121.552493,"name":"饗旭咖啡","decorType":"cafe"},{"id":"node-12065608965","lat":25.012474,"lon":121.553231,"name":"全家便利商店","decorType":"convenience"},{"id":"node-12477890050","lat":25.013662,"lon":121.552377,"name":"臺北市懷愛館(內部)","decorType":"bus_stop"},{"id":"node-12543266801","lat":25.021343,"lon":121.555068,"name":"初鰻","decorType":"restaurant"},{"id":"node-12593552683","lat":25.012856,"lon":121.548506,"name":"參其堂","decorType":"shrine"},{"id":"node-12891939301","lat":25.019587,"lon":121.553474,"name":"好鄰居生活百貨","decorType":"convenience"},{"id":"node-13413775736","lat":25.020442,"lon":121.556888,"name":"萊爾富","decorType":"convenience"},{"id":"way-49774475","lat":25.014777,"lon":121.552548,"name":"台北聯絡線","decorType":"bridge"},{"id":"way-166322259","lat":25.016733,"lon":121.549883,"name":"臥龍公園","decorType":"park"},{"id":"way-212404916","lat":25.022597,"lon":121.560151,"name":"蔣渭水先生紀念廣場","decorType":"park"},{"id":"way-257352664","lat":25.022574,"lon":121.549379,"name":"虎嘯公園","decorType":"park"},{"id":"way-294015487","lat":25.018468,"lon":121.558837,"name":"捷運麟光站","decorType":"station"},{"id":"way-303809429","lat":25.02102,"lon":121.556752,"name":"黎富公園","decorType":"park"},{"id":"way-304152729","lat":25.02142,"lon":121.552038,"name":"嘉興公園","decorType":"park"},{"id":"way-304460214","lat":25.019799,"lon":121.555885,"name":"黎孝公園","decorType":"park"},{"id":"way-307182100","lat":25.021038,"lon":121.548228,"name":"柯達大飯店","decorType":"hotel"},{"id":"way-339957193","lat":25.014457,"lon":121.552068,"name":"三山善社","decorType":"shrine"},{"id":"way-456206413","lat":25.022594,"lon":121.553272,"name":"大安11號綠地","decorType":"park"},{"id":"way-571273615","lat":25.01674,"lon":121.560095,"name":"黎和公園","decorType":"park"},{"id":"way-572506210","lat":25.019099,"lon":121.559366,"name":"黎忠公園","decorType":"park"},{"id":"way-665712326","lat":25.015092,"lon":121.557455,"name":"未命名水邊","decorType":"waterside"},{"id":"way-782588166","lat":25.018163,"lon":121.553736,"name":"慶德宮","decorType":"shrine"},{"id":"way-782588179","lat":25.016807,"lon":121.552399,"name":"未命名公園","decorType":"park"},{"id":"way-782588181","lat":25.017754,"lon":121.552695,"name":"未命名水邊","decorType":"waterside"},{"id":"way-782588182","lat":25.016112,"lon":121.551603,"name":"未命名水邊","decorType":"waterside"},{"id":"way-782588187","lat":25.014797,"lon":121.552392,"name":"台北聯絡線","decorType":"bridge"},{"id":"way-782588188","lat":25.015364,"lon":121.55145,"name":"台北聯絡線","decorType":"bridge"},{"id":"way-826229802","lat":25.022479,"lon":121.559746,"name":"未命名水邊","decorType":"waterside"},{"id":"way-877544937","lat":25.018519,"lon":121.55887,"name":"未命名公車站","decorType":"bus_stop"},{"id":"way-877544938","lat":25.01845,"lon":121.558801,"name":"未命名公車站","decorType":"bus_stop"},{"id":"way-904689741","lat":25.011453,"lon":121.555071,"name":"未命名山丘","decorType":"mountain"},{"id":"way-904689742","lat":25.012145,"lon":121.557112,"name":"未命名山丘","decorType":"mountain"},{"id":"way-1068207375","lat":25.012755,"lon":121.560315,"name":"和平東路三段606巷","decorType":"bridge"},{"id":"way-1169211051","lat":25.021605,"lon":121.552106,"name":"未命名公園","decorType":"park"},{"id":"way-1228988057","lat":25.016296,"lon":121.55618,"name":"未命名山丘","decorType":"mountain"},{"id":"way-1228988058","lat":25.016403,"lon":121.554504,"name":"未命名山丘","decorType":"mountain"},{"id":"way-1266231365","lat":25.012466,"lon":121.559165,"name":"受天宮","decorType":"shrine"},{"id":"way-1291950272","lat":25.013563,"lon":121.557143,"name":"未命名橋樑","decorType":"bridge"},{"id":"way-1291950277","lat":25.015017,"lon":121.559714,"name":"未命名公園","decorType":"park"},{"id":"way-1294716953","lat":25.013982,"lon":121.552546,"name":"未命名公園","decorType":"park"},{"id":"way-1302790801","lat":25.011265,"lon":121.55263,"name":"未命名橋樑","decorType":"bridge"},{"id":"way-1305535721","lat":25.01397,"lon":121.548759,"name":"聯外道路","decorType":"bridge"},{"id":"way-1325466543","lat":25.017082,"lon":121.54822,"name":"未命名公園","decorType":"park"},{"id":"way-1325466545","lat":25.016508,"lon":121.548405,"name":"未命名公園","decorType":"park"},{"id":"way-1325480145","lat":25.011814,"lon":121.549289,"name":"未命名水邊","decorType":"waterside"},{"id":"way-1325595828","lat":25.013033,"lon":121.552059,"name":"未命名水邊","decorType":"waterside"},{"id":"way-1360402712","lat":25.011552,"lon":121.548861,"name":"未命名橋樑","decorType":"bridge"},{"id":"way-1366036753","lat":25.021754,"lon":121.561033,"name":"未命名水邊","decorType":"waterside"},{"id":"way-1366036755","lat":25.022572,"lon":121.5595,"name":"未命名水邊","decorType":"waterside"},{"id":"way-1422480786","lat":25.013485,"lon":121.557136,"name":"未命名水邊","decorType":"waterside"},{"id":"way-1442948967","lat":25.009843,"lon":121.558842,"name":"文景43號公園","decorType":"park"},{"id":"way-1445742335","lat":25.01534,"lon":121.557775,"name":"未命名橋樑","decorType":"bridge"},{"id":"way-1445742338","lat":25.015498,"lon":121.557524,"name":"未命名橋樑","decorType":"bridge"},{"id":"way-1445742350","lat":25.016319,"lon":121.557179,"name":"未命名橋樑","decorType":"bridge"},{"id":"way-1456613597","lat":25.02164,"lon":121.549483,"name":"基隆路高架道路","decorType":"bridge"},{"id":"way-1456613598","lat":25.021018,"lon":121.548769,"name":"基隆路高架道路","decorType":"bridge"},{"id":"way-1460554824","lat":25.01852,"lon":121.559818,"name":"未命名公園","decorType":"park"},{"id":"way-1460554825","lat":25.012699,"lon":121.560513,"name":"無極鳳天宮","decorType":"shrine"},{"id":"way-1460554836","lat":25.01469,"lon":121.55785,"name":"上池","decorType":"waterside"},{"id":"way-1460554837","lat":25.014674,"lon":121.557791,"name":"中池","decorType":"waterside"},{"id":"way-1460554838","lat":25.014606,"lon":121.557676,"name":"下池","decorType":"waterside"},{"id":"way-1460554872","lat":25.014622,"lon":121.557541,"name":"未命名水邊","decorType":"waterside"}]}