{"bbox":{"south":25.007519,"north":25.023125,"west":121.470031,"east":121.483062},"pois":[{"id":"node-1397157176","lat":25.022208,"lon":121.471619,"name":"7-Eleven","decorType":"convenience"},{"id":"node-1403019752","lat":25.012859,"lon":121.475443,"name":"7-Eleven","decorType":"convenience"},{"id":"node-1413143335","lat":25.015261,"lon":121.472564,"name":"全家便利商店","decorType":"convenience"},{"id":"node-1413143357","lat":25.023009,"lon":121.474282,"name":"板橋莒光郵局","decorType":"post_office"},{"id":"node-1413143455","lat":25.01765,"lon":121.47732,"name":"肯德基","decorType":"burger"},{"id":"node-1413143457","lat":25.017728,"lon":121.477469,"name":"麥當勞","decorType":"burger"},{"id":"node-2292046882","lat":25.008581,"lon":121.471366,"name":"黑糖嬤嬤","decorType":"restaurant"},{"id":"node-2317183281","lat":25.007859,"lon":121.479645,"name":"萊爾富","decorType":"convenience"},{"id":"node-2317183284","lat":25.008122,"lon":121.479612,"name":"7-Eleven","decorType":"convenience"},{"id":"node-2406529627","lat":25.017931,"lon":121.477791,"name":"7-Eleven","decorType":"convenience"},{"id":"node-2622985317","lat":25.022852,"lon":121.471376,"name":"中山公園","decorType":"bus_stop"},{"id":"node-2622985318","lat":25.022865,"lon":121.471272,"name":"中山公園","decorType":"bus_stop"},{"id":"node-2622985338","lat":25.020838,"lon":121.470673,"name":"莊敬公園","decorType":"bus_stop"},{"id":"node-2622985339","lat":25.020907,"lon":121.47032,"name":"莊敬公園","decorType":"bus_stop"},{"id":"node-2630856486","lat":25.013957,"lon":121.470247,"name":"中山漢生路口","decorType":"bus_stop"},{"id":"node-2630856506","lat":25.014955,"lon":121.47239,"name":"西安里","decorType":"bus_stop"},{"id":"node-2630856507","lat":25.015042,"lon":121.472178,"name":"西安里","decorType":"bus_stop"},{"id":"node-2866590585","lat":25.014531,"lon":121.472418,"name":"板新","decorType":"station"},{"id":"node-3036388761","lat":25.016784,"lon":121.475682,"name":"成昌食堂","decorType":"restaurant"},{"id":"node-3166784687","lat":25.013849,"lon":121.473251,"name":"中山路口","decorType":"bus_stop"},{"id":"node-3166784702","lat":25.009697,"lon":121.471036,"name":"海山高中","decorType":"bus_stop"},{"id":"node-3166784703","lat":25.010743,"lon":121.470252,"name":"海山高中","decorType":"bus_stop"},{"id":"node-3166784704","lat":25.008568,"lon":121.471401,"name":"海山國小","decorType":"bus_stop"},{"id":"node-3234807778","lat":25.022335,"lon":121.472431,"name":"新北市立圖書館板橋萬板親子閱覽室","decorType":"library"},{"id":"node-3317275795","lat":25.016056,"lon":121.474685,"name":"中山民生路口","decorType":"bus_stop"},{"id":"node-3317275796","lat":25.016141,"lon":121.474395,"name":"中山民生路口","decorType":"bus_stop"},{"id":"node-3317275812","lat":25.017917,"lon":121.477946,"name":"埔墘 (中山路)","decorType":"bus_stop"},{"id":"node-3317275813","lat":25.017986,"lon":121.478294,"name":"埔墘 (中山路)","decorType":"bus_stop"},{"id":"node-3317275814","lat":25.016666,"lon":121.475929,"name":"埔墘國小","decorType":"bus_stop"},{"id":"node-3317275815","lat":25.016829,"lon":121.475892,"name":"埔墘國小","decorType":"bus_stop"},{"id":"node-3317275816","lat":25.019342,"lon":121.480613,"name":"埔墘派出所","decorType":"bus_stop"},{"id":"node-3317275817","lat":25.01944,"lon":121.480188,"name":"埔墘派出所","decorType":"bus_stop"},{"id":"node-3336564652","lat":25.020717,"lon":121.47452,"name":"太和街口","decorType":"bus_stop"},{"id":"node-3336565999","lat":25.017817,"lon":121.470404,"name":"華翠大橋","decorType":"bus_stop"},{"id":"node-3336566000","lat":25.018089,"lon":121.470342,"name":"華翠大橋","decorType":"bus_stop"},{"id":"node-3336566007","lat":25.021052,"lon":121.474395,"name":"埤墘里","decorType":"bus_stop"},{"id":"node-3336566008","lat":25.02248,"lon":121.476975,"name":"雙玉里","decorType":"bus_stop"},{"id":"node-3338710819","lat":25.022916,"lon":121.472152,"name":"勞工大學","decorType":"bus_stop"},{"id":"node-3338710821","lat":25.015011,"lon":121.47407,"name":"民生中山路口","decorType":"bus_stop"},{"id":"node-3338710822","lat":25.017966,"lon":121.472119,"name":"民生陸橋","decorType":"bus_stop"},{"id":"node-3338710823","lat":25.016677,"lon":121.473048,"name":"玉光里","decorType":"bus_stop"},{"id":"node-3343597138","lat":25.017074,"lon":121.479141,"name":"埔墘 (三民路)","decorType":"bus_stop"},{"id":"node-3343597139","lat":25.017785,"lon":121.479373,"name":"埔墘 (三民路)","decorType":"bus_stop"},{"id":"node-3343597143","lat":25.008594,"lon":121.479223,"name":"松下電子","decorType":"bus_stop"},{"id":"node-3343597144","lat":25.008629,"lon":121.479326,"name":"松下電子","decorType":"bus_stop"},{"id":"node-3343597304","lat":25.022062,"lon":121.479623,"name":"翠華新村","decorType":"bus_stop"},{"id":"node-3343597305","lat":25.022261,"lon":121.479385,"name":"翠華新村","decorType":"bus_stop"},{"id":"node-3343597306","lat":25.011809,"lon":121.478746,"name":"自來水公司","decorType":"bus_stop"},{"id":"node-3343597307","lat":25.012722,"lon":121.479089,"name":"自來水公司","decorType":"bus_stop"},{"id":"node-3343597308","lat":25.014177,"lon":121.478944,"name":"長壽里","decorType":"bus_stop"},{"id":"node-3343597309","lat":25.015266,"lon":121.47927,"name":"長壽里","decorType":"bus_stop"},{"id":"node-3504208016","lat":25.013413,"lon":121.475829,"name":"新北市立圖書館板橋民生圖書閱覽室","decorType":"library"},{"id":"node-3510127866","lat":25.01243,"lon":121.475241,"name":"香港雄記燒臘","decorType":"restaurant"},{"id":"node-3510130286","lat":25.011644,"lon":121.473991,"name":"小廚房Kitchenette CAFE","decorType":"cafe"},{"id":"node-3510132659","lat":25.017946,"lon":121.477602,"name":"紅粧行 (Pretty Box)","decorType":"supermarket"},{"id":"node-3510136773","lat":25.016024,"lon":121.474717,"name":"Yummy Brunch","decorType":"restaurant"},{"id":"node-3510138055","lat":25.017837,"lon":121.477297,"name":"Petit Tuz (小兔子鄉村輕食雜貨鋪）","decorType":"cafe"},{"id":"node-3612251249","lat":25.020619,"lon":121.47581,"name":"7-Eleven","decorType":"convenience"},{"id":"node-3622790395","lat":25.018089,"lon":121.478065,"name":"如意擔仔麵","decorType":"restaurant"},{"id":"node-3622812490","lat":25.017732,"lon":121.479476,"name":"家樂福","decorType":"supermarket"},{"id":"node-3622831225","lat":25.017366,"lon":121.47746,"name":"摩斯漢堡","decorType":"burger"},{"id":"node-3624471054","lat":25.01807,"lon":121.478579,"name":"丹堤咖啡","decorType":"cafe"},{"id":"node-3625658062","lat":25.019064,"lon":121.473564,"name":"7-Eleven","decorType":"convenience"},{"id":"node-3643796520","lat":25.016666,"lon":121.475262,"name":"義美食品","decorType":"convenience"},{"id":"node-3643870387","lat":25.017062,"lon":121.476254,"name":"城乙化工","decorType":"cosmetics"},{"id":"node-3643893742","lat":25.017205,"lon":121.476542,"name":"提拉米蘇精緻蛋糕","decorType":"sweetshop"},{"id":"node-3643897403","lat":25.016879,"lon":121.475883,"name":"五桐號","decorType":"cafe"},{"id":"node-3647479026","lat":25.017837,"lon":121.47768,"name":"未命名郵局","decorType":"post_office"},{"id":"node-3663951136","lat":25.01847,"lon":121.48055,"name":"阿華肉羹","decorType":"restaurant"},{"id":"node-3671250856","lat":25.013858,"lon":121.478852,"name":"麥味登","decorType":"restaurant"},{"id":"node-3683800289","lat":25.010175,"lon":121.480904,"name":"中和戶政 (員山辦事處)","decorType":"bus_stop"},{"id":"node-3683800295","lat":25.010261,"lon":121.480722,"name":"全家便利商店","decorType":"convenience"},{"id":"node-3683800301","lat":25.01203,"lon":121.477115,"name":"正隆廣場","decorType":"bus_stop"},{"id":"node-3750095370","lat":25.008792,"lon":121.474848,"name":"7-Eleven","decorType":"convenience"},{"id":"node-3750099928","lat":25.008873,"lon":121.474531,"name":"全家便利商店","decorType":"convenience"},{"id":"node-3750216514","lat":25.009141,"lon":121.47475,"name":"拉亞漢堡","decorType":"burger"},{"id":"node-3785970595","lat":25.018692,"lon":121.479033,"name":"源士林粥品","decorType":"restaurant"},{"id":"node-4045381164","lat":25.013542,"lon":121.475476,"name":"憲兵隊","decorType":"bus_stop"},{"id":"node-4122381689","lat":25.022303,"lon":121.472048,"name":"星巴克","decorType":"cafe"},{"id":"node-4124789189","lat":25.01894,"lon":121.473589,"name":"韓老爹豆漿店","decorType":"restaurant"},{"id":"node-4147351031","lat":25.017759,"lon":121.478072,"name":"Happy Hair","decorType":"hair_salon"},{"id":"node-4147351032","lat":25.018044,"lon":121.479038,"name":"Miss E","decorType":"cosmetics"},{"id":"node-4147351034","lat":25.015025,"lon":121.479321,"name":"Tea館","decorType":"cafe"},{"id":"node-4147351037","lat":25.016583,"lon":121.479455,"name":"全家便利商店","decorType":"convenience"},{"id":"node-4147351038","lat":25.018227,"lon":121.479044,"name":"八方雲集","decorType":"burger"},{"id":"node-4147351040","lat":25.018129,"lon":121.479024,"name":"吉野家","decorType":"burger"},{"id":"node-4147351042","lat":25.017965,"lon":121.479031,"name":"大呼過癮","decorType":"restaurant"},{"id":"node-4147351044","lat":25.016256,"lon":121.479434,"name":"屈臣氏","decorType":"pharmacy"},{"id":"node-4147351045","lat":25.017407,"lon":121.477529,"name":"屈臣氏","decorType":"pharmacy"},{"id":"node-4147351046","lat":25.017896,"lon":121.479068,"name":"巨亨資訊","decorType":"electronics"},{"id":"node-4147351048","lat":25.017967,"lon":121.478946,"name":"我家牛排","decorType":"restaurant"},{"id":"node-4147351050","lat":25.018043,"lon":121.478547,"name":"曼黛瑪璉","decorType":"clothing"},{"id":"node-4147351051","lat":25.017922,"lon":121.478342,"name":"心心健保藥局","decorType":"pharmacy"},{"id":"node-4147356096","lat":25.018027,"lon":121.479436,"name":"老字號甜不辣","decorType":"restaurant"},{"id":"node-4147356098","lat":25.017786,"lon":121.478116,"name":"芃諭名品","decorType":"clothing"},{"id":"node-4147356099","lat":25.018191,"lon":121.479422,"name":"一沐日","decorType":"cafe"},{"id":"node-4147356100","lat":25.018285,"lon":121.479037,"name":"豐彩壽司關東煮","decorType":"restaurant"},{"id":"node-4147356102","lat":25.012625,"lon":121.479137,"name":"全家便利商店","decorType":"convenience"},{"id":"node-4147356103","lat":25.017877,"lon":121.478269,"name":"鎮衣店","decorType":"clothing"},{"id":"node-4147356105","lat":25.017976,"lon":121.478422,"name":"Triumph","decorType":"clothing"},{"id":"node-4147356106","lat":25.016769,"lon":121.479468,"name":"7-Eleven","decorType":"convenience"},{"id":"node-4147356107","lat":25.017156,"lon":121.477131,"name":"7-Eleven","decorType":"convenience"},{"id":"node-4147356108","lat":25.017325,"lon":121.479079,"name":"85度C","decorType":"cafe"},{"id":"node-4147389963","lat":25.008161,"lon":121.471833,"name":"7-Eleven","decorType":"convenience"},{"id":"node-4147389964","lat":25.008665,"lon":121.471315,"name":"7-Eleven","decorType":"convenience"},{"id":"node-4147389967","lat":25.014609,"lon":121.471866,"name":"85度C","decorType":"cafe"},{"id":"node-4169713692","lat":25.008883,"lon":121.481956,"name":"中和第二戶政","decorType":"bus_stop"},{"id":"node-4169713701","lat":25.012536,"lon":121.475932,"name":"正隆廣場","decorType":"bus_stop"},{"id":"node-4169713703","lat":25.011649,"lon":121.477295,"name":"員山路口","decorType":"bus_stop"},{"id":"node-4169713704","lat":25.013798,"lon":121.474634,"name":"民生中山路口","decorType":"bus_stop"},{"id":"node-4169713705","lat":25.017471,"lon":121.471535,"name":"民生陸橋","decorType":"bus_stop"},{"id":"node-4848590223","lat":25.013352,"lon":121.479192,"name":"全家便利商店","decorType":"convenience"},{"id":"node-4848590226","lat":25.013268,"lon":121.478793,"name":"7-Eleven","decorType":"convenience"},{"id":"node-4848590227","lat":25.019614,"lon":121.481132,"name":"全聯福利中心","decorType":"supermarket"},{"id":"node-4858750216","lat":25.00938,"lon":121.478108,"name":"萊爾富","decorType":"convenience"},{"id":"node-4873101927","lat":25.015022,"lon":121.479573,"name":"全家便利商店","decorType":"convenience"},{"id":"node-4876298528","lat":25.018859,"lon":121.479934,"name":"7-Eleven","decorType":"convenience"},{"id":"node-5328354350","lat":25.020764,"lon":121.482912,"name":"7-Eleven","decorType":"convenience"},{"id":"node-5445874322","lat":25.018545,"lon":121.478774,"name":"可不可熟成紅茶","decorType":"cafe"},{"id":"node-5512802373","lat":25.016335,"lon":121.47328,"name":"全家便利商店","decorType":"convenience"},{"id":"node-5512802386","lat":25.012156,"lon":121.4708,"name":"弘爺漢堡","decorType":"burger"},{"id":"node-5513060381","lat":25.016346,"lon":121.474523,"name":"板橋埔墘郵局","decorType":"post_office"},{"id":"node-5513096450","lat":25.018308,"lon":121.472626,"name":"板橋紫玉宮","decorType":"shrine"},{"id":"node-5513096451","lat":25.019535,"lon":121.474201,"name":"萬佳鄉","decorType":"restaurant"},{"id":"node-5513096455","lat":25.018589,"lon":121.478838,"name":"阿義現蒸臭豆腐","decorType":"restaurant"},{"id":"node-5602300358","lat":25.020025,"lon":121.481073,"name":"老串角","decorType":"restaurant"},{"id":"node-5687055383","lat":25.022652,"lon":121.481916,"name":"板橋玉旨代天堂","decorType":"shrine"},{"id":"node-5715660552","lat":25.011897,"lon":121.470278,"name":"Q Burger","decorType":"burger"},{"id":"node-5814956523","lat":25.019875,"lon":121.474674,"name":"星亮屋早餐坊","decorType":"restaurant"},{"id":"node-6728711385","lat":25.012642,"lon":121.475092,"name":"八方雲集","decorType":"burger"},{"id":"node-6737190485","lat":25.011909,"lon":121.474399,"name":"全家便利商店","decorType":"convenience"},{"id":"node-7059455986","lat":25.020523,"lon":121.482543,"name":"蝦皮店到店","decorType":"convenience"},{"id":"node-7191222736","lat":25.014484,"lon":121.472086,"name":"捷運板新站1號出口","decorType":"station"},{"id":"node-7229406386","lat":25.020674,"lon":121.4789,"name":"法鼓山護法總會板橋分會","decorType":"shrine"},{"id":"node-7653459383","lat":25.013772,"lon":121.473847,"name":"中山路口","decorType":"bus_stop"},{"id":"node-7902834994","lat":25.013616,"lon":121.477179,"name":"全家便利商店","decorType":"convenience"},{"id":"node-7902834995","lat":25.012082,"lon":121.47586,"name":"全家便利商店","decorType":"convenience"},{"id":"node-7902834996","lat":25.013961,"lon":121.472876,"name":"全家便利商店","decorType":"convenience"},{"id":"node-7902834997","lat":25.012774,"lon":121.471933,"name":"全家便利商店","decorType":"convenience"},{"id":"node-7902834998","lat":25.015898,"lon":121.478976,"name":"全家便利商店","decorType":"convenience"},{"id":"node-7902834999","lat":25.018085,"lon":121.479772,"name":"全家便利商店","decorType":"convenience"},{"id":"node-7902835000","lat":25.021047,"lon":121.482658,"name":"全家便利商店","decorType":"convenience"},{"id":"node-7902835001","lat":25.021572,"lon":121.479174,"name":"全家便利商店","decorType":"convenience"},{"id":"node-7902835005","lat":25.023064,"lon":121.480017,"name":"7-Eleven","decorType":"convenience"},{"id":"node-7902835006","lat":25.021995,"lon":121.482225,"name":"7-Eleven","decorType":"convenience"},{"id":"node-7902835007","lat":25.019566,"lon":121.480398,"name":"7-Eleven","decorType":"convenience"},{"id":"node-7902835008","lat":25.016687,"lon":121.475176,"name":"7-Eleven","decorType":"convenience"},{"id":"node-7902835009","lat":25.015175,"lon":121.475887,"name":"7-Eleven","decorType":"convenience"},{"id":"node-7902835010","lat":25.011717,"lon":121.474607,"name":"7-Eleven","decorType":"convenience"},{"id":"node-7902835011","lat":25.014977,"lon":121.48092,"name":"美廉社","decorType":"supermarket"},{"id":"node-7902835012","lat":25.023048,"lon":121.479932,"name":"美廉社","decorType":"supermarket"},{"id":"node-7902835014","lat":25.021716,"lon":121.482054,"name":"美廉社","decorType":"supermarket"},{"id":"node-7902835015","lat":25.015481,"lon":121.475678,"name":"美廉社","decorType":"supermarket"},{"id":"node-7902835016","lat":25.013124,"lon":121.473468,"name":"美廉社","decorType":"supermarket"},{"id":"node-7902835017","lat":25.020722,"lon":121.478983,"name":"板橋三民路郵局","decorType":"post_office"},{"id":"node-7994313782","lat":25.016636,"lon":121.476023,"name":"迷客夏","decorType":"cafe"},{"id":"node-7994313783","lat":25.016543,"lon":121.475806,"name":"地標網通","decorType":"electronics"},{"id":"node-7994313784","lat":25.016601,"lon":121.475937,"name":"麻古茶坊","decorType":"cafe"},{"id":"node-7994335597","lat":25.01673,"lon":121.475378,"name":"達菲斯","decorType":"cosmetics"},{"id":"node-7994335623","lat":25.016799,"lon":121.475728,"name":"50嵐","decorType":"cafe"},{"id":"node-7994335624","lat":25.016825,"lon":121.475773,"name":"劉天祿滷味","decorType":"restaurant"},{"id":"node-7994335625","lat":25.016867,"lon":121.475858,"name":"西門町楊排骨酥麵","decorType":"restaurant"},{"id":"node-8003776683","lat":25.012703,"lon":121.475579,"name":"路易莎咖啡","decorType":"cafe"},{"id":"node-8018096080","lat":25.01511,"lon":121.479329,"name":"路易莎咖啡","decorType":"cafe"},{"id":"node-8018096082","lat":25.016921,"lon":121.476624,"name":"驊珍食品","decorType":"bakery"},{"id":"node-8018096083","lat":25.016712,"lon":121.476166,"name":"梁社漢排骨","decorType":"restaurant"},{"id":"node-8018193986","lat":25.017131,"lon":121.477085,"name":"漢堡王","decorType":"burger"},{"id":"node-8018193987","lat":25.018086,"lon":121.478601,"name":"第一味","decorType":"cafe"},{"id":"node-8018193988","lat":25.017908,"lon":121.478316,"name":"DK呼吸空氣鞋","decorType":"clothing"},{"id":"node-8018193994","lat":25.016952,"lon":121.476715,"name":"廣和藥師藥局","decorType":"pharmacy"},{"id":"node-8018193996","lat":25.016815,"lon":121.4764,"name":"先喝道","decorType":"cafe"},{"id":"node-8018193998","lat":25.016731,"lon":121.476205,"name":"聯強電信聯盟","decorType":"electronics"},{"id":"node-8018194000","lat":25.016762,"lon":121.476293,"name":"上營大屋滷味","decorType":"restaurant"},{"id":"node-8018194001","lat":25.017179,"lon":121.476468,"name":"HONOR","decorType":"clothing"},{"id":"node-8018194003","lat":25.017149,"lon":121.476427,"name":"三槍","decorType":"clothing"},{"id":"node-8018194005","lat":25.01709,"lon":121.476307,"name":"老王原汁牛肉麵","decorType":"restaurant"},{"id":"node-8018194006","lat":25.017075,"lon":121.476278,"name":"Yin home","decorType":"hair_salon"},{"id":"node-8018194007","lat":25.017054,"lon":121.476233,"name":"大苑子","decorType":"cafe"},{"id":"node-8018194008","lat":25.017058,"lon":121.476185,"name":"清心福全","decorType":"cafe"},{"id":"node-8018194009","lat":25.017036,"lon":121.476145,"name":"北投紅茶","decorType":"cafe"},{"id":"node-8018194010","lat":25.016994,"lon":121.476115,"name":"大力士香雞排","decorType":"restaurant"},{"id":"node-8018194011","lat":25.016959,"lon":121.476029,"name":"1985窯烤披薩","decorType":"restaurant"},{"id":"node-8018194012","lat":25.016931,"lon":121.475961,"name":"陳新抄手","decorType":"restaurant"},{"id":"node-8018194013","lat":25.016943,"lon":121.475995,"name":"BJ快手","decorType":"hair_salon"},{"id":"node-8018194015","lat":25.016391,"lon":121.475502,"name":"帥井滷肉飯","decorType":"restaurant"},{"id":"node-8018194016","lat":25.016402,"lon":121.475521,"name":"金花吐司專賣","decorType":"restaurant"},{"id":"node-8018194017","lat":25.016412,"lon":121.475549,"name":"FaceColor","decorType":"hair_salon"},{"id":"node-8118272758","lat":25.010023,"lon":121.473923,"name":"全家便利商店","decorType":"convenience"},{"id":"node-8118272843","lat":25.021252,"lon":121.472633,"name":"全家便利商店","decorType":"convenience"},{"id":"node-8118272844","lat":25.022319,"lon":121.474312,"name":"全家便利商店","decorType":"convenience"},{"id":"node-8301473879","lat":25.017248,"lon":121.476624,"name":"綠食代素食","decorType":"restaurant"},{"id":"node-8301473880","lat":25.017284,"lon":121.47669,"name":"鬍鬚張","decorType":"restaurant"},{"id":"node-8301473881","lat":25.017322,"lon":121.476763,"name":"奇威名品","decorType":"clothing"},{"id":"node-8301473884","lat":25.017432,"lon":121.476953,"name":"埔墘藥局","decorType":"pharmacy"},{"id":"node-8301473885","lat":25.017453,"lon":121.477002,"name":"村村食堂","decorType":"restaurant"},{"id":"node-8301473888","lat":25.017585,"lon":121.477239,"name":"皇安藥局","decorType":"pharmacy"},{"id":"node-8301473890","lat":25.017624,"lon":121.477278,"name":"康是美","decorType":"pharmacy"},{"id":"node-8301473892","lat":25.017662,"lon":121.477354,"name":"NET","decorType":"clothing"},{"id":"node-8301473893","lat":25.016972,"lon":121.476752,"name":"池上傳統便當","decorType":"restaurant"},{"id":"node-8301473894","lat":25.016988,"lon":121.476785,"name":"巨林美而美","decorType":"burger"},{"id":"node-8301473895","lat":25.017005,"lon":121.476822,"name":"能量小姐","decorType":"restaurant"},{"id":"node-8301473898","lat":25.017016,"lon":121.476898,"name":"樂心藥局","decorType":"pharmacy"},{"id":"node-8301473899","lat":25.017058,"lon":121.476926,"name":"Subway","decorType":"burger"},{"id":"node-8301473900","lat":25.017081,"lon":121.476987,"name":"Nice box手機配件館","decorType":"electronics"},{"id":"node-8357411937","lat":25.015273,"lon":121.473196,"name":"馬可先生","decorType":"bakery"},{"id":"node-8385313457","lat":25.016983,"lon":121.474633,"name":"八方雲集","decorType":"burger"},{"id":"node-8385313610","lat":25.008272,"lon":121.471511,"name":"八方雲集","decorType":"burger"},{"id":"node-8432400517","lat":25.009906,"lon":121.470388,"name":"海山高中","decorType":"bus_stop"},{"id":"node-8460802109","lat":25.02209,"lon":121.482164,"name":"光復街二","decorType":"bus_stop"},{"id":"node-8460802114","lat":25.022063,"lon":121.482086,"name":"光復街二","decorType":"bus_stop"},{"id":"node-8460824817","lat":25.009322,"lon":121.478224,"name":"員富里","decorType":"bus_stop"},{"id":"node-8460824843","lat":25.016598,"lon":121.482049,"name":"光復國中","decorType":"bus_stop"},{"id":"node-8460824844","lat":25.01525,"lon":121.482256,"name":"光復國小","decorType":"bus_stop"},{"id":"node-8460824845","lat":25.018431,"lon":121.48275,"name":"光復街","decorType":"bus_stop"},{"id":"node-8460824846","lat":25.018544,"lon":121.482657,"name":"光復街","decorType":"bus_stop"},{"id":"node-8642800442","lat":25.008216,"lon":121.479552,"name":"全家便利商店","decorType":"convenience"},{"id":"node-8771537114","lat":25.022903,"lon":121.479038,"name":"石煮精緻石頭火鍋","decorType":"restaurant"},{"id":"node-8771582460","lat":25.022951,"lon":121.479471,"name":"大興鞋業","decorType":"clothing"},{"id":"node-8772736076","lat":25.022577,"lon":121.479257,"name":"衣樂洗","decorType":"laundry"},{"id":"node-8772843172","lat":25.023048,"lon":121.479837,"name":"土虱廖熱炒","decorType":"restaurant"},{"id":"node-8784649271","lat":25.015058,"lon":121.472086,"name":"Domino's","decorType":"burger"},{"id":"node-8784649273","lat":25.015149,"lon":121.472331,"name":"佐登妮絲","decorType":"cosmetics"},{"id":"node-8784649278","lat":25.015151,"lon":121.472957,"name":"大賞鐵板燒","decorType":"restaurant"},{"id":"node-8784649279","lat":25.0152,"lon":121.473067,"name":"泰味廚房","decorType":"restaurant"},{"id":"node-8788227650","lat":25.017575,"lon":121.477212,"name":"人从众厚切牛排館","decorType":"restaurant"},{"id":"node-8788227652","lat":25.017341,"lon":121.477418,"name":"福隆月台便當","decorType":"restaurant"},{"id":"node-8788227653","lat":25.017453,"lon":121.477609,"name":"新珍香餅舖","decorType":"bakery"},{"id":"node-8788227659","lat":25.017616,"lon":121.477833,"name":"MOMA","decorType":"clothing"},{"id":"node-8788227660","lat":25.017642,"lon":121.477874,"name":"R。D","decorType":"clothing"},{"id":"node-8788227661","lat":25.017669,"lon":121.477919,"name":"MO-BO","decorType":"clothing"},{"id":"node-8788227663","lat":25.018026,"lon":121.478506,"name":"德一藥局","decorType":"pharmacy"},{"id":"node-8788227664","lat":25.018109,"lon":121.47863,"name":"有夠滷","decorType":"restaurant"},{"id":"node-8788227668","lat":25.017992,"lon":121.477898,"name":"薇菈精品服飾","decorType":"clothing"},{"id":"node-8788227670","lat":25.018324,"lon":121.478398,"name":"詩威特","decorType":"cosmetics"},{"id":"node-8813868885","lat":25.016202,"lon":121.475092,"name":"大川藥局","decorType":"pharmacy"},{"id":"node-8813868888","lat":25.016131,"lon":121.474964,"name":"佳佳香鍋貼","decorType":"restaurant"},{"id":"node-8813868894","lat":25.016345,"lon":121.474755,"name":"立得屋五金百貨賣場","decorType":"hardware"},{"id":"node-8813868897","lat":25.016112,"lon":121.474259,"name":"瑪妮年糕鍋","decorType":"restaurant"},{"id":"node-8813868900","lat":25.015957,"lon":121.47458,"name":"羽食甯聚","decorType":"restaurant"},{"id":"node-8813868901","lat":25.015942,"lon":121.474539,"name":"沛潔洗衣","decorType":"laundry"},{"id":"node-8813868902","lat":25.015892,"lon":121.474441,"name":"好客雞肉飯","decorType":"restaurant"},{"id":"node-8813868904","lat":25.015915,"lon":121.47449,"name":"小木屋鬆餅","decorType":"restaurant"},{"id":"node-8813868905","lat":25.01587,"lon":121.474394,"name":"清香排骨快餐","decorType":"restaurant"},{"id":"node-8813868908","lat":25.016043,"lon":121.474761,"name":"潮鍋癮","decorType":"restaurant"},{"id":"node-8813868911","lat":25.016059,"lon":121.474143,"name":"晨光蔬果早餐吧","decorType":"restaurant"},{"id":"node-8823518465","lat":25.01913,"lon":121.479622,"name":"燦坤3C","decorType":"electronics"},{"id":"node-8823518469","lat":25.019106,"lon":121.479585,"name":"喬太商務旅館","decorType":"hotel"},{"id":"node-8823518477","lat":25.018702,"lon":121.479684,"name":"玖百電器有限公司","decorType":"electronics"},{"id":"node-8823518478","lat":25.018731,"lon":121.47973,"name":"MiCHi義大利麵","decorType":"restaurant"},{"id":"node-8823518482","lat":25.018619,"lon":121.478912,"name":"味味香清粥便當","decorType":"restaurant"},{"id":"node-8823518483","lat":25.018675,"lon":121.479001,"name":"湯明藥局","decorType":"pharmacy"},{"id":"node-8823518485","lat":25.018821,"lon":121.479042,"name":"柏菲菠蘿","decorType":"bakery"},{"id":"node-8823518487","lat":25.018596,"lon":121.478852,"name":"桶一天下","decorType":"restaurant"},{"id":"node-8823518488","lat":25.018505,"lon":121.478704,"name":"恆香盛","decorType":"restaurant"},{"id":"node-8823518489","lat":25.018389,"lon":121.478651,"name":"聚靈宮","decorType":"shrine"},{"id":"node-8823518491","lat":25.017962,"lon":121.478797,"name":"埔墘福德宮","decorType":"shrine"},{"id":"node-8823518492","lat":25.018041,"lon":121.477976,"name":"黑盒子手機維修中心","decorType":"electronics"},{"id":"node-8823518494","lat":25.018242,"lon":121.478844,"name":"麵匡匡拉麵食堂","decorType":"restaurant"},{"id":"node-8823518496","lat":25.018311,"lon":121.478946,"name":"小高拉麵","decorType":"restaurant"},{"id":"node-8823518500","lat":25.018411,"lon":121.47907,"name":"東北大餅","decorType":"bakery"},{"id":"node-8823518501","lat":25.016217,"lon":121.474549,"name":"未命名郵局","decorType":"post_office"},{"id":"node-8823518502","lat":25.018152,"lon":121.47687,"name":"未命名郵局","decorType":"post_office"},{"id":"node-8834894913","lat":25.017935,"lon":121.473969,"name":"萊爾富","decorType":"convenience"},{"id":"node-8834894914","lat":25.018018,"lon":121.473945,"name":"小斯美手感烘焙","decorType":"bakery"},{"id":"node-8834918817","lat":25.020068,"lon":121.47599,"name":"OK超商","decorType":"convenience"},{"id":"node-8834918818","lat":25.016855,"lon":121.474722,"name":"茶水表","decorType":"cafe"},{"id":"node-8834918820","lat":25.016878,"lon":121.474947,"name":"潛水飽食堂","decorType":"restaurant"},{"id":"node-8834918821","lat":25.015873,"lon":121.475399,"name":"Q Burger","decorType":"restaurant"},{"id":"node-8834918822","lat":25.01596,"lon":121.475342,"name":"全家便利商店","decorType":"convenience"},{"id":"node-8834918824","lat":25.016109,"lon":121.475229,"name":"林家正宗永和豆漿","decorType":"restaurant"},{"id":"node-8834918825","lat":25.015757,"lon":121.475486,"name":"阿村食堂","decorType":"restaurant"},{"id":"node-8834918826","lat":25.015712,"lon":121.475514,"name":"好吃食府肉羹麵","decorType":"restaurant"},{"id":"node-8834918827","lat":25.016308,"lon":121.47535,"name":"好煮義","decorType":"restaurant"},{"id":"node-8834918829","lat":25.01627,"lon":121.475374,"name":"蘋果樹","decorType":"restaurant"},{"id":"node-9329360610","lat":25.015142,"lon":121.472478,"name":"未命名郵局","decorType":"post_office"},{"id":"node-9345816160","lat":25.01267,"lon":121.47914,"name":"蝦皮店到店","decorType":"convenience"},{"id":"node-9449166789","lat":25.013121,"lon":121.472934,"name":"蝦皮店到店","decorType":"convenience"},{"id":"node-9449166790","lat":25.020384,"lon":121.472224,"name":"蝦皮店到店","decorType":"convenience"},{"id":"node-9505620487","lat":25.013173,"lon":121.47486,"name":"啜咖啡","decorType":"cafe"},{"id":"node-9694460282","lat":25.02292,"lon":121.471789,"name":"中山公園","decorType":"bus_stop"},{"id":"node-9726117022","lat":25.021432,"lon":121.479121,"name":"台灣菸酒便利商店","decorType":"convenience"},{"id":"node-9726321513","lat":25.016102,"lon":121.479038,"name":"老五鍋貼牛肉麵","decorType":"restaurant"},{"id":"node-9726321516","lat":25.016749,"lon":121.479073,"name":"清心福全","decorType":"cafe"},{"id":"node-9727454491","lat":25.01507,"lon":121.479322,"name":"拉亞漢堡","decorType":"burger"},{"id":"node-9727645504","lat":25.013007,"lon":121.478801,"name":"泰安蛋糕","decorType":"bakery"},{"id":"node-9727645505","lat":25.013666,"lon":121.478836,"name":"日日晴食","decorType":"restaurant"},{"id":"node-9920262349","lat":25.017431,"lon":121.477571,"name":"得正","decorType":"cafe"},{"id":"node-9920262350","lat":25.018791,"lon":121.479052,"name":"貝思可咖啡店","decorType":"cafe"},{"id":"node-9920262351","lat":25.018287,"lon":121.478906,"name":"VIVIENNE T.","decorType":"hair_salon"},{"id":"node-9920856879","lat":25.016049,"lon":121.475529,"name":"CoCo都可","decorType":"cafe"},{"id":"node-9920856883","lat":25.016164,"lon":121.475445,"name":"指の藝術","decorType":"cosmetics"},{"id":"node-9920856884","lat":25.016097,"lon":121.475503,"name":"B&D專業剪髮","decorType":"hair_salon"},{"id":"node-9920856885","lat":25.016015,"lon":121.475555,"name":"吉米頁","decorType":"restaurant"},{"id":"node-9920856886","lat":25.015938,"lon":121.475607,"name":"伊髮工作坊","decorType":"hair_salon"},{"id":"node-9920856888","lat":25.017894,"lon":121.47704,"name":"黑肉圓","decorType":"restaurant"},{"id":"node-9920856889","lat":25.017785,"lon":121.476951,"name":"香辣好吃鹹水雞","decorType":"restaurant"},{"id":"node-9920856890","lat":25.017295,"lon":121.47636,"name":"上野日式料理","decorType":"restaurant"},{"id":"node-9920856891","lat":25.016841,"lon":121.475661,"name":"信賀閣","decorType":"restaurant"},{"id":"node-9920856892","lat":25.016877,"lon":121.47564,"name":"品鮮小館","decorType":"restaurant"},{"id":"node-9920856893","lat":25.017243,"lon":121.475253,"name":"True Box","decorType":"restaurant"},{"id":"node-9920856894","lat":25.01661,"lon":121.474897,"name":"暖男炸雞","decorType":"restaurant"},{"id":"node-9920856895","lat":25.01601,"lon":121.474028,"name":"咖哩小屋","decorType":"restaurant"},{"id":"node-9920856897","lat":25.015988,"lon":121.473981,"name":"二水町","decorType":"restaurant"},{"id":"node-9920856898","lat":25.015956,"lon":121.473911,"name":"霸味薑母鴨","decorType":"restaurant"},{"id":"node-9920856899","lat":25.015933,"lon":121.473871,"name":"鶴料","decorType":"restaurant"},{"id":"node-9920856900","lat":25.015914,"lon":121.473838,"name":"老先覺PLUS","decorType":"restaurant"},{"id":"node-9969422640","lat":25.022346,"lon":121.47623,"name":"OK超商","decorType":"convenience"},{"id":"node-9969422659","lat":25.022279,"lon":121.476188,"name":"富山街口","decorType":"bus_stop"},{"id":"node-9969488525","lat":25.022904,"lon":121.474068,"name":"我的早餐店","decorType":"restaurant"},{"id":"node-9982770307","lat":25.018047,"lon":121.47907,"name":"戰國拉麵","decorType":"restaurant"},{"id":"node-9982770310","lat":25.017402,"lon":121.479078,"name":"熊熊不受控咖啡廳","decorType":"cafe"},{"id":"node-9982770311","lat":25.017435,"lon":121.47908,"name":"MAN男の造型館","decorType":"hair_salon"},{"id":"node-9982770312","lat":25.018237,"lon":121.479422,"name":"蛋白盒子","decorType":"restaurant"},{"id":"node-9982770313","lat":25.018057,"lon":121.479436,"name":"Sen","decorType":"clothing"},{"id":"node-9982770314","lat":25.018414,"lon":121.479426,"name":"十金鵝","decorType":"restaurant"},{"id":"node-9982770315","lat":25.018454,"lon":121.479433,"name":"大月居酒食堂","decorType":"restaurant"},{"id":"node-9982812819","lat":25.018605,"lon":121.479449,"name":"懷念蚵嗲","decorType":"restaurant"},{"id":"node-9982812820","lat":25.018624,"lon":121.479503,"name":"阿里山畚箕湖鐵路便當","decorType":"restaurant"},{"id":"node-9984508855","lat":25.012166,"lon":121.475753,"name":"上牛鐵板燒","decorType":"restaurant"},{"id":"node-10074178836","lat":25.019888,"lon":121.481538,"name":"胖老爹","decorType":"burger"},{"id":"node-10074314097","lat":25.020565,"lon":121.481925,"name":"大台美百貨","decorType":"supermarket"},{"id":"node-10074316323","lat":25.015398,"lon":121.472229,"name":"觀光街雞排","decorType":"restaurant"},{"id":"node-10076691695","lat":25.012504,"lon":121.471597,"name":"林記快炒","decorType":"restaurant"},{"id":"node-10076709668","lat":25.01231,"lon":121.47111,"name":"義多摩pasta","decorType":"restaurant"},{"id":"node-10092252234","lat":25.020213,"lon":121.475266,"name":"蝦皮店到店","decorType":"convenience"},{"id":"node-10250167548","lat":25.01699,"lon":121.479462,"name":"鄭氏台南碗粿","decorType":"restaurant"},{"id":"node-10250167549","lat":25.016951,"lon":121.479461,"name":"G+9鮮釀餐廳","decorType":"restaurant"},{"id":"node-10250167550","lat":25.016897,"lon":121.479465,"name":"Mimosa","decorType":"cafe"},{"id":"node-10250167551","lat":25.016899,"lon":121.479545,"name":"搖滾披薩","decorType":"restaurant"},{"id":"node-10250167552","lat":25.016854,"lon":121.479466,"name":"必勝客","decorType":"restaurant"},{"id":"node-10250167553","lat":25.01681,"lon":121.479466,"name":"呷上味小籠包","decorType":"restaurant"},{"id":"node-10250167555","lat":25.016561,"lon":121.479074,"name":"淳割烹","decorType":"restaurant"},{"id":"node-10250167557","lat":25.016488,"lon":121.479064,"name":"黎記海鮮麵疙瘩","decorType":"restaurant"},{"id":"node-10250167558","lat":25.016444,"lon":121.479062,"name":"余東山鴨頭","decorType":"restaurant"},{"id":"node-10250167560","lat":25.016369,"lon":121.479055,"name":"三媽臭臭鍋","decorType":"restaurant"},{"id":"node-10250167561","lat":25.016306,"lon":121.47905,"name":"拿坡里","decorType":"restaurant"},{"id":"node-10250167565","lat":25.019649,"lon":121.479405,"name":"章章鍋","decorType":"restaurant"},{"id":"node-10250167566","lat":25.019545,"lon":121.479416,"name":"三商餐飲","decorType":"restaurant"},{"id":"node-10250167569","lat":25.019248,"lon":121.479793,"name":"百元快剪","decorType":"hair_salon"},{"id":"node-10250167570","lat":25.019296,"lon":121.47988,"name":"W.hair造型","decorType":"hair_salon"},{"id":"node-10250167574","lat":25.019409,"lon":121.480078,"name":"橘子乾洗","decorType":"laundry"},{"id":"node-10250167575","lat":25.019427,"lon":121.480115,"name":"店小二池上便當","decorType":"restaurant"},{"id":"node-10250167577","lat":25.019475,"lon":121.480187,"name":"光環藥局","decorType":"pharmacy"},{"id":"node-10250167578","lat":25.019491,"lon":121.480225,"name":"烤肉匠","decorType":"restaurant"},{"id":"node-10250167579","lat":25.019526,"lon":121.480289,"name":"牛排先生","decorType":"restaurant"},{"id":"node-10250167581","lat":25.019051,"lon":121.4794,"name":"元氣飯糰","decorType":"restaurant"},{"id":"node-10250167585","lat":25.019349,"lon":121.479411,"name":"夏威姨漢堡速食店","decorType":"restaurant"},{"id":"node-10250167588","lat":25.019204,"lon":121.479412,"name":"MAN男の造型館","decorType":"hair_salon"},{"id":"node-10250167590","lat":25.019375,"lon":121.480032,"name":"Babie beauty studio","decorType":"cosmetics"},{"id":"node-10268953125","lat":25.019846,"lon":121.480758,"name":"呷好運地瓜球","decorType":"restaurant"},{"id":"node-10268953128","lat":25.019876,"lon":121.480792,"name":"東橋沙龍","decorType":"hair_salon"},{"id":"node-10268953132","lat":25.020167,"lon":121.481286,"name":"深夜食堂","decorType":"restaurant"},{"id":"node-10268953133","lat":25.020198,"lon":121.48133,"name":"葉家藥燉排骨","decorType":"restaurant"},{"id":"node-10268953135","lat":25.020363,"lon":121.481575,"name":"合眾五金賣場","decorType":"hardware"},{"id":"node-10268953137","lat":25.020454,"lon":121.481726,"name":"永福五金","decorType":"hardware"},{"id":"node-10268953138","lat":25.020503,"lon":121.481809,"name":"森鮮菓蔬菓行","decorType":"supermarket"},{"id":"node-10268953139","lat":25.020481,"lon":121.481772,"name":"正鴻工具五金","decorType":"hardware"},{"id":"node-10268953141","lat":25.019876,"lon":121.481519,"name":"紅茶洋行","decorType":"cafe"},{"id":"node-10268953149","lat":25.020075,"lon":121.481849,"name":"伸茂五金薄片","decorType":"hardware"},{"id":"node-10268953156","lat":25.020625,"lon":121.482017,"name":"麒麟食補薑母鴨","decorType":"restaurant"},{"id":"node-10268953164","lat":25.020677,"lon":121.482776,"name":"品品藥局","decorType":"pharmacy"},{"id":"node-10268953166","lat":25.020619,"lon":121.482685,"name":"順山五金","decorType":"hardware"},{"id":"node-10268953168","lat":25.020555,"lon":121.482586,"name":"豬大A豬腳","decorType":"restaurant"},{"id":"node-10268953171","lat":25.020396,"lon":121.482335,"name":"新勝發","decorType":"sweetshop"},{"id":"node-10268953175","lat":25.020261,"lon":121.482125,"name":"浮生酒場","decorType":"restaurant"},{"id":"node-10268953177","lat":25.020314,"lon":121.482207,"name":"恬甜紅豆餅","decorType":"restaurant"},{"id":"node-10271125744","lat":25.014229,"lon":121.477772,"name":"美廉社","decorType":"supermarket"},{"id":"node-10271125756","lat":25.016869,"lon":121.476572,"name":"晴光藥局","decorType":"pharmacy"},{"id":"node-10271125757","lat":25.016851,"lon":121.476825,"name":"FS百元剪髮","decorType":"hair_salon"},{"id":"node-10271125758","lat":25.016783,"lon":121.476872,"name":"洗多屋","decorType":"laundry"},{"id":"node-10271125762","lat":25.016548,"lon":121.479454,"name":"天然素食館","decorType":"restaurant"},{"id":"node-10271125763","lat":25.016504,"lon":121.479454,"name":"佳典魯肉飯","decorType":"restaurant"},{"id":"node-10271125767","lat":25.016009,"lon":121.479417,"name":"上井食事","decorType":"restaurant"},{"id":"node-10271125770","lat":25.016111,"lon":121.479403,"name":"芳珍蔬食","decorType":"burger"},{"id":"node-10271125771","lat":25.015878,"lon":121.479399,"name":"阿霞小吃","decorType":"restaurant"},{"id":"node-10271125774","lat":25.015738,"lon":121.479386,"name":"有辦髮","decorType":"hair_salon"},{"id":"node-10271125776","lat":25.015658,"lon":121.479388,"name":"福美全自助餐","decorType":"restaurant"},{"id":"node-10271125780","lat":25.015346,"lon":121.479366,"name":"麗森藥師藥局","decorType":"pharmacy"},{"id":"node-10271125783","lat":25.01518,"lon":121.479354,"name":"黛黛茶","decorType":"cafe"},{"id":"node-10271125784","lat":25.015,"lon":121.478918,"name":"Neomeimei","decorType":"sweetshop"},{"id":"node-10271125787","lat":25.015352,"lon":121.478955,"name":"咕滷咕滷","decorType":"restaurant"},{"id":"node-10271125789","lat":25.015617,"lon":121.478977,"name":"鐵人撞球","decorType":"stadium"},{"id":"node-10553911602","lat":25.013926,"lon":121.479238,"name":"焗御坊","decorType":"restaurant"},{"id":"node-10553911603","lat":25.013883,"lon":121.479235,"name":"綠洲藥局","decorType":"pharmacy"},{"id":"node-10553911607","lat":25.012694,"lon":121.478764,"name":"志哥水果","decorType":"supermarket"},{"id":"node-10553916309","lat":25.013144,"lon":121.479188,"name":"魚港生猛海鮮料理","decorType":"restaurant"},{"id":"node-10553916310","lat":25.013069,"lon":121.479187,"name":"稻香園潮汕砂鍋粥","decorType":"restaurant"},{"id":"node-10553916311","lat":25.012438,"lon":121.478735,"name":"揚溢豆漿店","decorType":"restaurant"},{"id":"node-10553916312","lat":25.012153,"lon":121.478717,"name":"小林麻辣火鍋","decorType":"restaurant"},{"id":"node-10553916315","lat":25.013621,"lon":121.479215,"name":"何家甜品鋪","decorType":"restaurant"},{"id":"node-10553916318","lat":25.013453,"lon":121.479207,"name":"出色造型美學","decorType":"hair_salon"},{"id":"node-10553916320","lat":25.013698,"lon":121.479222,"name":"永林豐五金行","decorType":"hardware"},{"id":"node-10553916322","lat":25.014039,"lon":121.47925,"name":"伯特利之家","decorType":"shrine"},{"id":"node-10553916325","lat":25.014194,"lon":121.479254,"name":"麒麟牛肉麵","decorType":"restaurant"},{"id":"node-10553916326","lat":25.014253,"lon":121.479261,"name":"潮星州","decorType":"restaurant"},{"id":"node-10553916327","lat":25.014191,"lon":121.478874,"name":"信昌藥局","decorType":"pharmacy"},{"id":"node-10553916329","lat":25.015121,"lon":121.478722,"name":"正成藥師藥局","decorType":"pharmacy"},{"id":"node-10553916330","lat":25.014867,"lon":121.479558,"name":"福勝堂藥局","decorType":"pharmacy"},{"id":"node-10553916331","lat":25.012467,"lon":121.479706,"name":"俊昌藥局","decorType":"pharmacy"},{"id":"node-10553916332","lat":25.014876,"lon":121.479308,"name":"後山池上飯包","decorType":"restaurant"},{"id":"node-10553916333","lat":25.014767,"lon":121.479299,"name":"早喫午想","decorType":"restaurant"},{"id":"node-10553916334","lat":25.014706,"lon":121.479297,"name":"量飯店","decorType":"restaurant"},{"id":"node-10553916336","lat":25.014592,"lon":121.47929,"name":"餃逐天下","decorType":"restaurant"},{"id":"node-10553916337","lat":25.01453,"lon":121.47929,"name":"上富鐵板燒","decorType":"restaurant"},{"id":"node-10553916338","lat":25.014485,"lon":121.479286,"name":"關山木盒便當","decorType":"restaurant"},{"id":"node-10553916340","lat":25.014373,"lon":121.479277,"name":"一頂香雞肉飯","decorType":"restaurant"},{"id":"node-10553916346","lat":25.013797,"lon":121.478835,"name":"永勝麵食","decorType":"restaurant"},{"id":"node-10553916348","lat":25.013531,"lon":121.478828,"name":"喜來樂臭臭鍋","decorType":"restaurant"},{"id":"node-10553916349","lat":25.013462,"lon":121.478823,"name":"阿助牛肉麵","decorType":"restaurant"},{"id":"node-10553916352","lat":25.012942,"lon":121.478793,"name":"星星乾洗名店","decorType":"laundry"},{"id":"node-10553916353","lat":25.01288,"lon":121.478786,"name":"舒麥爾食品","decorType":"bakery"},{"id":"node-10553916355","lat":25.012039,"lon":121.478702,"name":"溪仔邊烤肉飯","decorType":"restaurant"},{"id":"node-10553916361","lat":25.011605,"lon":121.478677,"name":"粥海妹海鮮粥","decorType":"restaurant"},{"id":"node-10553916362","lat":25.011543,"lon":121.478666,"name":"開源社","decorType":"restaurant"},{"id":"node-10553916363","lat":25.011495,"lon":121.478663,"name":"海陸碳烤","decorType":"restaurant"},{"id":"node-10716239698","lat":25.007676,"lon":121.47209,"name":"劉大爺","decorType":"restaurant"},{"id":"node-10719155913","lat":25.007558,"lon":121.471838,"name":"漢生特大雞排店","decorType":"restaurant"},{"id":"node-10719155917","lat":25.009321,"lon":121.472418,"name":"美廉社","decorType":"supermarket"},{"id":"node-10719155918","lat":25.009608,"lon":121.473024,"name":"雅群蛋糕坊","decorType":"bakery"},{"id":"node-10719155919","lat":25.008809,"lon":121.473263,"name":"京采造型沙龍店","decorType":"hair_salon"},{"id":"node-10720228177","lat":25.015592,"lon":121.470772,"name":"極鮮火鍋板橋店","decorType":"restaurant"},{"id":"node-10720235008","lat":25.009671,"lon":121.473379,"name":"海山平價牛排","decorType":"restaurant"},{"id":"node-10720258215","lat":25.009858,"lon":121.472486,"name":"合作社","decorType":"supermarket"},{"id":"node-10731762232","lat":25.011776,"lon":121.47009,"name":"珍豐鹹酥雞","decorType":"restaurant"},{"id":"node-10731771411","lat":25.008057,"lon":121.471612,"name":"達利早餐","decorType":"restaurant"},{"id":"node-10731782949","lat":25.01236,"lon":121.471427,"name":"大腸麵線 清麵線","decorType":"restaurant"},{"id":"node-10731783820","lat":25.008237,"lon":121.471784,"name":"正向專業藥局","decorType":"pharmacy"},{"id":"node-10731784406","lat":25.008283,"lon":121.471768,"name":"佶軒料理店","decorType":"restaurant"},{"id":"node-10731789713","lat":25.00852,"lon":121.471393,"name":"⼩林髮廊","decorType":"hair_salon"},{"id":"node-10731809590","lat":25.008336,"lon":121.471741,"name":"CoCo都可","decorType":"cafe"},{"id":"node-10731870530","lat":25.011754,"lon":121.47004,"name":"美而美早餐店","decorType":"burger"},{"id":"node-10960805249","lat":25.009866,"lon":121.472486,"name":"垂垂熱食部","decorType":"burger"},{"id":"node-11017158625","lat":25.008756,"lon":121.471278,"name":"日式威廉","decorType":"hair_salon"},{"id":"node-11043924278","lat":25.015424,"lon":121.475713,"name":"ORIENS","decorType":"restaurant"},{"id":"node-11043924279","lat":25.015034,"lon":121.475808,"name":"廣欣廣東腸粉","decorType":"restaurant"},{"id":"node-11043924283","lat":25.014887,"lon":121.475528,"name":"重口味燒烤","decorType":"restaurant"},{"id":"node-11043924286","lat":25.015373,"lon":121.473837,"name":"弄甲成臻美學","decorType":"cosmetics"},{"id":"node-11043924292","lat":25.014846,"lon":121.4743,"name":"萬華莊家班麻油雞","decorType":"restaurant"},{"id":"node-11043977907","lat":25.01599,"lon":121.473935,"name":"羽捷美容工作坊","decorType":"cosmetics"},{"id":"node-11043977910","lat":25.016059,"lon":121.474856,"name":"光鹽藥局","decorType":"pharmacy"},{"id":"node-11043977911","lat":25.015131,"lon":121.472905,"name":"愛美得藥局","decorType":"pharmacy"},{"id":"node-11043977915","lat":25.014989,"lon":121.472602,"name":"A' DIMA Café","decorType":"cafe"},{"id":"node-11043977918","lat":25.015087,"lon":121.472805,"name":"金格男仕精品","decorType":"clothing"},{"id":"node-11049327167","lat":25.011946,"lon":121.470378,"name":"蒸天下蒸氣火鍋","decorType":"restaurant"},{"id":"node-11049327172","lat":25.014577,"lon":121.471084,"name":"炭吉郎居酒屋","decorType":"restaurant"},{"id":"node-11049327173","lat":25.014593,"lon":121.471127,"name":"永和豆漿大王","decorType":"restaurant"},{"id":"node-11049327174","lat":25.014626,"lon":121.471213,"name":"容燒居酒屋","decorType":"restaurant"},{"id":"node-11049327175","lat":25.014648,"lon":121.471271,"name":"楊記熱炒生鮮碳烤","decorType":"restaurant"},{"id":"node-11049327194","lat":25.014218,"lon":121.470301,"name":"小秘苑","decorType":"restaurant"},{"id":"node-11049327195","lat":25.014247,"lon":121.470372,"name":"天晴好日咖啡餐館","decorType":"restaurant"},{"id":"node-11049327197","lat":25.01428,"lon":121.470466,"name":"佳麗寶家電","decorType":"electronics"},{"id":"node-11096920818","lat":25.012288,"lon":121.475671,"name":"金牌小籠湯包","decorType":"restaurant"},{"id":"node-11096920819","lat":25.012331,"lon":121.475584,"name":"cama café","decorType":"cafe"},{"id":"node-11096920820","lat":25.012366,"lon":121.475538,"name":"村田早午餐","decorType":"restaurant"},{"id":"node-11096920821","lat":25.012441,"lon":121.475423,"name":"港榮燒臘","decorType":"restaurant"},{"id":"node-11096920822","lat":25.012454,"lon":121.475379,"name":"德壽司","decorType":"restaurant"},{"id":"node-11096920823","lat":25.012471,"lon":121.475341,"name":"康青龍","decorType":"cafe"},{"id":"node-11096920824","lat":25.012406,"lon":121.475199,"name":"慵懶吐司","decorType":"restaurant"},{"id":"node-11096920825","lat":25.012272,"lon":121.474975,"name":"茗飪牛肉麵店","decorType":"restaurant"},{"id":"node-11096920828","lat":25.012194,"lon":121.474836,"name":"誠贊號","decorType":"restaurant"},{"id":"node-11096920829","lat":25.012173,"lon":121.474802,"name":"解渴","decorType":"cafe"},{"id":"node-11096920833","lat":25.01238,"lon":121.475148,"name":"板橋元帥府","decorType":"shrine"},{"id":"node-11096920835","lat":25.012432,"lon":121.474905,"name":"夏一棧brunch café","decorType":"restaurant"},{"id":"node-11099537673","lat":25.017681,"lon":121.474143,"name":"山野鍋燒","decorType":"restaurant"},{"id":"node-11099537674","lat":25.017638,"lon":121.474356,"name":"饗林鐵板燒","decorType":"restaurant"},{"id":"node-11209443088","lat":25.00872,"lon":121.471293,"name":"享樂米粉湯","decorType":"restaurant"},{"id":"node-11517928253","lat":25.023031,"lon":121.479697,"name":"銀杏鍋物","decorType":"restaurant"},{"id":"node-11910175969","lat":25.022691,"lon":121.474297,"name":"全聯福利中心","decorType":"supermarket"},{"id":"node-11922048670","lat":25.022555,"lon":121.474284,"name":"7-Eleven","decorType":"convenience"},{"id":"node-13021941899","lat":25.01023,"lon":121.479877,"name":"富貴賞社區","decorType":"bus_stop"},{"id":"node-13190388593","lat":25.007677,"lon":121.471764,"name":"巧益西點麵包","decorType":"bakery"},{"id":"node-13190399906","lat":25.007728,"lon":121.471745,"name":"沐晨髮廊","decorType":"hair_salon"},{"id":"node-13321574204","lat":25.017801,"lon":121.470332,"name":"葡萄牙小酒館","decorType":"cafe"},{"id":"node-13371445800","lat":25.012437,"lon":121.475927,"name":"正隆廣場 (板新路)","decorType":"bus_stop"},{"id":"node-13371462901","lat":25.012206,"lon":121.475919,"name":"正隆廣場 (板新路)","decorType":"bus_stop"},{"id":"node-13371462903","lat":25.014266,"lon":121.472551,"name":"捷運板新站","decorType":"bus_stop"},{"id":"node-13423767497","lat":25.019837,"lon":121.476314,"name":"萊爾富","decorType":"convenience"},{"id":"node-13423799027","lat":25.021493,"lon":121.473812,"name":"萊爾富","decorType":"convenience"},{"id":"way-83824708","lat":25.008485,"lon":121.482343,"name":"未命名橋樑","decorType":"bridge"},{"id":"way-111808381","lat":25.022618,"lon":121.477079,"name":"華翠大橋","decorType":"bridge"},{"id":"way-125786148","lat":25.019176,"lon":121.470854,"name":"民生陸橋","decorType":"bridge"},{"id":"way-125786151","lat":25.018258,"lon":121.471214,"name":"民生陸橋","decorType":"bridge"},{"id":"way-125786152","lat":25.018107,"lon":121.471638,"name":"民生陸橋","decorType":"bridge"},{"id":"way-126591283","lat":25.019037,"lon":121.470624,"name":"民生陸橋","decorType":"bridge"},{"id":"way-137084594","lat":25.010777,"lon":121.47913,"name":"未命名橋樑","decorType":"bridge"},{"id":"way-215191250","lat":25.023089,"lon":121.471693,"name":"中山公園","decorType":"park"},{"id":"way-217454600","lat":25.019481,"lon":121.472019,"name":"華江公園","decorType":"park"},{"id":"way-217454601","lat":25.020201,"lon":121.470706,"name":"莊敬公園","decorType":"park"},{"id":"way-217454602","lat":25.020711,"lon":121.47697,"name":"永豐公園","decorType":"park"},{"id":"way-217454603","lat":25.021599,"lon":121.47173,"name":"萬板公園","decorType":"park"},{"id":"way-217454604","lat":25.021383,"lon":121.471502,"name":"未命名公園","decorType":"park"},{"id":"way-255751644","lat":25.007844,"lon":121.481769,"name":"水藍天","decorType":"stadium"},{"id":"way-272074271","lat":25.013661,"lon":121.476134,"name":"民生公園","decorType":"park"},{"id":"way-281016536","lat":25.010965,"lon":121.470611,"name":"活動中心","decorType":"stadium"},{"id":"way-281747280","lat":25.018584,"lon":121.476184,"name":"停車場","decorType":"park"},{"id":"way-281749465","lat":25.018487,"lon":121.475537,"name":"中庭空地","decorType":"park"},{"id":"way-288140442","lat":25.018932,"lon":121.478123,"name":"永豐公園","decorType":"park"},{"id":"way-288140446","lat":25.01237,"lon":121.477346,"name":"正隆公園","decorType":"park"},{"id":"way-326955644","lat":25.022301,"lon":121.47635,"name":"華翠大橋","decorType":"bridge"},{"id":"way-345803330","lat":25.010091,"lon":121.470132,"name":"未命名公園","decorType":"park"},{"id":"way-371462656","lat":25.008443,"lon":121.474395,"name":"民有公園","decorType":"park"},{"id":"way-494080590","lat":25.015331,"lon":121.481669,"name":"埔墘公園","decorType":"park"},{"id":"way-571717617","lat":25.017642,"lon":121.482476,"name":"富貴綠地公園","decorType":"park"},{"id":"way-593418468","lat":25.010726,"lon":121.47847,"name":"員勝公園","decorType":"park"},{"id":"way-822108866","lat":25.014492,"lon":121.472474,"name":"捷運板新站","decorType":"station"},{"id":"way-947631732","lat":25.022589,"lon":121.479859,"name":"主基督榮光教會","decorType":"shrine"},{"id":"way-947774693","lat":25.020484,"lon":121.479606,"name":"誠品生活時光","decorType":"library"},{"id":"way-947774701","lat":25.02132,"lon":121.479597,"name":"悅客商務飯店","decorType":"hotel"},{"id":"way-947791901","lat":25.023088,"lon":121.480055,"name":"脆皮臭豆腐","decorType":"restaurant"},{"id":"way-948948980","lat":25.014508,"lon":121.471691,"name":"全聯福利中心","decorType":"supermarket"},{"id":"way-1005741393","lat":25.018199,"lon":121.477648,"name":"茶星星","decorType":"cafe"},{"id":"way-1209733396","lat":25.018492,"lon":121.471098,"name":"未命名橋樑","decorType":"bridge"},{"id":"way-1209733398","lat":25.018562,"lon":121.471254,"name":"未命名橋樑","decorType":"bridge"},{"id":"way-1209733402","lat":25.016909,"lon":121.472228,"name":"民生陸橋","decorType":"bridge"},{"id":"way-1209733403","lat":25.017039,"lon":121.472434,"name":"民生陸橋","decorType":"bridge"},{"id":"way-1209733404","lat":25.017593,"lon":121.471714,"name":"民生陸橋","decorType":"bridge"},{"id":"way-1228832733","lat":25.014449,"lon":121.472431,"name":"未命名公車站","decorType":"bus_stop"},{"id":"way-1228832734","lat":25.01455,"lon":121.472503,"name":"未命名公車站","decorType":"bus_stop"}]}