{"bbox":{"south":25.00751875,"north":25.023125,"west":121.56125,"east":121.57428125},"pois":[{"id":"way-49774468","lat":25.0127827,"lon":121.561301,"name":"台北聯絡線","decorType":"bridge"},{"id":"way-49774469","lat":25.0128716,"lon":121.5613947,"name":"台北聯絡線","decorType":"bridge"},{"id":"node-569944558","lat":25.0219825,"lon":121.5688654,"name":"7-Eleven","decorType":"convenience"},{"id":"node-569950164","lat":25.0190525,"lon":121.5707281,"name":"泰和公園","decorType":"bus_stop"},{"id":"node-569951805","lat":25.0211567,"lon":121.5733265,"name":"拇指山登山口","decorType":"bus_stop"},{"id":"node-2008739357","lat":25.0144644,"lon":121.5737468,"name":"未命名神社","decorType":"shrine"},{"id":"node-2008739620","lat":25.0148206,"lon":121.5731841,"name":"財神廟","decorType":"shrine"},{"id":"node-2323939478","lat":25.0138507,"lon":121.5623851,"name":"大我新舍","decorType":"bus_stop"},{"id":"node-2323939480","lat":25.0143048,"lon":121.5622944,"name":"大我新舍","decorType":"bus_stop"},{"id":"node-2323943721","lat":25.0126259,"lon":121.5635075,"name":"臥龍新村","decorType":"bus_stop"},{"id":"node-2323943725","lat":25.0125274,"lon":121.563368,"name":"臥龍新村","decorType":"bus_stop"},{"id":"node-2482625737","lat":25.0191717,"lon":121.5654474,"name":"六張犁山","decorType":"mountain"},{"id":"node-2482646607","lat":25.0100199,"lon":121.5703947,"name":"天立後山","decorType":"mountain"},{"id":"node-2482647217","lat":25.0136145,"lon":121.5723804,"name":"新埤山","decorType":"mountain"},{"id":"node-2672538246","lat":25.0223013,"lon":121.5631406,"name":"綠光101","decorType":"bus_stop"},{"id":"node-2672987573","lat":25.0226206,"lon":121.5718432,"name":"聯勤技術訓練中心","decorType":"bus_stop"},{"id":"node-2677242585","lat":25.0230044,"lon":121.5616761,"name":"玄覺寺","decorType":"bus_stop"},{"id":"node-4418719240","lat":25.0126259,"lon":121.5634429,"name":"臥龍新村","decorType":"bus_stop"},{"id":"node-4524400568","lat":25.023083,"lon":121.561706,"name":"玄覺寺","decorType":"bus_stop"},{"id":"node-4756039057","lat":25.0224626,"lon":121.5693705,"name":"鈞饌早餐店","decorType":"restaurant"},{"id":"node-4756039058","lat":25.0224043,"lon":121.5693249,"name":"未命名餐廳","decorType":"restaurant"},{"id":"node-4756039059","lat":25.0225124,"lon":121.569105,"name":"超偉便利商店","decorType":"convenience"},{"id":"node-4756039061","lat":25.0228921,"lon":121.5693368,"name":"蚵仔之家","decorType":"restaurant"},{"id":"node-4756039062","lat":25.0228009,"lon":121.5692626,"name":"池上飯包","decorType":"restaurant"},{"id":"node-5525736283","lat":25.00788,"lon":121.563366,"name":"軍功山","decorType":"mountain"},{"id":"node-6697490074","lat":25.0075976,"lon":121.5686238,"name":"未命名神社","decorType":"shrine"},{"id":"node-8432400457","lat":25.0209624,"lon":121.5695304,"name":"泰和里","decorType":"bus_stop"},{"id":"node-8432400465","lat":25.0195211,"lon":121.5734893,"name":"挹翠山莊","decorType":"bus_stop"},{"id":"node-8432401011","lat":25.012076,"lon":121.5684663,"name":"清水祖師廟","decorType":"bus_stop"},{"id":"node-8432401014","lat":25.01229,"lon":121.56501,"name":"黎安里","decorType":"bus_stop"},{"id":"node-8432401023","lat":25.01217,"lon":121.56491,"name":"黎安里","decorType":"bus_stop"},{"id":"node-8432401024","lat":25.01219,"lon":121.56947,"name":"慈恩園","decorType":"bus_stop"},{"id":"node-8432401025","lat":25.0121901,"lon":121.5684138,"name":"清水祖師廟","decorType":"bus_stop"},{"id":"node-8463650715","lat":25.0125163,"lon":121.5634539,"name":"臥龍新村","decorType":"bus_stop"},{"id":"node-10087232632","lat":25.0082936,"lon":121.5665757,"name":"庇祐宮","decorType":"shrine"},{"id":"node-12398989876","lat":25.0190193,"lon":121.570677,"name":"加爾第咖啡","decorType":"restaurant"},{"id":"node-12762620458","lat":25.0204933,"lon":121.5726699,"name":"未命名山丘","decorType":"mountain"},{"id":"way-190276603","lat":25.0152947,"lon":121.5730977,"name":"糶米古道","decorType":"bridge"},{"id":"way-249491003","lat":25.0190934,"lon":121.5708879,"name":"泰和公園","decorType":"park"},{"id":"way-261872178","lat":25.0208001,"lon":121.5725487,"name":"未命名森林","decorType":"forest"},{"id":"way-431035166","lat":25.0178187,"lon":121.5613999,"name":"靈德寺","decorType":"shrine"},{"id":"way-456299451","lat":25.0226151,"lon":121.5684805,"name":"未命名水邊","decorType":"waterside"},{"id":"way-542218260","lat":25.0186382,"lon":121.5723146,"name":"​糶米公園","decorType":"park"},{"id":"way-542519025","lat":25.0224566,"lon":121.5683466,"name":"吳興街518巷","decorType":"bridge"},{"id":"way-566972468","lat":25.0116755,"lon":121.5692135,"name":"奉聖宮","decorType":"shrine"},{"id":"way-566972470","lat":25.0119515,"lon":121.5688325,"name":"石泉巖祖師廟","decorType":"shrine"},{"id":"way-712414032","lat":25.0172991,"lon":121.5637913,"name":"崇德寺","decorType":"shrine"},{"id":"way-1029383795","lat":25.0095929,"lon":121.5654215,"name":"台北聯絡線","decorType":"bridge"},{"id":"way-1029383796","lat":25.0092926,"lon":121.5655158,"name":"台北聯絡線","decorType":"bridge"},{"id":"way-1102369605","lat":25.0078011,"lon":121.5659412,"name":"石軍巖","decorType":"shrine"},{"id":"way-1240006290","lat":25.0153909,"lon":121.5730025,"name":"未命名橋樑","decorType":"bridge"},{"id":"way-1293680786","lat":25.015676,"lon":121.5729622,"name":"未命名橋樑","decorType":"bridge"},{"id":"way-1295106030","lat":25.0121297,"lon":121.5695535,"name":"山神廟","decorType":"shrine"},{"id":"way-1326056361","lat":25.0149064,"lon":121.5730971,"name":"未命名水邊","decorType":"waterside"},{"id":"way-1341570442","lat":25.0085009,"lon":121.5686171,"name":"關天師天心聖殿","decorType":"shrine"},{"id":"way-1366036729","lat":25.0209622,"lon":121.5613015,"name":"鎮山巖","decorType":"shrine"},{"id":"way-1378364736","lat":25.0221286,"lon":121.5683271,"name":"吳興街524巷","decorType":"bridge"},{"id":"way-1460554847","lat":25.012211,"lon":121.5630601,"name":"未命名水邊","decorType":"waterside"},{"id":"way-1460554850","lat":25.0124026,"lon":121.5639479,"name":"未命名神社","decorType":"shrine"},{"id":"way-1460554860","lat":25.0116814,"lon":121.5640479,"name":"承天武聖廟","decorType":"shrine"},{"id":"way-1460554863","lat":25.0114771,"lon":121.5637035,"name":"未命名橋樑","decorType":"bridge"},{"id":"way-1460554864","lat":25.0125891,"lon":121.5640637,"name":"未命名森林","decorType":"forest"}]}