{"bbox":{"south":25.007519,"north":25.023125,"west":121.56125,"east":121.574281},"pois":[{"id":"way-49774468","lat":25.012783,"lon":121.561301,"name":"台北聯絡線","decorType":"bridge"},{"id":"way-49774469","lat":25.012872,"lon":121.561395,"name":"台北聯絡線","decorType":"bridge"},{"id":"node-569944558","lat":25.021983,"lon":121.568865,"name":"7-Eleven","decorType":"convenience"},{"id":"node-569950164","lat":25.019053,"lon":121.570728,"name":"泰和公園","decorType":"bus_stop"},{"id":"node-569951805","lat":25.021157,"lon":121.573327,"name":"拇指山登山口","decorType":"bus_stop"},{"id":"node-2008739357","lat":25.014464,"lon":121.573747,"name":"未命名神社","decorType":"shrine"},{"id":"node-2008739620","lat":25.014821,"lon":121.573184,"name":"財神廟","decorType":"shrine"},{"id":"node-2323939478","lat":25.013851,"lon":121.562385,"name":"大我新舍","decorType":"bus_stop"},{"id":"node-2323939480","lat":25.014305,"lon":121.562294,"name":"大我新舍","decorType":"bus_stop"},{"id":"node-2323943721","lat":25.012626,"lon":121.563508,"name":"臥龍新村","decorType":"bus_stop"},{"id":"node-2323943725","lat":25.012527,"lon":121.563368,"name":"臥龍新村","decorType":"bus_stop"},{"id":"node-2482625737","lat":25.019172,"lon":121.565447,"name":"六張犁山","decorType":"mountain"},{"id":"node-2482646607","lat":25.01002,"lon":121.570395,"name":"天立後山","decorType":"mountain"},{"id":"node-2482647217","lat":25.013615,"lon":121.57238,"name":"新埤山","decorType":"mountain"},{"id":"node-2672538246","lat":25.022301,"lon":121.563141,"name":"綠光101","decorType":"bus_stop"},{"id":"node-2672987573","lat":25.022621,"lon":121.571843,"name":"聯勤技術訓練中心","decorType":"bus_stop"},{"id":"node-2677242585","lat":25.023004,"lon":121.561676,"name":"玄覺寺","decorType":"bus_stop"},{"id":"node-4418719240","lat":25.012626,"lon":121.563443,"name":"臥龍新村","decorType":"bus_stop"},{"id":"node-4524400568","lat":25.023083,"lon":121.561706,"name":"玄覺寺","decorType":"bus_stop"},{"id":"node-4756039057","lat":25.022463,"lon":121.569371,"name":"鈞饌早餐店","decorType":"restaurant"},{"id":"node-4756039058","lat":25.022404,"lon":121.569325,"name":"未命名餐廳","decorType":"restaurant"},{"id":"node-4756039059","lat":25.022512,"lon":121.569105,"name":"超偉便利商店","decorType":"convenience"},{"id":"node-4756039061","lat":25.022892,"lon":121.569337,"name":"蚵仔之家","decorType":"restaurant"},{"id":"node-4756039062","lat":25.022801,"lon":121.569263,"name":"池上飯包","decorType":"restaurant"},{"id":"node-5525736283","lat":25.00788,"lon":121.563366,"name":"軍功山","decorType":"mountain"},{"id":"node-6697490074","lat":25.007598,"lon":121.568624,"name":"未命名神社","decorType":"shrine"},{"id":"node-8432400457","lat":25.020962,"lon":121.56953,"name":"泰和里","decorType":"bus_stop"},{"id":"node-8432400465","lat":25.019521,"lon":121.573489,"name":"挹翠山莊","decorType":"bus_stop"},{"id":"node-8432401011","lat":25.012076,"lon":121.568466,"name":"清水祖師廟","decorType":"bus_stop"},{"id":"node-8432401014","lat":25.01229,"lon":121.56501,"name":"黎安里","decorType":"bus_stop"},{"id":"node-8432401023","lat":25.01217,"lon":121.56491,"name":"黎安里","decorType":"bus_stop"},{"id":"node-8432401024","lat":25.01219,"lon":121.56947,"name":"慈恩園","decorType":"bus_stop"},{"id":"node-8432401025","lat":25.01219,"lon":121.568414,"name":"清水祖師廟","decorType":"bus_stop"},{"id":"node-8463650715","lat":25.012516,"lon":121.563454,"name":"臥龍新村","decorType":"bus_stop"},{"id":"node-10087232632","lat":25.008294,"lon":121.566576,"name":"庇祐宮","decorType":"shrine"},{"id":"node-12398989876","lat":25.019019,"lon":121.570677,"name":"加爾第咖啡","decorType":"restaurant"},{"id":"node-12762620458","lat":25.020493,"lon":121.57267,"name":"未命名山丘","decorType":"mountain"},{"id":"way-190276603","lat":25.015295,"lon":121.573098,"name":"糶米古道","decorType":"bridge"},{"id":"way-249491003","lat":25.019093,"lon":121.570888,"name":"泰和公園","decorType":"park"},{"id":"way-261872178","lat":25.0208,"lon":121.572549,"name":"未命名森林","decorType":"forest"},{"id":"way-431035166","lat":25.017819,"lon":121.5614,"name":"靈德寺","decorType":"shrine"},{"id":"way-456299451","lat":25.022615,"lon":121.568481,"name":"未命名水邊","decorType":"waterside"},{"id":"way-542218260","lat":25.018638,"lon":121.572315,"name":"​糶米公園","decorType":"park"},{"id":"way-542519025","lat":25.022457,"lon":121.568347,"name":"吳興街518巷","decorType":"bridge"},{"id":"way-566972468","lat":25.011676,"lon":121.569214,"name":"奉聖宮","decorType":"shrine"},{"id":"way-566972470","lat":25.011952,"lon":121.568833,"name":"石泉巖祖師廟","decorType":"shrine"},{"id":"way-712414032","lat":25.017299,"lon":121.563791,"name":"崇德寺","decorType":"shrine"},{"id":"way-1029383795","lat":25.009593,"lon":121.565422,"name":"台北聯絡線","decorType":"bridge"},{"id":"way-1029383796","lat":25.009293,"lon":121.565516,"name":"台北聯絡線","decorType":"bridge"},{"id":"way-1102369605","lat":25.007801,"lon":121.565941,"name":"石軍巖","decorType":"shrine"},{"id":"way-1240006290","lat":25.015391,"lon":121.573003,"name":"未命名橋樑","decorType":"bridge"},{"id":"way-1293680786","lat":25.015676,"lon":121.572962,"name":"未命名橋樑","decorType":"bridge"},{"id":"way-1295106030","lat":25.01213,"lon":121.569554,"name":"山神廟","decorType":"shrine"},{"id":"way-1326056361","lat":25.014906,"lon":121.573097,"name":"未命名水邊","decorType":"waterside"},{"id":"way-1341570442","lat":25.008501,"lon":121.568617,"name":"關天師天心聖殿","decorType":"shrine"},{"id":"way-1366036729","lat":25.020962,"lon":121.561302,"name":"鎮山巖","decorType":"shrine"},{"id":"way-1378364736","lat":25.022129,"lon":121.568327,"name":"吳興街524巷","decorType":"bridge"},{"id":"way-1460554847","lat":25.012211,"lon":121.56306,"name":"未命名水邊","decorType":"waterside"},{"id":"way-1460554850","lat":25.012403,"lon":121.563948,"name":"未命名神社","decorType":"shrine"},{"id":"way-1460554860","lat":25.011681,"lon":121.564048,"name":"承天武聖廟","decorType":"shrine"},{"id":"way-1460554863","lat":25.011477,"lon":121.563704,"name":"未命名橋樑","decorType":"bridge"},{"id":"way-1460554864","lat":25.012589,"lon":121.564064,"name":"未命名森林","decorType":"forest"}]}