{"bbox":{"south":25.00751875,"north":25.023125,"west":121.53518749999999,"east":121.54821874999999},"pois":[{"id":"node-311449107","lat":25.0180229,"lon":121.537435,"name":"全家便利商店","decorType":"convenience"},{"id":"node-319442252","lat":25.0185951,"lon":121.5373679,"name":"臺大郵局","decorType":"post_office"},{"id":"node-461524963","lat":25.0186361,"lon":121.5373365,"name":"Hello Cafe","decorType":"cafe"},{"id":"node-469620172","lat":25.0217357,"lon":121.5412623,"name":"星巴克","decorType":"cafe"},{"id":"node-472558738","lat":25.0221088,"lon":121.5409804,"name":"7-Eleven","decorType":"convenience"},{"id":"node-736492716","lat":25.0130545,"lon":121.536624,"name":"全家便利商店","decorType":"convenience"},{"id":"node-736739538","lat":25.0127962,"lon":121.5352516,"name":"BASKETBALL","decorType":"clothing"},{"id":"node-738837566","lat":25.0131781,"lon":121.5364428,"name":"Subway","decorType":"burger"},{"id":"node-924214891","lat":25.0128362,"lon":121.5368211,"name":"小蔬杭 絕對蔬食","decorType":"restaurant"},{"id":"node-1686583629","lat":25.0080458,"lon":121.5364698,"name":"文山萬盛郵局","decorType":"post_office"},{"id":"node-1707866516","lat":25.0168464,"lon":121.5360574,"name":"物理文物廳","decorType":"art_gallery"},{"id":"node-1707866520","lat":25.0177677,"lon":121.5353367,"name":"台大校史館","decorType":"art_gallery"},{"id":"node-1707866538","lat":25.0110786,"lon":121.5407706,"name":"昆蟲標本館","decorType":"art_gallery"},{"id":"node-1707866560","lat":25.0155926,"lon":121.5389738,"name":"動物博物館","decorType":"art_gallery"},{"id":"node-1708079052","lat":25.0117493,"lon":121.5381078,"name":"公館","decorType":"bus_stop"},{"id":"node-1708079066","lat":25.0206971,"lon":121.5445942,"name":"青年活動中心","decorType":"bus_stop"},{"id":"node-1708079071","lat":25.0173509,"lon":121.5447412,"name":"基隆長興街口","decorType":"bus_stop"},{"id":"node-1708079073","lat":25.0157067,"lon":121.5422046,"name":"臺大癌醫(基隆路)","decorType":"bus_stop"},{"id":"node-1708079078","lat":25.0139609,"lon":121.5352306,"name":"捷運公館站","decorType":"bus_stop"},{"id":"node-1708079079","lat":25.013444,"lon":121.5401364,"name":"臺灣科技大學","decorType":"bus_stop"},{"id":"node-1708079082","lat":25.0117526,"lon":121.5375347,"name":"公館","decorType":"bus_stop"},{"id":"node-1708079112","lat":25.0154569,"lon":121.5424914,"name":"臺大癌醫(基隆路)","decorType":"bus_stop"},{"id":"node-1708079116","lat":25.014188,"lon":121.5405204,"name":"臺灣科技大學","decorType":"bus_stop"},{"id":"node-1708079118","lat":25.0183446,"lon":121.5453343,"name":"基隆長興街口","decorType":"bus_stop"},{"id":"node-1716390526","lat":25.0079899,"lon":121.5379306,"name":"未命名郵局","decorType":"post_office"},{"id":"node-1716390527","lat":25.0137681,"lon":121.5427283,"name":"未命名郵局","decorType":"post_office"},{"id":"node-1716390549","lat":25.0118215,"lon":121.5358701,"name":"臺北汀州郵局","decorType":"post_office"},{"id":"node-1716390551","lat":25.0178531,"lon":121.5434495,"name":"未命名郵局","decorType":"post_office"},{"id":"node-1716390559","lat":25.0076693,"lon":121.5391012,"name":"未命名郵局","decorType":"post_office"},{"id":"node-1719272514","lat":25.021569,"lon":121.5432312,"name":"未命名郵局","decorType":"post_office"},{"id":"node-1947655593","lat":25.0186438,"lon":121.5375881,"name":"未命名郵局","decorType":"post_office"},{"id":"node-2023229621","lat":25.0177517,"lon":121.5402417,"name":"全家便利商店","decorType":"convenience"},{"id":"node-2023229622","lat":25.015779,"lon":121.5447542,"name":"全家便利商店","decorType":"convenience"},{"id":"node-2026200468","lat":25.0171652,"lon":121.544737,"name":"7-Eleven","decorType":"convenience"},{"id":"node-2034267058","lat":25.0111669,"lon":121.5473591,"name":"芳蘭地藏巖","decorType":"shrine"},{"id":"node-2064686164","lat":25.0179969,"lon":121.5402791,"name":"金盃美而美","decorType":"restaurant"},{"id":"node-2160836811","lat":25.007705,"lon":121.5368561,"name":"公館校區","decorType":"bus_stop"},{"id":"node-2178340365","lat":25.0182985,"lon":121.540248,"name":"麥當勞","decorType":"burger"},{"id":"node-2188228791","lat":25.0228706,"lon":121.5432,"name":"御提伴手禮 宴會點心","decorType":"bakery"},{"id":"node-2188228792","lat":25.0229695,"lon":121.5432729,"name":"大安健康服務中心","decorType":"bus_stop"},{"id":"node-2188231674","lat":25.023091,"lon":121.5432206,"name":"小李子清粥小菜","decorType":"restaurant"},{"id":"node-2306318138","lat":25.0176711,"lon":121.547893,"name":"自來水處(辛亥)","decorType":"bus_stop"},{"id":"node-2306318191","lat":25.0196082,"lon":121.5475014,"name":"和平高中","decorType":"bus_stop"},{"id":"node-2306318196","lat":25.0203009,"lon":121.5476677,"name":"和平高中","decorType":"bus_stop"},{"id":"node-2307668493","lat":25.0076171,"lon":121.5385071,"name":"師大分部","decorType":"bus_stop"},{"id":"node-2312683782","lat":25.0131148,"lon":121.5357523,"name":"捷運公館站","decorType":"bus_stop"},{"id":"node-2312683785","lat":25.0130425,"lon":121.536232,"name":"捷運公館站","decorType":"bus_stop"},{"id":"node-2315915814","lat":25.0081677,"lon":121.5380857,"name":"師大分部","decorType":"bus_stop"},{"id":"node-2315915815","lat":25.0083056,"lon":121.5378872,"name":"師大分部","decorType":"bus_stop"},{"id":"node-2340183165","lat":25.0181109,"lon":121.540341,"name":"吉品勝口味","decorType":"restaurant"},{"id":"node-2340183167","lat":25.0180398,"lon":121.540341,"name":"樂法Le Phare","decorType":"restaurant"},{"id":"node-2340183168","lat":25.0179506,"lon":121.5403434,"name":"四海遊龍鍋貼專賣","decorType":"restaurant"},{"id":"node-2340183171","lat":25.0182045,"lon":121.5402955,"name":"純義西點麵包坊","decorType":"bakery"},{"id":"node-2340183172","lat":25.0180399,"lon":121.5402777,"name":"食香園","decorType":"restaurant"},{"id":"node-2340183173","lat":25.0180881,"lon":121.5402759,"name":"韓風小舖","decorType":"restaurant"},{"id":"node-2340183174","lat":25.0181324,"lon":121.5402733,"name":"御喜自助餐","decorType":"restaurant"},{"id":"node-2341939228","lat":25.0125661,"lon":121.5354315,"name":"東南亞冰店","decorType":"sweetshop"},{"id":"node-2402967367","lat":25.0080352,"lon":121.5375118,"name":"全家便利商店","decorType":"convenience"},{"id":"node-2420798949","lat":25.0144292,"lon":121.547134,"name":"自來水事業處","decorType":"bus_stop"},{"id":"node-2420798950","lat":25.0203241,"lon":121.5458875,"name":"大安運動中心","decorType":"bus_stop"},{"id":"node-2420798951","lat":25.0220801,"lon":121.5434697,"name":"大安健康服務中心","decorType":"bus_stop"},{"id":"node-2420798952","lat":25.0152699,"lon":121.5475452,"name":"自來水事業處","decorType":"bus_stop"},{"id":"node-2420798962","lat":25.0142897,"lon":121.5437627,"name":"臺大癌醫","decorType":"bus_stop"},{"id":"node-2420798965","lat":25.0125884,"lon":121.5452739,"name":"芳蘭路","decorType":"bus_stop"},{"id":"node-2420798969","lat":25.0129369,"lon":121.5454928,"name":"芳蘭路","decorType":"bus_stop"},{"id":"node-2420798972","lat":25.0161208,"lon":121.5480982,"name":"地震研究中心","decorType":"bus_stop"},{"id":"node-2420798975","lat":25.0142673,"lon":121.543707,"name":"臺大癌醫","decorType":"bus_stop"},{"id":"node-2456823935","lat":25.0133778,"lon":121.5354556,"name":"配件王","decorType":"electronics"},{"id":"node-2456823961","lat":25.0107924,"lon":121.5367199,"name":"百老匯影城","decorType":"movie_theater"},{"id":"node-2473232849","lat":25.0219407,"lon":121.5412328,"name":"全家便利商店","decorType":"convenience"},{"id":"node-2473232853","lat":25.0220761,"lon":121.54131,"name":"大李水餃","decorType":"restaurant"},{"id":"node-2473232860","lat":25.0217177,"lon":121.5409429,"name":"厚宅咖哩","decorType":"restaurant"},{"id":"node-2473232863","lat":25.0219291,"lon":121.5419272,"name":"菁宏滷肉飯","decorType":"restaurant"},{"id":"node-2473232867","lat":25.0220798,"lon":121.5413918,"name":"吉野烤肉飯","decorType":"restaurant"},{"id":"node-2473232868","lat":25.0219485,"lon":121.5422179,"name":"林達髮型設計","decorType":"hair_salon"},{"id":"node-2473232871","lat":25.0216483,"lon":121.5421471,"name":"正香海南雞飯","decorType":"restaurant"},{"id":"node-2473232878","lat":25.0217255,"lon":121.542761,"name":"印渡風情","decorType":"restaurant"},{"id":"node-2473232881","lat":25.0221248,"lon":121.5427517,"name":"李記水餃","decorType":"restaurant"},{"id":"node-2473232885","lat":25.0216763,"lon":121.5429045,"name":"大易園","decorType":"restaurant"},{"id":"node-2473232889","lat":25.0219534,"lon":121.542926,"name":"珍品味泰式炭烤","decorType":"restaurant"},{"id":"node-2473232892","lat":25.0222353,"lon":121.5429367,"name":"咖哩廚房","decorType":"restaurant"},{"id":"node-2473232896","lat":25.0223155,"lon":121.5429314,"name":"憶馬當鮮馬來西亞風味料理","decorType":"restaurant"},{"id":"node-2473232900","lat":25.0226194,"lon":121.5429233,"name":"喬治派克經典好茶","decorType":"cafe"},{"id":"node-2473232903","lat":25.0225817,"lon":121.5429246,"name":"小李子牛肉麵","decorType":"restaurant"},{"id":"node-2473232907","lat":25.0225741,"lon":121.542773,"name":"文哥巷子口古早味米粉湯","decorType":"restaurant"},{"id":"node-2473232910","lat":25.0230398,"lon":121.5427825,"name":"Oneway Cafe","decorType":"cafe"},{"id":"node-2473232913","lat":25.0229426,"lon":121.5426283,"name":"忠誠山東蔥油餅","decorType":"restaurant"},{"id":"node-2473232940","lat":25.0228235,"lon":121.541204,"name":"溫州大混沌","decorType":"restaurant"},{"id":"node-2473232943","lat":25.0229447,"lon":121.5411937,"name":"九品早餐店","decorType":"restaurant"},{"id":"node-2473232946","lat":25.0222803,"lon":121.5410337,"name":"北方大陸餅","decorType":"restaurant"},{"id":"node-2473232956","lat":25.0218705,"lon":121.5431894,"name":"全家便利商店","decorType":"convenience"},{"id":"node-2473232960","lat":25.0222439,"lon":121.5421075,"name":"親來食堂","decorType":"restaurant"},{"id":"node-2572568012","lat":25.0119693,"lon":121.5357688,"name":"新馬辣經典麻辣鍋","decorType":"restaurant"},{"id":"node-2609549900","lat":25.0121369,"lon":121.5354393,"name":"三媽臭臭鍋","decorType":"restaurant"},{"id":"node-2609549933","lat":25.0121983,"lon":121.5354167,"name":"小飯館兒","decorType":"restaurant"},{"id":"node-2635371415","lat":25.0079025,"lon":121.5385679,"name":"7-Eleven","decorType":"convenience"},{"id":"node-2669833882","lat":25.0079828,"lon":121.5440317,"name":"蟾蜍山","decorType":"mountain"},{"id":"node-2837820262","lat":25.0123617,"lon":121.5355328,"name":"維倫麵店","decorType":"restaurant"},{"id":"node-2837820263","lat":25.0123135,"lon":121.5355568,"name":"順園小館","decorType":"restaurant"},{"id":"node-2837820264","lat":25.0122683,"lon":121.5355879,"name":"壹森泰食堂","decorType":"restaurant"},{"id":"node-2917411049","lat":25.0216747,"lon":121.5439587,"name":"道藩分館","decorType":"library"},{"id":"node-2917441717","lat":25.0204674,"lon":121.5443811,"name":"萊爾富","decorType":"convenience"},{"id":"node-2917693023","lat":25.0226168,"lon":121.5426344,"name":"八方雲集","decorType":"burger"},{"id":"node-2925675602","lat":25.0114031,"lon":121.5360667,"name":"寶藏巖","decorType":"bus_stop"},{"id":"node-2925675603","lat":25.0114279,"lon":121.5359439,"name":"寶藏巖","decorType":"bus_stop"},{"id":"node-2935820265","lat":25.0222651,"lon":121.5435572,"name":"芝加哥比薩","decorType":"restaurant"},{"id":"node-3008812245","lat":25.0120446,"lon":121.5357802,"name":"拉芙漢堡","decorType":"restaurant"},{"id":"node-3014391178","lat":25.0204459,"lon":121.5447217,"name":"臺大國青大樓前郵筒","decorType":"post_office"},{"id":"node-3080933442","lat":25.0216304,"lon":121.5427343,"name":"阿玉水餃","decorType":"restaurant"},{"id":"node-3188130319","lat":25.0210604,"lon":121.5408493,"name":"臺大計資中心","decorType":"bus_stop"},{"id":"node-3188130320","lat":25.0216366,"lon":121.5403686,"name":"臺大計資中心","decorType":"bus_stop"},{"id":"node-3387037593","lat":25.0146694,"lon":121.5352093,"name":"CoCo壱番屋","decorType":"restaurant"},{"id":"node-3521852855","lat":25.0087752,"lon":121.5375928,"name":"公館福德宮","decorType":"shrine"},{"id":"node-3596859025","lat":25.0216309,"lon":121.5426436,"name":"喜川麵館","decorType":"restaurant"},{"id":"node-3622811693","lat":25.0116783,"lon":121.5359696,"name":"Luca Vergani","decorType":"clothing"},{"id":"node-3622811895","lat":25.0120314,"lon":121.5355142,"name":"法點法食","decorType":"cafe"},{"id":"node-3644253285","lat":25.0112444,"lon":121.5409495,"name":"未命名郵局","decorType":"post_office"},{"id":"node-3657496289","lat":25.0099668,"lon":121.5378668,"name":"清寶宮","decorType":"shrine"},{"id":"node-3701535079","lat":25.0122733,"lon":121.5353205,"name":"酷必五星級牛排飯","decorType":"restaurant"},{"id":"node-3701541985","lat":25.0120951,"lon":121.5354652,"name":"炎帝鐵板燒","decorType":"restaurant"},{"id":"node-3723318923","lat":25.0127299,"lon":121.5360128,"name":"塊雞師事務所","decorType":"restaurant"},{"id":"node-3723319525","lat":25.0127689,"lon":121.5359808,"name":"MACANNA","decorType":"clothing"},{"id":"node-3723319532","lat":25.0124162,"lon":121.5362097,"name":"茂林動物福利蛋","decorType":"supermarket"},{"id":"node-3723319535","lat":25.0130905,"lon":121.5356599,"name":"茶予抱報","decorType":"cafe"},{"id":"node-3723319536","lat":25.0126737,"lon":121.5360544,"name":"想聚","decorType":"restaurant"},{"id":"node-3723319538","lat":25.0129292,"lon":121.5357915,"name":"海人","decorType":"restaurant"},{"id":"node-3723319585","lat":25.0128487,"lon":121.5359294,"name":"啦啦麵","decorType":"restaurant"},{"id":"node-3723319586","lat":25.0131225,"lon":121.5356417,"name":"Vortex","decorType":"clothing"},{"id":"node-3723319587","lat":25.0129936,"lon":121.5357983,"name":"米澤製麵","decorType":"restaurant"},{"id":"node-3723319589","lat":25.0126355,"lon":121.5360837,"name":"520 SPA美容越式洗頭","decorType":"cosmetics"},{"id":"node-3723319590","lat":25.0129518,"lon":121.5358308,"name":"頂呱呱","decorType":"burger"},{"id":"node-3780775615","lat":25.0080499,"lon":121.5368309,"name":"7-Eleven","decorType":"convenience"},{"id":"node-3811140813","lat":25.0130126,"lon":121.5365578,"name":"龐德羅沙","decorType":"restaurant"},{"id":"node-3811140814","lat":25.0128867,"lon":121.5366884,"name":"Gugu Kitchen","decorType":"restaurant"},{"id":"node-3811140815","lat":25.0131252,"lon":121.5364889,"name":"魯山人和風壽喜鍋物","decorType":"restaurant"},{"id":"node-3811141114","lat":25.0129713,"lon":121.5367029,"name":"Lacuz","decorType":"restaurant"},{"id":"node-3825998761","lat":25.0125939,"lon":121.5354702,"name":"直火人","decorType":"restaurant"},{"id":"node-3825998764","lat":25.0128651,"lon":121.5351912,"name":"全家便利商店","decorType":"convenience"},{"id":"node-3832679351","lat":25.021729,"lon":121.540594,"name":"貝拉小屋","decorType":"restaurant"},{"id":"node-3834063057","lat":25.0218883,"lon":121.5481985,"name":"akuma caca","decorType":"cafe"},{"id":"node-3867798198","lat":25.0129862,"lon":121.5351931,"name":"聚英軒","decorType":"restaurant"},{"id":"node-3867798204","lat":25.0125169,"lon":121.5354124,"name":"7-Eleven","decorType":"convenience"},{"id":"node-3917907435","lat":25.019892,"lon":121.5471483,"name":"蔬果店","decorType":"supermarket"},{"id":"node-4018205776","lat":25.0134945,"lon":121.5363561,"name":"義饗食堂","decorType":"restaurant"},{"id":"node-4033359734","lat":25.0075559,"lon":121.5381093,"name":"亞運撞球館","decorType":"stadium"},{"id":"node-4108947169","lat":25.0224186,"lon":121.5404027,"name":"Toh-A桌藏","decorType":"restaurant"},{"id":"node-4114350999","lat":25.0125099,"lon":121.5478491,"name":"芳蘭山莊","decorType":"bus_stop"},{"id":"node-4213847985","lat":25.0097015,"lon":121.5389546,"name":"未命名郵局","decorType":"post_office"},{"id":"node-4236823708","lat":25.0090476,"lon":121.5382142,"name":"光山","decorType":"mountain"},{"id":"node-4236824143","lat":25.0093067,"lon":121.5373607,"name":"紅蔥","decorType":"restaurant"},{"id":"node-4254654848","lat":25.0225783,"lon":121.5431146,"name":"Seven Fine Days","decorType":"restaurant"},{"id":"node-4254654855","lat":25.0230406,"lon":121.5429403,"name":"巧味快餐","decorType":"restaurant"},{"id":"node-4254654858","lat":25.0218686,"lon":121.542766,"name":"池先生咖哩屋","decorType":"restaurant"},{"id":"node-4328118410","lat":25.0088272,"lon":121.5375654,"name":"以琳髮型設計","decorType":"hair_salon"},{"id":"node-4328118414","lat":25.0128138,"lon":121.535787,"name":"公館蚵仔麵線","decorType":"restaurant"},{"id":"node-4328118420","lat":25.0127473,"lon":121.5356977,"name":"台南碗磕","decorType":"restaurant"},{"id":"node-4328118422","lat":25.0132022,"lon":121.5352198,"name":"牛二哥牛排館","decorType":"restaurant"},{"id":"node-4328118424","lat":25.0132555,"lon":121.5352394,"name":"喬雅美妝","decorType":"pharmacy"},{"id":"node-4328118607","lat":25.0127119,"lon":121.5356456,"name":"臭豆腐","decorType":"restaurant"},{"id":"node-4328118608","lat":25.0130747,"lon":121.5353653,"name":"芙蘿菈時尚美甲","decorType":"cosmetics"},{"id":"node-4328118613","lat":25.0130041,"lon":121.5354201,"name":"蘭陽美食綠色臭豆腐","decorType":"restaurant"},{"id":"node-4328118616","lat":25.0128489,"lon":121.5355302,"name":"阿里媽媽","decorType":"restaurant"},{"id":"node-4328118618","lat":25.0131228,"lon":121.5353287,"name":"韓一閣韓式料理","decorType":"restaurant"},{"id":"node-4360380424","lat":25.022969,"lon":121.5411934,"name":"國安乾洗","decorType":"laundry"},{"id":"node-4360380425","lat":25.0220718,"lon":121.5419921,"name":"大柱子擔仔麵","decorType":"restaurant"},{"id":"node-4360380426","lat":25.0220828,"lon":121.5412184,"name":"姐弟蔬果店","decorType":"supermarket"},{"id":"node-4360380427","lat":25.0230261,"lon":121.5411965,"name":"山林美食館","decorType":"restaurant"},{"id":"node-4360380429","lat":25.0230645,"lon":121.5412099,"name":"惠盈藥局","decorType":"pharmacy"},{"id":"node-4360380431","lat":25.0230999,"lon":121.5427863,"name":"老哥雞肉飯 乾拌麵","decorType":"restaurant"},{"id":"node-4360380443","lat":25.0229358,"lon":121.5425523,"name":"邦食堂","decorType":"restaurant"},{"id":"node-4360380445","lat":25.0220729,"lon":121.5414843,"name":"韓喜堂","decorType":"restaurant"},{"id":"node-4360380446","lat":25.0226374,"lon":121.5412391,"name":"揪食堂韓式餐館","decorType":"restaurant"},{"id":"node-4360850489","lat":25.0217224,"lon":121.5403318,"name":"illy coffee L'angolo","decorType":"cafe"},{"id":"node-4417637944","lat":25.0075868,"lon":121.5380402,"name":"小尚品精緻鍋物","decorType":"restaurant"},{"id":"node-4505512189","lat":25.0124802,"lon":121.5354553,"name":"狗一下","decorType":"restaurant"},{"id":"node-4507665996","lat":25.0179497,"lon":121.5445342,"name":"Living One","decorType":"restaurant"},{"id":"node-4524318957","lat":25.0090143,"lon":121.5374778,"name":"水果禮盒","decorType":"supermarket"},{"id":"node-4524328187","lat":25.0124132,"lon":121.5354769,"name":"味自慢","decorType":"restaurant"},{"id":"node-4524328188","lat":25.0124381,"lon":121.5354631,"name":"麻煮mini麻辣煲","decorType":"restaurant"},{"id":"node-4524864517","lat":25.0227716,"lon":121.5408916,"name":"未命名公園","decorType":"park"},{"id":"node-4754476211","lat":25.0121317,"lon":121.5356656,"name":"客家魷魚羹","decorType":"restaurant"},{"id":"node-4754476212","lat":25.0121813,"lon":121.5356293,"name":"大埔鐵板燒","decorType":"restaurant"},{"id":"node-4834761742","lat":25.0078126,"lon":121.5386181,"name":"Space Out Art","decorType":"art_gallery"},{"id":"node-4834803702","lat":25.0174149,"lon":121.5450616,"name":"Adam Store","decorType":"electronics"},{"id":"node-4834803703","lat":25.0173609,"lon":121.5449977,"name":"摩斯漢堡","decorType":"burger"},{"id":"node-4834803705","lat":25.0172674,"lon":121.54489,"name":"電腦先生","decorType":"electronics"},{"id":"node-4834803706","lat":25.0172119,"lon":121.5448338,"name":"星巴克","decorType":"cafe"},{"id":"node-4834803715","lat":25.0122752,"lon":121.5352238,"name":"漫果子桌遊主題餐廳","decorType":"restaurant"},{"id":"node-4834803827","lat":25.0126334,"lon":121.5356539,"name":"金名號 鹿野雞肉飯專賣","decorType":"restaurant"},{"id":"node-4834803829","lat":25.0132831,"lon":121.5352677,"name":"泰風味小吃店","decorType":"restaurant"},{"id":"node-4834803830","lat":25.0120027,"lon":121.5357977,"name":"雅澤沙龍","decorType":"hair_salon"},{"id":"node-4834803831","lat":25.0119179,"lon":121.535807,"name":"牛髓知味紅燒牛肉麵","decorType":"restaurant"},{"id":"node-4834803856","lat":25.0130646,"lon":121.5365532,"name":"Mövenpick Café","decorType":"cafe"},{"id":"node-4880964021","lat":25.0224101,"lon":121.5431822,"name":"鬍子茶","decorType":"cafe"},{"id":"node-4952060640","lat":25.0149302,"lon":121.5354831,"name":"Mensa","decorType":"restaurant"},{"id":"node-4952060641","lat":25.0149685,"lon":121.5354648,"name":"未命名便利商店","decorType":"convenience"},{"id":"node-5012516850","lat":25.0219124,"lon":121.5408384,"name":"豆系研究室","decorType":"cafe"},{"id":"node-5052612407","lat":25.0116675,"lon":121.5359889,"name":"大學城團體服","decorType":"clothing"},{"id":"node-5102058921","lat":25.0230694,"lon":121.537095,"name":"7-Eleven","decorType":"convenience"},{"id":"node-5110245021","lat":25.0127147,"lon":121.5359749,"name":"黑特咖啡","decorType":"restaurant"},{"id":"node-5316457293","lat":25.01783,"lon":121.5411992,"name":"原住民族圖書資訊中心","decorType":"library"},{"id":"node-5395213422","lat":25.0223074,"lon":121.5411832,"name":"遊藝思文創空間","decorType":"cafe"},{"id":"node-5551929262","lat":25.0122975,"lon":121.535303,"name":"鍋in百元風味火鍋","decorType":"restaurant"},{"id":"node-5561584642","lat":25.0180864,"lon":121.5390798,"name":"綜合教學館","decorType":"bus_stop"},{"id":"node-5587511570","lat":25.0154898,"lon":121.5369154,"name":"國立臺灣學員生消費合作社","decorType":"convenience"},{"id":"node-5775285051","lat":25.0230251,"lon":121.5408256,"name":"理髮","decorType":"hair_salon"},{"id":"node-5839638858","lat":25.0227894,"lon":121.5475757,"name":"Boom Coffee Roasters","decorType":"cafe"},{"id":"node-5849573415","lat":25.020718,"lon":121.5461776,"name":"怡客咖啡","decorType":"cafe"},{"id":"node-5960741880","lat":25.0077945,"lon":121.5386347,"name":"校門對面那間店","decorType":"restaurant"},{"id":"node-6007607969","lat":25.0132642,"lon":121.535585,"name":"麥味登","decorType":"restaurant"},{"id":"node-6037206719","lat":25.0194336,"lon":121.5392482,"name":"全家便利商店","decorType":"convenience"},{"id":"node-6114700752","lat":25.0230082,"lon":121.5411937,"name":"家庭理髮店","decorType":"hair_salon"},{"id":"node-6114700753","lat":25.0229908,"lon":121.5411943,"name":"便當","decorType":"restaurant"},{"id":"node-6114700754","lat":25.022054,"lon":121.5424481,"name":"合益佳雞肉飯","decorType":"restaurant"},{"id":"node-6114700755","lat":25.0220199,"lon":121.5429282,"name":"28麵堂","decorType":"restaurant"},{"id":"node-6114714475","lat":25.0220588,"lon":121.5427565,"name":"水果店","decorType":"supermarket"},{"id":"node-6114714476","lat":25.0220892,"lon":121.5429215,"name":"舒美乾洗店","decorType":"laundry"},{"id":"node-6114714477","lat":25.0221427,"lon":121.5429148,"name":"師大附中水煎包","decorType":"restaurant"},{"id":"node-6114714478","lat":25.0222034,"lon":121.5429161,"name":"甜品屋","decorType":"restaurant"},{"id":"node-6114714479","lat":25.0223638,"lon":121.5429282,"name":"大易園早午餐","decorType":"restaurant"},{"id":"node-6114714480","lat":25.0224343,"lon":121.5429295,"name":"笑嘻嘻港式現炒飯麵","decorType":"restaurant"},{"id":"node-6317546194","lat":25.0217242,"lon":121.54074,"name":"鼎貴小吃店","decorType":"restaurant"},{"id":"node-6401808753","lat":25.0204744,"lon":121.5367958,"name":"未命名公園","decorType":"park"},{"id":"node-6587809188","lat":25.0223235,"lon":121.5435583,"name":"麥味登","decorType":"restaurant"},{"id":"node-6649157804","lat":25.0173822,"lon":121.5366659,"name":"傅鐘 (往城中校區)","decorType":"bus_stop"},{"id":"node-6697187509","lat":25.0229651,"lon":121.5476006,"name":"千松谷","decorType":"restaurant"},{"id":"node-6697187510","lat":25.02297,"lon":121.547673,"name":"麥味登","decorType":"restaurant"},{"id":"node-6699805979","lat":25.0159369,"lon":121.5431584,"name":"紅蔥","decorType":"restaurant"},{"id":"node-6714766659","lat":25.0129269,"lon":121.5366425,"name":"曉鹿鳴樓","decorType":"restaurant"},{"id":"node-7056026970","lat":25.0225167,"lon":121.5435599,"name":"健康生機超市","decorType":"supermarket"},{"id":"node-7056026977","lat":25.0221764,"lon":121.5435491,"name":"池先生馬來西亞傳統料理","decorType":"restaurant"},{"id":"node-7056026980","lat":25.0217809,"lon":121.5435451,"name":"電腦達人","decorType":"electronics"},{"id":"node-7112865688","lat":25.0207023,"lon":121.5481524,"name":"早餐店","decorType":"restaurant"},{"id":"node-7174571369","lat":25.0217268,"lon":121.540652,"name":"依依平價火鍋","decorType":"restaurant"},{"id":"node-7213007953","lat":25.0216351,"lon":121.5429047,"name":"禾園水果行","decorType":"supermarket"},{"id":"node-7213007955","lat":25.0218161,"lon":121.5427626,"name":"高和食堂","decorType":"restaurant"},{"id":"node-7213007956","lat":25.0219,"lon":121.5427646,"name":"路易沙","decorType":"cafe"},{"id":"node-7213007957","lat":25.022061,"lon":121.5427083,"name":"蔥燉牛肉麵","decorType":"restaurant"},{"id":"node-7213007958","lat":25.0219115,"lon":121.5429215,"name":"紫牛平價牛排","decorType":"restaurant"},{"id":"node-7213007959","lat":25.0218398,"lon":121.5429229,"name":"源士林粥品","decorType":"restaurant"},{"id":"node-7213007960","lat":25.0222737,"lon":121.5429309,"name":"釀釀禾","decorType":"restaurant"},{"id":"node-7213007961","lat":25.0223976,"lon":121.5429309,"name":"t c shop","decorType":"clothing"},{"id":"node-7213007962","lat":25.0224657,"lon":121.5429282,"name":"五九麵館","decorType":"restaurant"},{"id":"node-7213007963","lat":25.0225021,"lon":121.5429269,"name":"郭董麻辣牛肉麵","decorType":"restaurant"},{"id":"node-7213007964","lat":25.0225349,"lon":121.5429255,"name":"靜園環保藥局","decorType":"pharmacy"},{"id":"node-7213007965","lat":25.022366,"lon":121.5427646,"name":"速修王","decorType":"electronics"},{"id":"node-7213007968","lat":25.0224669,"lon":121.5427713,"name":"新格名品服飾","decorType":"clothing"},{"id":"node-7213007969","lat":25.0225167,"lon":121.5427726,"name":"I'm Pasta","decorType":"restaurant"},{"id":"node-7213007971","lat":25.0227841,"lon":121.542778,"name":"滇味小廚","decorType":"restaurant"},{"id":"node-7213007972","lat":25.0228594,"lon":121.542774,"name":"卡瓦利印度料理","decorType":"restaurant"},{"id":"node-7213007973","lat":25.0226176,"lon":121.5430228,"name":"貞有緣素食","decorType":"restaurant"},{"id":"node-7213007974","lat":25.0226176,"lon":121.5429711,"name":"河內美食","decorType":"restaurant"},{"id":"node-7213007975","lat":25.0227263,"lon":121.5429356,"name":"台南周記冰鎮滷味","decorType":"restaurant"},{"id":"node-7213007976","lat":25.022795,"lon":121.5429376,"name":"慈心素食","decorType":"restaurant"},{"id":"node-7213007977","lat":25.0228418,"lon":121.5429477,"name":"馬祖麵館","decorType":"restaurant"},{"id":"node-7213007979","lat":25.0229135,"lon":121.5429416,"name":"大叔蔬食","decorType":"restaurant"},{"id":"node-7213007981","lat":25.0230933,"lon":121.5429477,"name":"成都川菜小吃","decorType":"restaurant"},{"id":"node-7330746357","lat":25.0145144,"lon":121.5379918,"name":"7-Eleven","decorType":"convenience"},{"id":"node-7330746358","lat":25.0144599,"lon":121.5378915,"name":"丹堤咖啡","decorType":"cafe"},{"id":"node-7330746360","lat":25.0145667,"lon":121.5379231,"name":"路易莎咖啡","decorType":"cafe"},{"id":"node-7330800319","lat":25.0145897,"lon":121.5378707,"name":"全家喜湯包","decorType":"restaurant"},{"id":"node-7594589824","lat":25.0215676,"lon":121.5419479,"name":"未命名郵局","decorType":"post_office"},{"id":"node-7594589836","lat":25.0219796,"lon":121.5406939,"name":"歐克法","decorType":"cafe"},{"id":"node-7657642011","lat":25.0145259,"lon":121.5376709,"name":"未命名公園","decorType":"park"},{"id":"node-7714151050","lat":25.0104571,"lon":121.5367932,"name":"小麻雀","decorType":"clothing"},{"id":"node-7747683208","lat":25.0184954,"lon":121.5372909,"name":"文湯武醬","decorType":"restaurant"},{"id":"node-7747683214","lat":25.0119533,"lon":121.5410421,"name":"豪享來","decorType":"restaurant"},{"id":"node-7747683219","lat":25.0120431,"lon":121.5409244,"name":"天津蔥抓餅","decorType":"restaurant"},{"id":"node-7747683225","lat":25.0119175,"lon":121.5408813,"name":"帝一味自助餐","decorType":"restaurant"},{"id":"node-7747683231","lat":25.0200571,"lon":121.5382461,"name":"稍飽 燒肉廚房","decorType":"restaurant"},{"id":"node-7747683236","lat":25.0120103,"lon":121.5408735,"name":"藝素佳素食","decorType":"restaurant"},{"id":"node-7747683238","lat":25.021738,"lon":121.5372946,"name":"JM Café & Bistro","decorType":"restaurant"},{"id":"node-7747683245","lat":25.0118722,"lon":121.5409368,"name":"八方雲集","decorType":"burger"},{"id":"node-7749776763","lat":25.0163237,"lon":121.5457338,"name":"台大後餐鹹酥雞","decorType":"restaurant"},{"id":"node-7749776767","lat":25.0158145,"lon":121.5447159,"name":"波斯菊素食坊","decorType":"restaurant"},{"id":"node-7749776769","lat":25.0154048,"lon":121.537195,"name":"大叔韓國炸雞","decorType":"restaurant"},{"id":"node-7749776770","lat":25.0194318,"lon":121.5392576,"name":"五花馬水餃館","decorType":"restaurant"},{"id":"node-7749776771","lat":25.0127738,"lon":121.5431421,"name":"台科後餐炒飯炒麵","decorType":"restaurant"},{"id":"node-7749776774","lat":25.0159348,"lon":121.5447287,"name":"武吉家","decorType":"restaurant"},{"id":"node-7749776775","lat":25.0140991,"lon":121.5424528,"name":"赤糰飯糰","decorType":"restaurant"},{"id":"node-7749776777","lat":25.013791,"lon":121.5427257,"name":"Medditerranian Cusine Halal Algarian","decorType":"restaurant"},{"id":"node-7749776778","lat":25.0159864,"lon":121.5446505,"name":"丼太郎","decorType":"restaurant"},{"id":"node-7749782389","lat":25.0145031,"lon":121.5441315,"name":"吉野家","decorType":"burger"},{"id":"node-7749782390","lat":25.0159743,"lon":121.544724,"name":"男一快餐","decorType":"restaurant"},{"id":"node-7749782391","lat":25.0158619,"lon":121.5447213,"name":"我家廚房早餐店","decorType":"restaurant"},{"id":"node-7749782396","lat":25.0137416,"lon":121.54284,"name":"品客自助餐","decorType":"restaurant"},{"id":"node-7749782397","lat":25.0138013,"lon":121.5426308,"name":"一品快餐","decorType":"restaurant"},{"id":"node-7749782401","lat":25.0137481,"lon":121.5426924,"name":"福客鐵板料李","decorType":"restaurant"},{"id":"node-7749782405","lat":25.0139705,"lon":121.5426834,"name":"福客亭早餐吧","decorType":"restaurant"},{"id":"node-7765187649","lat":25.0217006,"lon":121.5398237,"name":"SEMINAR西餐廳","decorType":"restaurant"},{"id":"node-7765187996","lat":25.0217187,"lon":121.5399993,"name":"Open開房間桌遊餐館","decorType":"restaurant"},{"id":"node-7765188023","lat":25.0217052,"lon":121.5397253,"name":"協民隆有限公司","decorType":"restaurant"},{"id":"node-7779795810","lat":25.0220671,"lon":121.5423897,"name":"香港林師傅","decorType":"restaurant"},{"id":"node-7795486071","lat":25.0120252,"lon":121.5355361,"name":"法點法食","decorType":"restaurant"},{"id":"node-7795486072","lat":25.0117171,"lon":121.5359578,"name":"武林茶","decorType":"cafe"},{"id":"node-8218123651","lat":25.0107174,"lon":121.536904,"name":"燒肉星球","decorType":"restaurant"},{"id":"node-8999398230","lat":25.0119026,"lon":121.5409814,"name":"雞同鴨講","decorType":"restaurant"},{"id":"node-8999398231","lat":25.0119749,"lon":121.5408281,"name":"京都日式料理","decorType":"restaurant"},{"id":"node-8999398232","lat":25.0120137,"lon":121.5411062,"name":"稻村麵包","decorType":"restaurant"},{"id":"node-8999398233","lat":25.0120804,"lon":121.5409795,"name":"茶覺","decorType":"cafe"},{"id":"node-8999398234","lat":25.0119814,"lon":121.541074,"name":"活力讚早午餐","decorType":"restaurant"},{"id":"node-8999398235","lat":25.0119294,"lon":121.5410124,"name":"突厥廚房","decorType":"restaurant"},{"id":"node-8999398236","lat":25.0129562,"lon":121.5427356,"name":"萊爾富","decorType":"convenience"},{"id":"node-10154681387","lat":25.013702,"lon":121.5427793,"name":"家常清真小吃","decorType":"restaurant"},{"id":"node-10154681388","lat":25.0137756,"lon":121.5428787,"name":"高麗元","decorType":"restaurant"},{"id":"node-10154681389","lat":25.0138414,"lon":121.5428381,"name":"動太郎","decorType":"restaurant"},{"id":"node-10154681390","lat":25.0138659,"lon":121.5428063,"name":"甘味廚房","decorType":"restaurant"},{"id":"node-10154681391","lat":25.0138945,"lon":121.5427665,"name":"溫州大餛飩","decorType":"restaurant"},{"id":"node-10154681392","lat":25.0139294,"lon":121.5427315,"name":"嚴茶","decorType":"restaurant"},{"id":"node-10154681393","lat":25.0138366,"lon":121.5425894,"name":"小熊廚房","decorType":"restaurant"},{"id":"node-10154681394","lat":25.0138784,"lon":121.5425392,"name":"強尼兄弟","decorType":"restaurant"},{"id":"node-11323178645","lat":25.0139307,"lon":121.5380457,"name":"國立臺灣大學管理學院","decorType":"university"},{"id":"node-11951580626","lat":25.0230656,"lon":121.5427969,"name":"餃子酒場晴屋","decorType":"restaurant"},{"id":"node-11981499265","lat":25.0126715,"lon":121.536037,"name":"芮微荷夢幻森林","decorType":"cosmetics"},{"id":"node-11981499266","lat":25.0129814,"lon":121.5357822,"name":"茗香園冰室","decorType":"restaurant"},{"id":"node-12066226016","lat":25.0125533,"lon":121.5357136,"name":"京阪豚骨拉麵","decorType":"restaurant"},{"id":"node-12091469324","lat":25.0140884,"lon":121.54268,"name":"摩斯漢堡","decorType":"burger"},{"id":"node-12174967078","lat":25.0147208,"lon":121.5431415,"name":"路易莎咖啡","decorType":"cafe"},{"id":"node-12250662070","lat":25.0188555,"lon":121.5456118,"name":"臺大植物教學醫院","decorType":"university"},{"id":"node-12250787800","lat":25.0199282,"lon":121.5447917,"name":"臺大法學院圖書館","decorType":"library"},{"id":"node-12253427526","lat":25.0154433,"lon":121.5389103,"name":"國立臺灣大學生命科學院","decorType":"university"},{"id":"node-12253532779","lat":25.0171088,"lon":121.5394749,"name":"總圖","decorType":"bus_stop"},{"id":"node-12253532780","lat":25.0172322,"lon":121.5367746,"name":"傅鐘 (往總區)","decorType":"bus_stop"},{"id":"node-12254561053","lat":25.0182542,"lon":121.5422194,"name":"獸醫專業學院","decorType":"university"},{"id":"node-12258614997","lat":25.0137679,"lon":121.5470695,"name":"國立臺大永齡健康研究院","decorType":"university"},{"id":"node-12718628642","lat":25.0204972,"lon":121.5409618,"name":"國際華語研習所","decorType":"university"},{"id":"node-13005612705","lat":25.0093464,"lon":121.5369849,"name":"未命名餐廳","decorType":"restaurant"},{"id":"node-13130317492","lat":25.0129385,"lon":121.536775,"name":"熊一燒肉","decorType":"restaurant"},{"id":"node-13183685244","lat":25.0153345,"lon":121.537016,"name":"全家便利商店","decorType":"convenience"},{"id":"node-13275684252","lat":25.012468,"lon":121.5384984,"name":"公館","decorType":"bus_stop"},{"id":"way-39450474","lat":25.0185599,"lon":121.5373553,"name":"小福","decorType":"university"},{"id":"way-50212704","lat":25.0189754,"lon":121.5463903,"name":"未命名橋樑","decorType":"bridge"},{"id":"way-50212705","lat":25.0189438,"lon":121.5464432,"name":"未命名橋樑","decorType":"bridge"},{"id":"way-50212706","lat":25.0198891,"lon":121.5475217,"name":"未命名橋樑","decorType":"bridge"},{"id":"way-50752698","lat":25.015762,"lon":121.5426534,"name":"未命名橋樑","decorType":"bridge"},{"id":"way-59383257","lat":25.0131486,"lon":121.5369107,"name":"管理學院二號館","decorType":"university"},{"id":"way-113547891","lat":25.0195159,"lon":121.54164,"name":"資訊工程館","decorType":"university"},{"id":"way-158624113","lat":25.020759,"lon":121.5423076,"name":"社會科學院大樓","decorType":"university"},{"id":"way-158651499","lat":25.0134112,"lon":121.5383913,"name":"管理學院交誼廳","decorType":"university"},{"id":"way-177612503","lat":25.0151978,"lon":121.5414716,"name":"未命名大學&學院","decorType":"university"},{"id":"way-177612507","lat":25.0162561,"lon":121.5417115,"name":"考種館","decorType":"university"},{"id":"way-183002398","lat":25.0085176,"lon":121.5379092,"name":"師大分部","decorType":"bus_stop"},{"id":"way-185260559","lat":25.016767,"lon":121.5359026,"name":"二號館","decorType":"university"},{"id":"way-191350723","lat":25.0168524,"lon":121.5376478,"name":"四號館","decorType":"university"},{"id":"way-191350725","lat":25.0178672,"lon":121.5383099,"name":"土木系館","decorType":"university"},{"id":"way-191350726","lat":25.0164816,"lon":121.5359128,"name":"三號館","decorType":"university"},{"id":"way-191350727","lat":25.01579,"lon":121.5375925,"name":"共同教學館","decorType":"university"},{"id":"way-191350729","lat":25.0206931,"lon":121.5381817,"name":"思亮館國際會議廳","decorType":"university"},{"id":"way-191350730","lat":25.0203707,"lon":121.5384173,"name":"舊數館","decorType":"university"},{"id":"way-191350731","lat":25.0165666,"lon":121.5376541,"name":"五號館","decorType":"university"},{"id":"way-191350733","lat":25.0198483,"lon":121.5376816,"name":"未命名橋樑","decorType":"bridge"},{"id":"way-191350734","lat":25.0154153,"lon":121.5387313,"name":"生命科學大樓","decorType":"university"},{"id":"way-191350735","lat":25.0208873,"lon":121.5385996,"name":"思亮館","decorType":"university"},{"id":"way-191350736","lat":25.0162444,"lon":121.5359033,"name":"農化新館","decorType":"university"},{"id":"way-191350738","lat":25.0178723,"lon":121.5393919,"name":"圖資系系館","decorType":"university"},{"id":"way-191350740","lat":25.016188,"lon":121.5376126,"name":"農業綜合大樓","decorType":"university"},{"id":"way-191350741","lat":25.0181935,"lon":121.5383022,"name":"化工館","decorType":"university"},{"id":"way-191350742","lat":25.0200854,"lon":121.5385109,"name":"數學研究中心","decorType":"university"},{"id":"way-191350743","lat":25.0168676,"lon":121.5396071,"name":"衛生保健中心","decorType":"university"},{"id":"way-191354836","lat":25.0217986,"lon":121.5366757,"name":"物理學系/凝態科學研究中心","decorType":"university"},{"id":"way-191354839","lat":25.0180508,"lon":121.5361396,"name":"文學院研究大樓","decorType":"university"},{"id":"way-191354840","lat":25.0208685,"lon":121.539371,"name":"水產養殖池","decorType":"university"},{"id":"way-191354841","lat":25.0208717,"lon":121.5398452,"name":"計算機及網路資訊中心","decorType":"university"},{"id":"way-191354842","lat":25.020539,"lon":121.5394284,"name":"漁業科學館","decorType":"university"},{"id":"way-191354844","lat":25.0190476,"lon":121.5386744,"name":"電機一館","decorType":"university"},{"id":"way-191354845","lat":25.0197351,"lon":121.5384231,"name":"新生教學館","decorType":"university"},{"id":"way-191354846","lat":25.0213084,"lon":121.5366551,"name":"全球變遷研究中心","decorType":"university"},{"id":"way-191354849","lat":25.020551,"lon":121.5438175,"name":"霖澤館","decorType":"university"},{"id":"way-191354852","lat":25.0178315,"lon":121.5443546,"name":"明達館","decorType":"university"},{"id":"way-191358131","lat":25.0156295,"lon":121.5368083,"name":"農化系實驗室","decorType":"university"},{"id":"way-191358132","lat":25.0188936,"lon":121.5366645,"name":"博雅教學館","decorType":"university"},{"id":"way-191358135","lat":25.0151093,"lon":121.5376058,"name":"鹿鳴堂","decorType":"university"},{"id":"way-191358137","lat":25.0140269,"lon":121.5399811,"name":"造園館","decorType":"university"},{"id":"way-191358138","lat":25.0182511,"lon":121.5418428,"name":"獸醫館","decorType":"university"},{"id":"way-191358141","lat":25.0153346,"lon":121.5362081,"name":"植物系研究室(舊館)","decorType":"university"},{"id":"way-191358143","lat":25.019619,"lon":121.5402518,"name":"心理系南館","decorType":"university"},{"id":"way-191358145","lat":25.0192875,"lon":121.5422706,"name":"博理館","decorType":"university"},{"id":"way-191358148","lat":25.0200401,"lon":121.5402547,"name":"心理系北館","decorType":"university"},{"id":"way-191358149","lat":25.0187971,"lon":121.5428516,"name":"鄭江樓","decorType":"university"},{"id":"way-191358150","lat":25.0151944,"lon":121.5362421,"name":"望樂樓","decorType":"university"},{"id":"way-191358151","lat":25.0121999,"lon":121.537451,"name":"建築與城鄉研究所","decorType":"university"},{"id":"way-191358153","lat":25.0179405,"lon":121.5427677,"name":"農機館","decorType":"university"},{"id":"way-191358155","lat":25.0193462,"lon":121.5385654,"name":"生化科學館","decorType":"university"},{"id":"way-191358160","lat":25.0205197,"lon":121.5402832,"name":"外語教學中心","decorType":"university"},{"id":"way-191358161","lat":25.015447,"lon":121.5370977,"name":"小小福","decorType":"university"},{"id":"way-191358164","lat":25.0110715,"lon":121.5406498,"name":"昆蟲館","decorType":"university"},{"id":"way-191360823","lat":25.0214912,"lon":121.5373762,"name":"未命名大學&學院","decorType":"university"},{"id":"way-191360824","lat":25.0148017,"lon":121.5371376,"name":"地質系館","decorType":"university"},{"id":"way-191360826","lat":25.014777,"lon":121.5365848,"name":"展書樓","decorType":"university"},{"id":"way-191360827","lat":25.0147772,"lon":121.5384454,"name":"浩瀚樓","decorType":"university"},{"id":"way-191360828","lat":25.0163068,"lon":121.5384509,"name":"生工系實驗室","decorType":"university"},{"id":"way-191360830","lat":25.0166336,"lon":121.5386637,"name":"花卉館","decorType":"university"},{"id":"way-191524010","lat":25.0187212,"lon":121.5368413,"name":"未命名橋樑","decorType":"bridge"},{"id":"way-191757820","lat":25.0148298,"lon":121.5389369,"name":"大氣系館","decorType":"university"},{"id":"way-191757841","lat":25.0134657,"lon":121.536363,"name":"捷絲旅","decorType":"hotel"},{"id":"way-191780023","lat":25.0179177,"lon":121.5370172,"name":"未命名公園","decorType":"park"},{"id":"way-192060405","lat":25.015707,"lon":121.5357752,"name":"營繕組水電股","decorType":"university"},{"id":"way-192060407","lat":25.0149664,"lon":121.5387171,"name":"氣象館","decorType":"university"},{"id":"way-192060423","lat":25.0140483,"lon":121.5389768,"name":"食品科技館","decorType":"university"},{"id":"way-192060460","lat":25.015709,"lon":121.5471838,"name":"生物技術研究中心","decorType":"university"},{"id":"way-192060462","lat":25.0159797,"lon":121.5354832,"name":"未命名大學&學院","decorType":"university"},{"id":"way-192060464","lat":25.0157463,"lon":121.53621,"name":"行政大樓西側平房","decorType":"university"},{"id":"way-192060472","lat":25.0159363,"lon":121.5367938,"name":"第一會議室","decorType":"university"},{"id":"way-192626432","lat":25.0189402,"lon":121.5458198,"name":"未命名大學&學院","decorType":"university"},{"id":"way-192626438","lat":25.0179176,"lon":121.5470887,"name":"土研大樓","decorType":"university"},{"id":"way-192626451","lat":25.0171128,"lon":121.5479087,"name":"地震中心","decorType":"university"},{"id":"way-192637384","lat":25.0114313,"lon":121.5456096,"name":"資源回收場","decorType":"university"},{"id":"way-192637386","lat":25.0118745,"lon":121.5453093,"name":"實驗動物中心","decorType":"university"},{"id":"way-192637397","lat":25.012011,"lon":121.5448035,"name":"環境大樓","decorType":"university"},{"id":"way-192884940","lat":25.0155038,"lon":121.543216,"name":"台大動物醫院","decorType":"university"},{"id":"way-193253432","lat":25.0117709,"lon":121.53785,"name":"未命名橋樑","decorType":"bridge"},{"id":"way-194300396","lat":25.0158602,"lon":121.5381268,"name":"臺大農場農產品展示中心","decorType":"university"},{"id":"way-194580871","lat":25.0207053,"lon":121.5460346,"name":"大安運動中心","decorType":"stadium"},{"id":"way-196535735","lat":25.008222,"lon":121.5359967,"name":"中正堂","decorType":"university"},{"id":"way-196633265","lat":25.0075225,"lon":121.5354076,"name":"理學院大樓A","decorType":"university"},{"id":"way-196634362","lat":25.008686,"lon":121.5352883,"name":"公館校區體育館","decorType":"university"},{"id":"way-196634563","lat":25.0082072,"lon":121.535351,"name":"歐洲公園","decorType":"park"},{"id":"way-197614303","lat":25.008432,"lon":121.5365486,"name":"生態池","decorType":"park"},{"id":"way-198269014","lat":25.0227719,"lon":121.5408695,"name":"敦親公園","decorType":"park"},{"id":"way-202164133","lat":25.0138587,"lon":121.5427596,"name":"學生活動中心","decorType":"university"},{"id":"way-202164501","lat":25.0141738,"lon":121.5432091,"name":"體育館","decorType":"university"},{"id":"way-229193793","lat":25.0110862,"lon":121.5364001,"name":"基隆路高架道路","decorType":"bridge"},{"id":"way-229801684","lat":25.0113915,"lon":121.5373202,"name":"未命名橋樑","decorType":"bridge"},{"id":"way-238689693","lat":25.0105393,"lon":121.5359143,"name":"基隆路高架道路","decorType":"bridge"},{"id":"way-238689696","lat":25.0166516,"lon":121.5437491,"name":"基隆路高架道路","decorType":"bridge"},{"id":"way-249701078","lat":25.0130394,"lon":121.5402199,"name":"國際大樓","decorType":"university"},{"id":"way-249702325","lat":25.0132311,"lon":121.5410809,"name":"行政大樓","decorType":"university"},{"id":"way-263153811","lat":25.0182538,"lon":121.5422728,"name":"獸醫三館","decorType":"university"},{"id":"way-299815318","lat":25.0193172,"lon":121.5416623,"name":"德田館","decorType":"university"},{"id":"way-299815319","lat":25.0153173,"lon":121.5379842,"name":"鹿鳴廣場","decorType":"park"},{"id":"way-299837902","lat":25.0162033,"lon":121.5394228,"name":"舟山路","decorType":"bridge"},{"id":"way-311536360","lat":25.0204126,"lon":121.5423004,"name":"辜振甫先生紀念圖書館","decorType":"library"},{"id":"way-311536532","lat":25.0202605,"lon":121.542512,"name":"未命名公園","decorType":"park"},{"id":"way-312614613","lat":25.0090773,"lon":121.5355277,"name":"未命名橋樑","decorType":"bridge"},{"id":"way-323467344","lat":25.0133488,"lon":121.5421525,"name":"工程一館","decorType":"university"},{"id":"way-323467348","lat":25.014344,"lon":121.5417688,"name":"第一教學大樓","decorType":"university"},{"id":"way-323467350","lat":25.0138763,"lon":121.5417739,"name":"第四教學大樓","decorType":"university"},{"id":"way-323467352","lat":25.0135006,"lon":121.5429062,"name":"第三教學大樓","decorType":"university"},{"id":"way-324901035","lat":25.0226688,"lon":121.5451249,"name":"體育館","decorType":"university"},{"id":"way-324901039","lat":25.0229847,"lon":121.5440866,"name":"創意館","decorType":"university"},{"id":"way-324901040","lat":25.0222269,"lon":121.5442384,"name":"泳健館","decorType":"university"},{"id":"way-324901041","lat":25.0222732,"lon":121.544872,"name":"明德樓","decorType":"university"},{"id":"way-326202541","lat":25.0104231,"lon":121.5358215,"name":"河濱福德宮","decorType":"shrine"},{"id":"way-327217632","lat":25.0155635,"lon":121.5375977,"name":"小木屋鬆餅","decorType":"sweetshop"},{"id":"way-345047186","lat":25.0168878,"lon":121.5367758,"name":"未命名水邊","decorType":"waterside"},{"id":"way-353807591","lat":25.0110398,"lon":121.5376608,"name":"未命名公園","decorType":"park"},{"id":"way-359397573","lat":25.0144963,"lon":121.5374006,"name":"地質標本館","decorType":"art_gallery"},{"id":"way-359804565","lat":25.0130506,"lon":121.5442793,"name":"未命名大學&學院","decorType":"university"},{"id":"way-359804566","lat":25.0135843,"lon":121.5467015,"name":"園藝教學管理研究室","decorType":"university"},{"id":"way-359804568","lat":25.012441,"lon":121.5446598,"name":"未命名大學&學院","decorType":"university"},{"id":"way-359804569","lat":25.0132305,"lon":121.5432895,"name":"台大牧場牛奶工廠","decorType":"university"},{"id":"way-359804570","lat":25.0119251,"lon":121.5457824,"name":"未命名大學&學院","decorType":"university"},{"id":"way-359804574","lat":25.0126812,"lon":121.547787,"name":"農業昆蟲館","decorType":"university"},{"id":"way-359804575","lat":25.0118319,"lon":121.5461845,"name":"翔安大樓","decorType":"university"},{"id":"way-360363438","lat":25.0140455,"lon":121.5416375,"name":"視聽館","decorType":"university"},{"id":"way-365725612","lat":25.0135509,"lon":121.5366622,"name":"伯公亭","decorType":"shrine"},{"id":"way-375697615","lat":25.0078241,"lon":121.5370992,"name":"Zamia","decorType":"park"},{"id":"way-386348289","lat":25.008427,"lon":121.5365806,"name":"未命名水邊","decorType":"waterside"},{"id":"way-404718178","lat":25.0138695,"lon":121.5353306,"name":"未命名公車站","decorType":"bus_stop"},{"id":"way-409000297","lat":25.0217869,"lon":121.5374144,"name":"次震宇宙館","decorType":"university"},{"id":"way-421635834","lat":25.0115681,"lon":121.5404546,"name":"公館公園","decorType":"park"},{"id":"way-421635874","lat":25.0087835,"lon":121.5388412,"name":"未命名公園","decorType":"park"},{"id":"way-426157526","lat":25.0221631,"lon":121.5474735,"name":"下內埔福安宮","decorType":"shrine"},{"id":"way-426157528","lat":25.0215907,"lon":121.545517,"name":"台北和平籃球館","decorType":"stadium"},{"id":"way-452478170","lat":25.0090038,"lon":121.536545,"name":"萬盛溪","decorType":"waterside"},{"id":"way-454017681","lat":25.0129364,"lon":121.5366082,"name":"第二學生活動中心","decorType":"university"},{"id":"way-454017682","lat":25.0138763,"lon":121.5392749,"name":"食品研發大樓","decorType":"university"},{"id":"way-454806745","lat":25.0228774,"lon":121.540598,"name":"未命名公園","decorType":"park"},{"id":"way-456763672","lat":25.0145761,"lon":121.5367134,"name":"展書樓後棟","decorType":"university"},{"id":"way-502865699","lat":25.0145856,"lon":121.5370372,"name":"地質系小屋/薄片室","decorType":"university"},{"id":"way-535165809","lat":25.0216082,"lon":121.5466431,"name":"未命名公園","decorType":"park"},{"id":"way-554778090","lat":25.0104933,"lon":121.5370143,"name":"五月家青年旅舍","decorType":"hotel"},{"id":"way-557838244","lat":25.0135508,"lon":121.5407533,"name":"未命名水邊","decorType":"waterside"},{"id":"way-562776018","lat":25.0151183,"lon":121.5371407,"name":"岩石公園","decorType":"park"},{"id":"way-571750532","lat":25.0146742,"lon":121.5424421,"name":"司令台","decorType":"university"},{"id":"way-578043431","lat":25.0222801,"lon":121.540273,"name":"龍淵里綠地二號公園","decorType":"park"},{"id":"way-584536487","lat":25.0190707,"lon":121.5375341,"name":"瑠公圳原址水道","decorType":"waterside"},{"id":"way-584536491","lat":25.0190081,"lon":121.537526,"name":"未命名橋樑","decorType":"bridge"},{"id":"way-603803111","lat":25.0078233,"lon":121.5369853,"name":"警衛室","decorType":"university"},{"id":"way-603803131","lat":25.0080895,"lon":121.5366027,"name":"公館校區行政大樓","decorType":"university"},{"id":"way-603930824","lat":25.0218508,"lon":121.5479084,"name":"未命名公園","decorType":"park"},{"id":"way-615768526","lat":25.0220899,"lon":121.5482094,"name":"未命名公園","decorType":"park"},{"id":"way-616346341","lat":25.0136232,"lon":121.5431979,"name":"國際會館","decorType":"hotel"},{"id":"way-616346342","lat":25.0119722,"lon":121.5417291,"name":"臺灣建築科技中心","decorType":"university"},{"id":"way-646293060","lat":25.0150423,"lon":121.5427957,"name":"研揚大樓","decorType":"university"},{"id":"way-646301762","lat":25.0142332,"lon":121.5413767,"name":"綜合研究大樓","decorType":"university"},{"id":"way-646382023","lat":25.0137332,"lon":121.5430959,"name":"未命名大學&學院","decorType":"university"},{"id":"way-646382060","lat":25.0118944,"lon":121.5413746,"name":"電資館","decorType":"university"},{"id":"way-646382062","lat":25.0123924,"lon":121.5412578,"name":"管理大樓","decorType":"university"},{"id":"way-646382066","lat":25.0125296,"lon":121.5407173,"name":"工程二館","decorType":"university"},{"id":"way-646382069","lat":25.0120734,"lon":121.5408841,"name":"第二教學大樓","decorType":"university"},{"id":"way-712325728","lat":25.0162646,"lon":121.5425346,"name":"臺大立體機車停車場","decorType":"university"},{"id":"way-712593157","lat":25.0129705,"lon":121.5393469,"name":"基隆路高架道路","decorType":"bridge"},{"id":"way-720453353","lat":25.0136922,"lon":121.5476703,"name":"未命名橋樑","decorType":"bridge"},{"id":"way-720453359","lat":25.0125495,"lon":121.5443052,"name":"動科系","decorType":"university"},{"id":"way-721488131","lat":25.013807,"lon":121.5401697,"name":"基隆路高架道路","decorType":"bridge"},{"id":"way-722218809","lat":25.0130848,"lon":121.5438439,"name":"未命名大學&學院","decorType":"university"},{"id":"way-722218810","lat":25.0128553,"lon":121.5435217,"name":"未命名大學&學院","decorType":"university"},{"id":"way-722218812","lat":25.0133447,"lon":121.5437818,"name":"未命名大學&學院","decorType":"university"},{"id":"way-722218813","lat":25.0134629,"lon":121.5439414,"name":"未命名大學&學院","decorType":"university"},{"id":"way-722218814","lat":25.0136183,"lon":121.5438251,"name":"未命名大學&學院","decorType":"university"},{"id":"way-722218815","lat":25.0135506,"lon":121.5437164,"name":"未命名大學&學院","decorType":"university"},{"id":"way-722218816","lat":25.0126869,"lon":121.5446501,"name":"未命名大學&學院","decorType":"university"},{"id":"way-722218817","lat":25.0125337,"lon":121.54454,"name":"未命名大學&學院","decorType":"university"},{"id":"way-722218818","lat":25.0128181,"lon":121.544225,"name":"未命名大學&學院","decorType":"university"},{"id":"way-813068152","lat":25.0226026,"lon":121.540754,"name":"有求必應堂","decorType":"shrine"},{"id":"way-998182526","lat":25.019805,"lon":121.5397999,"name":"未命名森林","decorType":"forest"},{"id":"way-1026471848","lat":25.0112685,"lon":121.5356487,"name":"未命名橋樑","decorType":"bridge"},{"id":"way-1052244435","lat":25.0200277,"lon":121.5382445,"name":"未命名大學&學院","decorType":"university"},{"id":"way-1052246503","lat":25.0196958,"lon":121.5371497,"name":"未命名山丘","decorType":"mountain"},{"id":"way-1052246504","lat":25.0196822,"lon":121.5371943,"name":"未命名山丘","decorType":"mountain"},{"id":"way-1052252267","lat":25.0201637,"lon":121.5438941,"name":"未命名水邊","decorType":"waterside"},{"id":"way-1052252286","lat":25.020659,"lon":121.5361842,"name":"游泳池","decorType":"university"},{"id":"way-1052252308","lat":25.0197099,"lon":121.5364886,"name":"臺大體育館","decorType":"university"},{"id":"way-1052254387","lat":25.02041,"lon":121.5447477,"name":"未命名公園","decorType":"park"},{"id":"way-1052254388","lat":25.0203187,"lon":121.5441342,"name":"未命名公園","decorType":"park"},{"id":"way-1052254389","lat":25.0203884,"lon":121.5445378,"name":"未命名公園","decorType":"park"},{"id":"way-1052254390","lat":25.0205348,"lon":121.5442011,"name":"未命名公園","decorType":"park"},{"id":"way-1052254391","lat":25.0203641,"lon":121.5443854,"name":"國青大樓","decorType":"university"},{"id":"way-1052254393","lat":25.0199258,"lon":121.5447739,"name":"萬才館","decorType":"university"},{"id":"way-1052261055","lat":25.0186463,"lon":121.5434389,"name":"未命名公園","decorType":"park"},{"id":"way-1052261056","lat":25.0180922,"lon":121.5434417,"name":"未命名公園","decorType":"park"},{"id":"way-1052261057","lat":25.0182316,"lon":121.5433938,"name":"未命名公園","decorType":"park"},{"id":"way-1052261058","lat":25.0183062,"lon":121.5436776,"name":"未命名公園","decorType":"park"},{"id":"way-1052261059","lat":25.0182312,"lon":121.5436205,"name":"未命名公園","decorType":"park"},{"id":"way-1052261060","lat":25.0182764,"lon":121.5435735,"name":"中非大樓","decorType":"university"},{"id":"way-1052261065","lat":25.0188522,"lon":121.5456124,"name":"臺灣大學植物教學醫院","decorType":"university"},{"id":"way-1052271427","lat":25.0182295,"lon":121.5411802,"name":"未命名公園","decorType":"park"},{"id":"way-1052271429","lat":25.0181846,"lon":121.5414356,"name":"未命名公園","decorType":"park"},{"id":"way-1052271430","lat":25.0182724,"lon":121.5414354,"name":"未命名公園","decorType":"park"},{"id":"way-1052271431","lat":25.0182371,"lon":121.5412747,"name":"未命名公園","decorType":"park"},{"id":"way-1052271432","lat":25.0182697,"lon":121.5411579,"name":"未命名公園","decorType":"park"},{"id":"way-1052271433","lat":25.0183662,"lon":121.5411542,"name":"未命名公園","decorType":"park"},{"id":"way-1052271434","lat":25.0183892,"lon":121.5414339,"name":"未命名公園","decorType":"park"},{"id":"way-1052271435","lat":25.0183674,"lon":121.5412732,"name":"未命名公園","decorType":"park"},{"id":"way-1052271436","lat":25.0180819,"lon":121.5410382,"name":"未命名公園","decorType":"park"},{"id":"way-1052271443","lat":25.0176119,"lon":121.5414504,"name":"未命名公園","decorType":"park"},{"id":"way-1052271444","lat":25.0179892,"lon":121.5414502,"name":"未命名公園","decorType":"park"},{"id":"way-1052271446","lat":25.0170136,"lon":121.5410061,"name":"未命名公園","decorType":"park"},{"id":"way-1052271447","lat":25.0169128,"lon":121.5407243,"name":"未命名公園","decorType":"park"},{"id":"way-1052271448","lat":25.0169361,"lon":121.5409353,"name":"未命名公園","decorType":"park"},{"id":"way-1052271450","lat":25.0169966,"lon":121.5406264,"name":"未命名公園","decorType":"park"},{"id":"way-1052271451","lat":25.0169967,"lon":121.5404631,"name":"未命名公園","decorType":"park"},{"id":"way-1052271452","lat":25.0171428,"lon":121.5404588,"name":"未命名公園","decorType":"park"},{"id":"way-1052271453","lat":25.0175069,"lon":121.5403389,"name":"未命名公園","decorType":"park"},{"id":"way-1052271454","lat":25.0171592,"lon":121.5403095,"name":"未命名公園","decorType":"park"},{"id":"way-1052271455","lat":25.0172383,"lon":121.5402542,"name":"未命名公園","decorType":"park"},{"id":"way-1052271456","lat":25.0174373,"lon":121.5402513,"name":"未命名公園","decorType":"park"},{"id":"way-1052271457","lat":25.0174906,"lon":121.5403149,"name":"未命名公園","decorType":"park"},{"id":"way-1052271458","lat":25.0171862,"lon":121.54032,"name":"未命名公園","decorType":"park"},{"id":"way-1052271459","lat":25.0179435,"lon":121.5406758,"name":"未命名公園","decorType":"park"},{"id":"way-1052271460","lat":25.0182926,"lon":121.540755,"name":"農藝館","decorType":"university"},{"id":"way-1052271461","lat":25.0178134,"lon":121.5409084,"name":"未命名公園","decorType":"park"},{"id":"way-1052271462","lat":25.0178815,"lon":121.5409198,"name":"未命名公園","decorType":"park"},{"id":"way-1052271463","lat":25.0178344,"lon":121.5407794,"name":"未命名公園","decorType":"park"},{"id":"way-1052271465","lat":25.0177143,"lon":121.5407682,"name":"未命名公園","decorType":"park"},{"id":"way-1052271466","lat":25.0177002,"lon":121.5406082,"name":"未命名公園","decorType":"park"},{"id":"way-1052271467","lat":25.0176969,"lon":121.5404516,"name":"未命名公園","decorType":"park"},{"id":"way-1052271468","lat":25.0175401,"lon":121.5404526,"name":"未命名公園","decorType":"park"},{"id":"way-1052271470","lat":25.0171492,"lon":121.5406228,"name":"未命名公園","decorType":"park"},{"id":"way-1052271471","lat":25.017545,"lon":121.5406144,"name":"未命名公園","decorType":"park"},{"id":"way-1052273373","lat":25.0178598,"lon":121.5401474,"name":"未命名公園","decorType":"park"},{"id":"way-1052273374","lat":25.0178578,"lon":121.5399714,"name":"未命名公園","decorType":"park"},{"id":"way-1052273375","lat":25.018019,"lon":121.5399316,"name":"未命名公園","decorType":"park"},{"id":"way-1052273377","lat":25.018008,"lon":121.5398786,"name":"未命名公園","decorType":"park"},{"id":"way-1052275371","lat":25.0171849,"lon":121.5392612,"name":"未命名公園","decorType":"park"},{"id":"way-1052275372","lat":25.0174668,"lon":121.5392563,"name":"未命名公園","decorType":"park"},{"id":"way-1052275385","lat":25.0171367,"lon":121.5397665,"name":"未命名公園","decorType":"park"},{"id":"way-1052275386","lat":25.0175255,"lon":121.5397613,"name":"未命名公園","decorType":"park"},{"id":"way-1052279962","lat":25.0177511,"lon":121.5396904,"name":"未命名公園","decorType":"park"},{"id":"way-1052279963","lat":25.0176612,"lon":121.5395598,"name":"未命名公園","decorType":"park"},{"id":"way-1052279968","lat":25.0164491,"lon":121.5403699,"name":"未命名水邊","decorType":"waterside"},{"id":"way-1052279972","lat":25.0168752,"lon":121.5403905,"name":"未命名公園","decorType":"park"},{"id":"way-1052279973","lat":25.0166422,"lon":121.5402805,"name":"未命名公園","decorType":"park"},{"id":"way-1052279974","lat":25.017003,"lon":121.5401229,"name":"未命名公園","decorType":"park"},{"id":"way-1052281784","lat":25.0163543,"lon":121.5391455,"name":"水工試驗所","decorType":"university"},{"id":"way-1052281785","lat":25.0166045,"lon":121.5391372,"name":"水工試驗所舊館","decorType":"university"},{"id":"way-1052281786","lat":25.0168717,"lon":121.5389988,"name":"森林系館","decorType":"university"},{"id":"way-1052281789","lat":25.0164072,"lon":121.539142,"name":"未命名水邊","decorType":"waterside"},{"id":"way-1052288219","lat":25.0151259,"lon":121.5411673,"name":"綠房子","decorType":"university"},{"id":"way-1052288235","lat":25.0157302,"lon":121.5404871,"name":"未命名水邊","decorType":"waterside"},{"id":"way-1052288242","lat":25.0165871,"lon":121.5398001,"name":"未命名大學&學院","decorType":"university"},{"id":"way-1052288243","lat":25.0165852,"lon":121.5397314,"name":"未命名大學&學院","decorType":"university"},{"id":"way-1052288244","lat":25.0166551,"lon":121.5396633,"name":"林產館","decorType":"university"},{"id":"way-1052288246","lat":25.0164967,"lon":121.5396713,"name":"航空測量館","decorType":"university"},{"id":"way-1052293681","lat":25.0161276,"lon":121.5410709,"name":"人工控制氣候室","decorType":"university"},{"id":"way-1052293683","lat":25.0168405,"lon":121.5415271,"name":"未命名森林","decorType":"forest"},{"id":"way-1052293693","lat":25.0166844,"lon":121.5413437,"name":"未命名山丘","decorType":"mountain"},{"id":"way-1052293694","lat":25.0166977,"lon":121.5413793,"name":"未命名山丘","decorType":"mountain"},{"id":"way-1052294782","lat":25.0155353,"lon":121.5415692,"name":"農業試驗場辦公室","decorType":"university"},{"id":"way-1052294783","lat":25.0156333,"lon":121.5413142,"name":"未命名水邊","decorType":"waterside"},{"id":"way-1052294784","lat":25.015688,"lon":121.5412678,"name":"未命名水邊","decorType":"waterside"},{"id":"way-1052301466","lat":25.0173373,"lon":121.5436624,"name":"未命名水邊","decorType":"waterside"},{"id":"way-1052301467","lat":25.0172808,"lon":121.5436073,"name":"納環館","decorType":"university"},{"id":"way-1052301474","lat":25.016623,"lon":121.54216,"name":"聲學實驗室","decorType":"university"},{"id":"way-1052301475","lat":25.0170831,"lon":121.5426783,"name":"工程科學及海洋工程學系館","decorType":"university"},{"id":"way-1052301478","lat":25.0149957,"lon":121.5411672,"name":"未命名水邊","decorType":"waterside"},{"id":"way-1052301480","lat":25.0154124,"lon":121.5417224,"name":"未命名大學&學院","decorType":"university"},{"id":"way-1052301490","lat":25.0160227,"lon":121.5419228,"name":"土壤館","decorType":"university"},{"id":"way-1052301502","lat":25.0157236,"lon":121.5417939,"name":"製冰/麵包廠","decorType":"university"},{"id":"way-1052301503","lat":25.0158934,"lon":121.5416574,"name":"稻香館","decorType":"university"},{"id":"way-1052304739","lat":25.0139072,"lon":121.5444928,"name":"未命名公園","decorType":"park"},{"id":"way-1052304740","lat":25.0139671,"lon":121.5444964,"name":"未命名公園","decorType":"park"},{"id":"way-1052304741","lat":25.0144014,"lon":121.5437927,"name":"未命名公園","decorType":"park"},{"id":"way-1052319752","lat":25.017475,"lon":121.5384218,"name":"未命名公園","decorType":"park"},{"id":"way-1052319753","lat":25.0174722,"lon":121.5382096,"name":"未命名公園","decorType":"park"},{"id":"way-1052319754","lat":25.0173948,"lon":121.5380105,"name":"未命名公園","decorType":"park"},{"id":"way-1052319755","lat":25.0173932,"lon":121.5378767,"name":"未命名公園","decorType":"park"},{"id":"way-1052319756","lat":25.0173918,"lon":121.5377386,"name":"未命名公園","decorType":"park"},{"id":"way-1052319757","lat":25.0173843,"lon":121.5375164,"name":"未命名公園","decorType":"park"},{"id":"way-1052319758","lat":25.0173822,"lon":121.5373254,"name":"未命名公園","decorType":"park"},{"id":"way-1052319759","lat":25.0173802,"lon":121.5371373,"name":"未命名公園","decorType":"park"},{"id":"way-1052319760","lat":25.0173744,"lon":121.5369212,"name":"未命名公園","decorType":"park"},{"id":"way-1052319761","lat":25.0173732,"lon":121.5367684,"name":"未命名公園","decorType":"park"},{"id":"way-1052319762","lat":25.0173712,"lon":121.536615,"name":"未命名公園","decorType":"park"},{"id":"way-1052319763","lat":25.0173681,"lon":121.5363999,"name":"未命名公園","decorType":"park"},{"id":"way-1052319764","lat":25.0173653,"lon":121.5362085,"name":"未命名公園","decorType":"park"},{"id":"way-1052319765","lat":25.0173634,"lon":121.5360232,"name":"未命名公園","decorType":"park"},{"id":"way-1052319766","lat":25.0173583,"lon":121.5357753,"name":"未命名公園","decorType":"park"},{"id":"way-1052319767","lat":25.0173562,"lon":121.5356038,"name":"未命名公園","decorType":"park"},{"id":"way-1052319768","lat":25.0173514,"lon":121.5353117,"name":"未命名公園","decorType":"park"},{"id":"way-1052319775","lat":25.0174011,"lon":121.5353105,"name":"未命名公園","decorType":"park"},{"id":"way-1052319776","lat":25.0174663,"lon":121.536213,"name":"未命名公園","decorType":"park"},{"id":"way-1052319777","lat":25.0174228,"lon":121.535689,"name":"未命名公園","decorType":"park"},{"id":"way-1052319778","lat":25.0174346,"lon":121.5367689,"name":"未命名公園","decorType":"park"},{"id":"way-1052319779","lat":25.0174615,"lon":121.5366195,"name":"未命名公園","decorType":"park"},{"id":"way-1052319780","lat":25.0174677,"lon":121.5369148,"name":"未命名公園","decorType":"park"},{"id":"way-1052319781","lat":25.0174927,"lon":121.5378889,"name":"未命名公園","decorType":"park"},{"id":"way-1052319782","lat":25.0174831,"lon":121.5373268,"name":"未命名公園","decorType":"park"},{"id":"way-1052496698","lat":25.0161308,"lon":121.5443565,"name":"未命名公園","decorType":"park"},{"id":"way-1052496699","lat":25.016163,"lon":121.5446318,"name":"未命名公園","decorType":"park"},{"id":"way-1052496703","lat":25.0156779,"lon":121.5453806,"name":"未命名公園","decorType":"park"},{"id":"way-1052496710","lat":25.0158292,"lon":121.5455292,"name":"未命名公園","decorType":"park"},{"id":"way-1052496711","lat":25.0161747,"lon":121.5441433,"name":"未命名公園","decorType":"park"},{"id":"way-1052496712","lat":25.0168034,"lon":121.5443554,"name":"未命名公園","decorType":"park"},{"id":"way-1052496713","lat":25.0166341,"lon":121.5446415,"name":"未命名公園","decorType":"park"},{"id":"way-1052496715","lat":25.0163496,"lon":121.5440827,"name":"未命名公園","decorType":"park"},{"id":"way-1052496717","lat":25.0164757,"lon":121.5449803,"name":"未命名大學&學院","decorType":"university"},{"id":"way-1052496721","lat":25.0163052,"lon":121.5446553,"name":"未命名公園","decorType":"park"},{"id":"way-1052496729","lat":25.0158875,"lon":121.5448037,"name":"未命名公園","decorType":"park"},{"id":"way-1052496730","lat":25.0160885,"lon":121.544701,"name":"未命名公園","decorType":"park"},{"id":"way-1052496738","lat":25.0163071,"lon":121.5441813,"name":"未命名公園","decorType":"park"},{"id":"way-1052496747","lat":25.0165109,"lon":121.5443069,"name":"未命名公園","decorType":"park"},{"id":"way-1052496748","lat":25.0165003,"lon":121.5442062,"name":"未命名公園","decorType":"park"},{"id":"way-1052496749","lat":25.0165772,"lon":121.5442826,"name":"未命名公園","decorType":"park"},{"id":"way-1052496750","lat":25.0165672,"lon":121.5441966,"name":"未命名公園","decorType":"park"},{"id":"way-1182954806","lat":25.0108348,"lon":121.5357054,"name":"基隆路四段","decorType":"bridge"},{"id":"way-1182954808","lat":25.0107123,"lon":121.5357857,"name":"基隆路四段","decorType":"bridge"},{"id":"way-1182954809","lat":25.0106416,"lon":121.5358068,"name":"福和橋機慢車道","decorType":"bridge"},{"id":"way-1182954810","lat":25.0106245,"lon":121.535839,"name":"未命名橋樑","decorType":"bridge"},{"id":"way-1291566884","lat":25.0151415,"lon":121.5392078,"name":"未命名大學&學院","decorType":"university"},{"id":"way-1291566888","lat":25.0145088,"lon":121.5398099,"name":"自動控溫管理室","decorType":"university"},{"id":"way-1303202939","lat":25.0176994,"lon":121.5400769,"name":"未命名公園","decorType":"park"},{"id":"way-1303517415","lat":25.0185476,"lon":121.5367434,"name":"普通教學館","decorType":"university"},{"id":"way-1303528872","lat":25.0179106,"lon":121.5364992,"name":"未命名公園","decorType":"park"},{"id":"way-1315323592","lat":25.0146042,"lon":121.5431905,"name":"醫揚大樓","decorType":"university"},{"id":"way-1321582119","lat":25.0171829,"lon":121.5351876,"name":"未命名公園","decorType":"park"},{"id":"way-1321582120","lat":25.0171861,"lon":121.5354413,"name":"未命名公園","decorType":"park"},{"id":"way-1321582121","lat":25.0171882,"lon":121.5356082,"name":"未命名公園","decorType":"park"},{"id":"way-1321582122","lat":25.0171903,"lon":121.5357787,"name":"未命名公園","decorType":"park"},{"id":"way-1321582123","lat":25.0171934,"lon":121.5360241,"name":"未命名公園","decorType":"park"},{"id":"way-1321582124","lat":25.0171957,"lon":121.5362123,"name":"未命名公園","decorType":"park"},{"id":"way-1321582125","lat":25.0171981,"lon":121.5364031,"name":"未命名公園","decorType":"park"},{"id":"way-1321582132","lat":25.017089,"lon":121.5356131,"name":"未命名公園","decorType":"park"},{"id":"way-1321582133","lat":25.0170989,"lon":121.5362155,"name":"未命名公園","decorType":"park"},{"id":"way-1321582134","lat":25.0166099,"lon":121.5369075,"name":"未命名公園","decorType":"park"},{"id":"way-1321582135","lat":25.0166061,"lon":121.5366539,"name":"未命名公園","decorType":"park"},{"id":"way-1321582136","lat":25.0164998,"lon":121.537023,"name":"未命名公園","decorType":"park"},{"id":"way-1321582137","lat":25.0165226,"lon":121.5365581,"name":"未命名公園","decorType":"park"},{"id":"way-1321582138","lat":25.0166474,"lon":121.5367799,"name":"未命名公園","decorType":"park"},{"id":"way-1321582139","lat":25.0172081,"lon":121.5369255,"name":"未命名公園","decorType":"park"},{"id":"way-1321582140","lat":25.0172061,"lon":121.5367725,"name":"未命名公園","decorType":"park"},{"id":"way-1321582141","lat":25.0172042,"lon":121.5366195,"name":"未命名公園","decorType":"park"},{"id":"way-1321582142","lat":25.0171257,"lon":121.5366206,"name":"未命名公園","decorType":"park"},{"id":"way-1321582143","lat":25.0168893,"lon":121.5369302,"name":"未命名公園","decorType":"park"},{"id":"way-1321582144","lat":25.0168874,"lon":121.5367773,"name":"未命名公園","decorType":"park"},{"id":"way-1321582145","lat":25.0168854,"lon":121.5366243,"name":"未命名公園","decorType":"park"},{"id":"way-1321582146","lat":25.0171295,"lon":121.5369266,"name":"未命名公園","decorType":"park"},{"id":"way-1321582147","lat":25.0171275,"lon":121.5367737,"name":"未命名公園","decorType":"park"},{"id":"way-1321845983","lat":25.0146586,"lon":121.5355649,"name":"未命名公園","decorType":"park"},{"id":"way-1321851971","lat":25.0164664,"lon":121.535192,"name":"植物標本館","decorType":"university"},{"id":"way-1322072575","lat":25.014285,"lon":121.5369768,"name":"未命名公園","decorType":"park"},{"id":"way-1322090301","lat":25.016025,"lon":121.5377155,"name":"未命名水邊","decorType":"waterside"},{"id":"way-1322106304","lat":25.0141538,"lon":121.5383727,"name":"未命名公園","decorType":"park"},{"id":"way-1322643454","lat":25.0166744,"lon":121.5378126,"name":"未命名水邊","decorType":"waterside"},{"id":"way-1322649991","lat":25.0164728,"lon":121.5387651,"name":"未命名大學&學院","decorType":"university"},{"id":"way-1322649992","lat":25.0161528,"lon":121.5389284,"name":"未命名大學&學院","decorType":"university"},{"id":"way-1322649993","lat":25.016238,"lon":121.5386431,"name":"未命名大學&學院","decorType":"university"},{"id":"way-1322649996","lat":25.0160458,"lon":121.5382199,"name":"未命名大學&學院","decorType":"university"},{"id":"way-1322936718","lat":25.0162651,"lon":121.5391815,"name":"未命名橋樑","decorType":"bridge"},{"id":"way-1322937349","lat":25.0161221,"lon":121.5386195,"name":"農化系土壤環境化學研究室","decorType":"university"},{"id":"way-1322941106","lat":25.0160623,"lon":121.5375064,"name":"未命名橋樑","decorType":"bridge"},{"id":"way-1322942858","lat":25.017141,"lon":121.5387348,"name":"未命名公園","decorType":"park"},{"id":"way-1322942859","lat":25.0171358,"lon":121.5383209,"name":"未命名公園","decorType":"park"},{"id":"way-1322942860","lat":25.0171212,"lon":121.5378807,"name":"未命名公園","decorType":"park"},{"id":"way-1322942861","lat":25.017113,"lon":121.5373316,"name":"未命名公園","decorType":"park"},{"id":"way-1322944311","lat":25.0164147,"lon":121.5372399,"name":"未命名公園","decorType":"park"},{"id":"way-1322944312","lat":25.0164975,"lon":121.5372352,"name":"未命名公園","decorType":"park"},{"id":"way-1322944313","lat":25.0165867,"lon":121.5372337,"name":"未命名公園","decorType":"park"},{"id":"way-1322944314","lat":25.0168773,"lon":121.5362694,"name":"未命名公園","decorType":"park"},{"id":"way-1322944315","lat":25.0169367,"lon":121.5379482,"name":"未命名公園","decorType":"park"},{"id":"way-1322944317","lat":25.0168252,"lon":121.5373005,"name":"未命名公園","decorType":"park"},{"id":"way-1322946978","lat":25.0169676,"lon":121.5391978,"name":"未命名公園","decorType":"park"},{"id":"way-1322946980","lat":25.0169672,"lon":121.5387842,"name":"未命名公園","decorType":"park"},{"id":"way-1322954565","lat":25.0169887,"lon":121.5396014,"name":"未命名公園","decorType":"park"},{"id":"way-1322954566","lat":25.0169377,"lon":121.5394908,"name":"未命名公園","decorType":"park"},{"id":"way-1323117936","lat":25.0140576,"lon":121.5387947,"name":"未命名公園","decorType":"park"},{"id":"way-1323117937","lat":25.013837,"lon":121.5389731,"name":"未命名公園","decorType":"park"},{"id":"way-1323117944","lat":25.0146507,"lon":121.5383888,"name":"未命名公園","decorType":"park"},{"id":"way-1323117945","lat":25.0147522,"lon":121.5383155,"name":"未命名公園","decorType":"park"},{"id":"way-1323117946","lat":25.014863,"lon":121.5381203,"name":"未命名公園","decorType":"park"},{"id":"way-1323117947","lat":25.0146763,"lon":121.5382707,"name":"未命名公園","decorType":"park"},{"id":"way-1323117948","lat":25.0149856,"lon":121.5381503,"name":"未命名公園","decorType":"park"},{"id":"way-1323117949","lat":25.014886,"lon":121.5382604,"name":"未命名公園","decorType":"park"},{"id":"way-1323119157","lat":25.0147363,"lon":121.5390059,"name":"未命名公園","decorType":"park"},{"id":"way-1323125044","lat":25.0139963,"lon":121.538476,"name":"未命名公園","decorType":"park"},{"id":"way-1323125045","lat":25.0139361,"lon":121.5386409,"name":"未命名公園","decorType":"park"},{"id":"way-1323125046","lat":25.0139735,"lon":121.5386966,"name":"未命名公園","decorType":"park"},{"id":"way-1323125047","lat":25.0140687,"lon":121.538619,"name":"未命名公園","decorType":"park"},{"id":"way-1323125051","lat":25.0136672,"lon":121.5388869,"name":"未命名公園","decorType":"park"},{"id":"way-1323125053","lat":25.0139691,"lon":121.5400405,"name":"未命名公園","decorType":"park"},{"id":"way-1323126651","lat":25.0153247,"lon":121.5389448,"name":"未命名公園","decorType":"park"},{"id":"way-1323127823","lat":25.0155372,"lon":121.5391523,"name":"未命名公園","decorType":"park"},{"id":"way-1323127824","lat":25.0156364,"lon":121.5389877,"name":"未命名公園","decorType":"park"},{"id":"way-1323127825","lat":25.0156594,"lon":121.5391391,"name":"未命名公園","decorType":"park"},{"id":"way-1323127827","lat":25.0157037,"lon":121.5384818,"name":"未命名公園","decorType":"park"},{"id":"way-1323127828","lat":25.0157814,"lon":121.5386624,"name":"未命名公園","decorType":"park"},{"id":"way-1323128283","lat":25.015401,"lon":121.5383083,"name":"未命名公園","decorType":"park"},{"id":"way-1323128429","lat":25.0135666,"lon":121.538799,"name":"雅頌廣場","decorType":"park"},{"id":"way-1323132732","lat":25.0152807,"lon":121.5361128,"name":"未命名公園","decorType":"park"},{"id":"way-1323132733","lat":25.0152571,"lon":121.5360045,"name":"未命名公園","decorType":"park"},{"id":"way-1323132734","lat":25.0153182,"lon":121.5359537,"name":"未命名公園","decorType":"park"},{"id":"way-1323134624","lat":25.0149813,"lon":121.5363558,"name":"未命名公園","decorType":"park"},{"id":"way-1323134625","lat":25.0155079,"lon":121.5363816,"name":"未命名公園","decorType":"park"},{"id":"way-1323145791","lat":25.0137559,"lon":121.5362359,"name":"未命名公園","decorType":"park"},{"id":"way-1323146434","lat":25.0141738,"lon":121.5365263,"name":"未命名公園","decorType":"park"},{"id":"way-1323150698","lat":25.0143238,"lon":121.5375284,"name":"未命名公園","decorType":"park"},{"id":"way-1323150699","lat":25.0142533,"lon":121.5375858,"name":"未命名公園","decorType":"park"},{"id":"way-1323150700","lat":25.0145875,"lon":121.5375918,"name":"未命名公園","decorType":"park"},{"id":"way-1323152474","lat":25.0147593,"lon":121.5362126,"name":"未命名水邊","decorType":"waterside"},{"id":"way-1323196763","lat":25.018435,"lon":121.5373536,"name":"未命名公園","decorType":"park"},{"id":"way-1323196793","lat":25.0177156,"lon":121.5360112,"name":"未命名水邊","decorType":"waterside"},{"id":"way-1323198013","lat":25.0189627,"lon":121.5372031,"name":"未命名公園","decorType":"park"},{"id":"way-1323198014","lat":25.0190801,"lon":121.5370032,"name":"未命名公園","decorType":"park"},{"id":"way-1323198015","lat":25.0190756,"lon":121.5367177,"name":"未命名公園","decorType":"park"},{"id":"way-1323198016","lat":25.0190714,"lon":121.5364573,"name":"未命名公園","decorType":"park"},{"id":"way-1323198017","lat":25.0190658,"lon":121.536095,"name":"未命名公園","decorType":"park"},{"id":"way-1323198018","lat":25.0187513,"lon":121.5366993,"name":"未命名公園","decorType":"park"},{"id":"way-1323198019","lat":25.0187693,"lon":121.5369508,"name":"未命名公園","decorType":"park"},{"id":"way-1323198020","lat":25.0187701,"lon":121.5364395,"name":"未命名公園","decorType":"park"},{"id":"way-1323198021","lat":25.0186701,"lon":121.5372317,"name":"未命名公園","decorType":"park"},{"id":"way-1323198022","lat":25.0186708,"lon":121.5370419,"name":"未命名公園","decorType":"park"},{"id":"way-1323198023","lat":25.0186759,"lon":121.5367044,"name":"未命名公園","decorType":"park"},{"id":"way-1323198024","lat":25.0186644,"lon":121.5364458,"name":"未命名公園","decorType":"park"},{"id":"way-1323206829","lat":25.0195205,"lon":121.5385508,"name":"未命名公園","decorType":"park"},{"id":"way-1323206831","lat":25.0194375,"lon":121.5383412,"name":"未命名公園","decorType":"park"},{"id":"way-1323207892","lat":25.0184783,"lon":121.5382355,"name":"未命名公園","decorType":"park"},{"id":"way-1323207893","lat":25.0186896,"lon":121.5377478,"name":"未命名公園","decorType":"park"},{"id":"way-1323207896","lat":25.0185316,"lon":121.5387234,"name":"未命名公園","decorType":"park"},{"id":"way-1323207897","lat":25.0184797,"lon":121.5383582,"name":"未命名公園","decorType":"park"},{"id":"way-1323207898","lat":25.0186511,"lon":121.5382015,"name":"未命名公園","decorType":"park"},{"id":"way-1323207899","lat":25.0188953,"lon":121.5388107,"name":"未命名公園","decorType":"park"},{"id":"way-1323207900","lat":25.0186592,"lon":121.5388148,"name":"未命名公園","decorType":"park"},{"id":"way-1323207901","lat":25.0188505,"lon":121.5386179,"name":"未命名公園","decorType":"park"},{"id":"way-1323207902","lat":25.0189606,"lon":121.5382238,"name":"未命名公園","decorType":"park"},{"id":"way-1323213361","lat":25.0199651,"lon":121.5386122,"name":"未命名公園","decorType":"park"},{"id":"way-1323213362","lat":25.0199929,"lon":121.5388286,"name":"未命名公園","decorType":"park"},{"id":"way-1323213363","lat":25.0201408,"lon":121.538827,"name":"未命名公園","decorType":"park"},{"id":"way-1323214006","lat":25.0196528,"lon":121.5388341,"name":"未命名公園","decorType":"park"},{"id":"way-1323214007","lat":25.0197221,"lon":121.5388305,"name":"未命名公園","decorType":"park"},{"id":"way-1323214008","lat":25.0198341,"lon":121.5388282,"name":"未命名公園","decorType":"park"},{"id":"way-1323220631","lat":25.020767,"lon":121.5400158,"name":"未命名公園","decorType":"park"},{"id":"way-1323220632","lat":25.0207631,"lon":121.5396732,"name":"未命名公園","decorType":"park"},{"id":"way-1323232225","lat":25.0221201,"lon":121.5367049,"name":"未命名公園","decorType":"park"},{"id":"way-1323232226","lat":25.021886,"lon":121.5370315,"name":"未命名公園","decorType":"park"},{"id":"way-1323232227","lat":25.021958,"lon":121.5362466,"name":"未命名公園","decorType":"park"},{"id":"way-1323232228","lat":25.0219791,"lon":121.5365761,"name":"未命名公園","decorType":"park"},{"id":"way-1323236763","lat":25.0215562,"lon":121.5357552,"name":"未命名橋樑","decorType":"bridge"},{"id":"way-1323236765","lat":25.0217338,"lon":121.5357522,"name":"未命名橋樑","decorType":"bridge"},{"id":"way-1323236779","lat":25.0221017,"lon":121.5358126,"name":"未命名公園","decorType":"park"},{"id":"way-1323353775","lat":25.0186948,"lon":121.5399192,"name":"未命名公園","decorType":"park"},{"id":"way-1323353776","lat":25.0185722,"lon":121.5397024,"name":"未命名公園","decorType":"park"},{"id":"way-1323353777","lat":25.0185726,"lon":121.5397493,"name":"未命名公園","decorType":"park"},{"id":"way-1323353778","lat":25.0185729,"lon":121.5397938,"name":"未命名公園","decorType":"park"},{"id":"way-1323353779","lat":25.0186175,"lon":121.5397931,"name":"未命名公園","decorType":"park"},{"id":"way-1323353780","lat":25.0186179,"lon":121.5398382,"name":"未命名公園","decorType":"park"},{"id":"way-1323353781","lat":25.0186184,"lon":121.5398813,"name":"未命名公園","decorType":"park"},{"id":"way-1323353782","lat":25.0186168,"lon":121.5397017,"name":"未命名公園","decorType":"park"},{"id":"way-1323353783","lat":25.0186172,"lon":121.5397488,"name":"未命名公園","decorType":"park"},{"id":"way-1323353784","lat":25.0185734,"lon":121.5398378,"name":"未命名公園","decorType":"park"},{"id":"way-1323353785","lat":25.0185737,"lon":121.539885,"name":"未命名公園","decorType":"park"},{"id":"way-1323353786","lat":25.0186187,"lon":121.53992,"name":"未命名公園","decorType":"park"},{"id":"way-1323353787","lat":25.0185741,"lon":121.5399204,"name":"未命名公園","decorType":"park"},{"id":"way-1323353788","lat":25.0192982,"lon":121.5398666,"name":"未命名公園","decorType":"park"},{"id":"way-1323353789","lat":25.0192949,"lon":121.5394667,"name":"未命名公園","decorType":"park"},{"id":"way-1323353790","lat":25.0181112,"lon":121.5391398,"name":"未命名水邊","decorType":"waterside"},{"id":"way-1323353791","lat":25.0183002,"lon":121.5391377,"name":"未命名水邊","decorType":"waterside"},{"id":"way-1323353794","lat":25.0185291,"lon":121.5395204,"name":"未命名公園","decorType":"park"},{"id":"way-1323353795","lat":25.0191125,"lon":121.539175,"name":"未命名公園","decorType":"park"},{"id":"way-1323353800","lat":25.0186718,"lon":121.5392559,"name":"未命名公園","decorType":"park"},{"id":"way-1323353815","lat":25.0188932,"lon":121.5394715,"name":"未命名公園","decorType":"park"},{"id":"way-1323354043","lat":25.0187109,"lon":121.5404886,"name":"未命名公園","decorType":"park"},{"id":"way-1323354044","lat":25.0188186,"lon":121.5404059,"name":"未命名公園","decorType":"park"},{"id":"way-1323354045","lat":25.0187175,"lon":121.5403432,"name":"未命名公園","decorType":"park"},{"id":"way-1323354046","lat":25.0186651,"lon":121.5404156,"name":"未命名公園","decorType":"park"},{"id":"way-1323354047","lat":25.0185453,"lon":121.5402896,"name":"未命名公園","decorType":"park"},{"id":"way-1323354048","lat":25.018807,"lon":121.5403051,"name":"未命名公園","decorType":"park"},{"id":"way-1323354049","lat":25.0188366,"lon":121.5400023,"name":"未命名公園","decorType":"park"},{"id":"way-1323354050","lat":25.0187773,"lon":121.5400322,"name":"未命名公園","decorType":"park"},{"id":"way-1323355606","lat":25.0200762,"lon":121.5396638,"name":"未命名公園","decorType":"park"},{"id":"way-1323355607","lat":25.0200677,"lon":121.5397027,"name":"未命名公園","decorType":"park"},{"id":"way-1323355608","lat":25.0202078,"lon":121.5392984,"name":"未命名公園","decorType":"park"},{"id":"way-1323355610","lat":25.0194852,"lon":121.5393726,"name":"未命名公園","decorType":"park"},{"id":"way-1323355611","lat":25.0195651,"lon":121.5393873,"name":"未命名公園","decorType":"park"},{"id":"way-1323355612","lat":25.0197545,"lon":121.5392594,"name":"未命名公園","decorType":"park"},{"id":"way-1323355613","lat":25.0198232,"lon":121.5392513,"name":"未命名公園","decorType":"park"},{"id":"way-1323355614","lat":25.0197409,"lon":121.5394731,"name":"未命名公園","decorType":"park"},{"id":"way-1323355615","lat":25.0198275,"lon":121.5394897,"name":"未命名公園","decorType":"park"},{"id":"way-1323355616","lat":25.0199741,"lon":121.5396388,"name":"未命名公園","decorType":"park"},{"id":"way-1323355617","lat":25.0199661,"lon":121.5393019,"name":"未命名公園","decorType":"park"},{"id":"way-1323358368","lat":25.0199376,"lon":121.5408237,"name":"未命名公園","decorType":"park"},{"id":"way-1323358369","lat":25.0197057,"lon":121.5408275,"name":"未命名公園","decorType":"park"},{"id":"way-1323358386","lat":25.0187712,"lon":121.5396073,"name":"宗倬章館","decorType":"university"},{"id":"way-1323358387","lat":25.0190464,"lon":121.5395884,"name":"機械系館","decorType":"university"},{"id":"way-1323366412","lat":25.0205653,"lon":121.5410982,"name":"未命名公園","decorType":"park"},{"id":"way-1323366413","lat":25.0207018,"lon":121.5411007,"name":"未命名公園","decorType":"park"},{"id":"way-1323366414","lat":25.0204198,"lon":121.5410057,"name":"未命名公園","decorType":"park"},{"id":"way-1323366415","lat":25.0203891,"lon":121.5405072,"name":"未命名公園","decorType":"park"},{"id":"way-1323366416","lat":25.0203781,"lon":121.5407707,"name":"未命名公園","decorType":"park"},{"id":"way-1323366417","lat":25.0203925,"lon":121.5401056,"name":"未命名公園","decorType":"park"},{"id":"way-1323367196","lat":25.0202699,"lon":121.539615,"name":"未命名公園","decorType":"park"},{"id":"way-1323367197","lat":25.02024,"lon":121.5408759,"name":"未命名公園","decorType":"park"},{"id":"way-1323367198","lat":25.0203077,"lon":121.5407331,"name":"未命名公園","decorType":"park"},{"id":"way-1323367199","lat":25.0203234,"lon":121.5400901,"name":"未命名公園","decorType":"park"},{"id":"way-1323367200","lat":25.0203407,"lon":121.5394108,"name":"未命名公園","decorType":"park"},{"id":"way-1323367201","lat":25.0202526,"lon":121.5403625,"name":"未命名公園","decorType":"park"},{"id":"way-1323367296","lat":25.0203826,"lon":121.5405878,"name":"未命名水邊","decorType":"waterside"},{"id":"way-1323367897","lat":25.0205254,"lon":121.5398764,"name":"未命名公園","decorType":"park"},{"id":"way-1323367898","lat":25.0205344,"lon":121.5398043,"name":"未命名公園","decorType":"park"},{"id":"way-1323368721","lat":25.0204054,"lon":121.5419904,"name":"未命名公園","decorType":"park"},{"id":"way-1323368722","lat":25.0205758,"lon":121.5419929,"name":"未命名公園","decorType":"park"},{"id":"way-1323368723","lat":25.0202392,"lon":121.5423863,"name":"未命名水邊","decorType":"waterside"},{"id":"way-1323370671","lat":25.0204557,"lon":121.5425669,"name":"未命名水邊","decorType":"waterside"},{"id":"way-1323370672","lat":25.0205166,"lon":121.5425749,"name":"未命名水邊","decorType":"waterside"},{"id":"way-1323370673","lat":25.0203796,"lon":121.5425731,"name":"未命名水邊","decorType":"waterside"},{"id":"way-1323370674","lat":25.0201984,"lon":121.5421043,"name":"未命名水邊","decorType":"waterside"},{"id":"way-1323370675","lat":25.0201863,"lon":121.5421552,"name":"未命名水邊","decorType":"waterside"},{"id":"way-1323370676","lat":25.0205644,"lon":121.5425737,"name":"未命名水邊","decorType":"waterside"},{"id":"way-1323370677","lat":25.0205972,"lon":121.5425715,"name":"未命名水邊","decorType":"waterside"},{"id":"way-1323370678","lat":25.0206276,"lon":121.5425817,"name":"未命名水邊","decorType":"waterside"},{"id":"way-1323370679","lat":25.0205879,"lon":121.5426025,"name":"未命名公園","decorType":"park"},{"id":"way-1323370680","lat":25.0205299,"lon":121.5426538,"name":"未命名公園","decorType":"park"},{"id":"way-1323370681","lat":25.0204641,"lon":121.5425984,"name":"未命名公園","decorType":"park"},{"id":"way-1323370682","lat":25.0204107,"lon":121.5426318,"name":"未命名公園","decorType":"park"},{"id":"way-1323370683","lat":25.0203611,"lon":121.5426269,"name":"未命名公園","decorType":"park"},{"id":"way-1323370684","lat":25.0203102,"lon":121.5425938,"name":"未命名公園","decorType":"park"},{"id":"way-1323370685","lat":25.0202387,"lon":121.5426347,"name":"未命名公園","decorType":"park"},{"id":"way-1323370686","lat":25.0201677,"lon":121.5425921,"name":"未命名公園","decorType":"park"},{"id":"way-1323370687","lat":25.0201615,"lon":121.5423998,"name":"未命名公園","decorType":"park"},{"id":"way-1323370688","lat":25.0201152,"lon":121.5424977,"name":"未命名公園","decorType":"park"},{"id":"way-1323370689","lat":25.0201313,"lon":121.5423503,"name":"未命名公園","decorType":"park"},{"id":"way-1323370690","lat":25.0201651,"lon":121.5422809,"name":"未命名公園","decorType":"park"},{"id":"way-1323370691","lat":25.0201731,"lon":121.5421813,"name":"未命名公園","decorType":"park"},{"id":"way-1323370692","lat":25.020415,"lon":121.542033,"name":"未命名水邊","decorType":"waterside"},{"id":"way-1323370693","lat":25.0201743,"lon":121.5420508,"name":"未命名公園","decorType":"park"},{"id":"way-1323370694","lat":25.0206353,"lon":121.5421006,"name":"未命名水邊","decorType":"waterside"},{"id":"way-1323370695","lat":25.0206404,"lon":121.5421695,"name":"未命名水邊","decorType":"waterside"},{"id":"way-1323370696","lat":25.0206328,"lon":121.5422521,"name":"未命名水邊","decorType":"waterside"},{"id":"way-1323370697","lat":25.0206311,"lon":121.5423446,"name":"未命名水邊","decorType":"waterside"},{"id":"way-1323370698","lat":25.0206306,"lon":121.5424045,"name":"未命名水邊","decorType":"waterside"},{"id":"way-1323370699","lat":25.0206288,"lon":121.5424467,"name":"未命名水邊","decorType":"waterside"},{"id":"way-1323370700","lat":25.0206285,"lon":121.5425155,"name":"未命名水邊","decorType":"waterside"},{"id":"way-1323370701","lat":25.0201703,"lon":121.5421123,"name":"未命名公園","decorType":"park"},{"id":"way-1323370702","lat":25.020269,"lon":121.5420069,"name":"未命名公園","decorType":"park"},{"id":"way-1323372999","lat":25.0203123,"lon":121.5426585,"name":"未命名公園","decorType":"park"},{"id":"way-1323373000","lat":25.0203824,"lon":121.5427185,"name":"未命名公園","decorType":"park"},{"id":"way-1323373001","lat":25.0204471,"lon":121.542775,"name":"未命名公園","decorType":"park"},{"id":"way-1323373002","lat":25.0204702,"lon":121.5426834,"name":"未命名公園","decorType":"park"},{"id":"way-1323373003","lat":25.0201394,"lon":121.5427034,"name":"未命名公園","decorType":"park"},{"id":"way-1323373005","lat":25.0199758,"lon":121.5429403,"name":"未命名公園","decorType":"park"},{"id":"way-1323373007","lat":25.0203895,"lon":121.5429433,"name":"未命名公園","decorType":"park"},{"id":"way-1323373016","lat":25.0205827,"lon":121.5429545,"name":"未命名公園","decorType":"park"},{"id":"way-1323373017","lat":25.0206091,"lon":121.5427089,"name":"未命名公園","decorType":"park"},{"id":"way-1323373657","lat":25.0204691,"lon":121.5418842,"name":"未命名公園","decorType":"park"},{"id":"way-1323373658","lat":25.0205553,"lon":121.5419021,"name":"未命名公園","decorType":"park"},{"id":"way-1323373659","lat":25.0200575,"lon":121.541961,"name":"未命名公園","decorType":"park"},{"id":"way-1323373660","lat":25.0201835,"lon":121.5419892,"name":"未命名公園","decorType":"park"},{"id":"way-1323373661","lat":25.0201421,"lon":121.541988,"name":"未命名公園","decorType":"park"},{"id":"way-1323373662","lat":25.0201358,"lon":121.5420589,"name":"未命名公園","decorType":"park"},{"id":"way-1323373663","lat":25.0201122,"lon":121.5421348,"name":"未命名公園","decorType":"park"},{"id":"way-1323373664","lat":25.0201021,"lon":121.5422776,"name":"未命名公園","decorType":"park"},{"id":"way-1323373665","lat":25.0199991,"lon":121.5421045,"name":"未命名公園","decorType":"park"},{"id":"way-1323373666","lat":25.0199399,"lon":121.5419897,"name":"未命名公園","decorType":"park"},{"id":"way-1323373667","lat":25.0199463,"lon":121.5422598,"name":"未命名公園","decorType":"park"},{"id":"way-1323373668","lat":25.0199581,"lon":121.5424538,"name":"未命名公園","decorType":"park"},{"id":"way-1323373669","lat":25.0199941,"lon":121.5426464,"name":"未命名公園","decorType":"park"},{"id":"way-1323376159","lat":25.0206313,"lon":121.5418903,"name":"未命名公園","decorType":"park"},{"id":"way-1323376161","lat":25.0203374,"lon":121.5419098,"name":"未命名公園","decorType":"park"},{"id":"way-1323376162","lat":25.0203973,"lon":121.5418595,"name":"未命名公園","decorType":"park"},{"id":"way-1323376163","lat":25.0200886,"lon":121.5420344,"name":"未命名水邊","decorType":"waterside"},{"id":"way-1323376164","lat":25.0201617,"lon":121.5419217,"name":"未命名水邊","decorType":"waterside"},{"id":"way-1323376174","lat":25.0202483,"lon":121.5419125,"name":"未命名公園","decorType":"park"},{"id":"way-1323376175","lat":25.0202316,"lon":121.5419768,"name":"未命名公園","decorType":"park"},{"id":"way-1323376176","lat":25.0202956,"lon":121.541973,"name":"未命名公園","decorType":"park"},{"id":"way-1323376177","lat":25.0204078,"lon":121.5419197,"name":"未命名公園","decorType":"park"},{"id":"way-1323376178","lat":25.0204758,"lon":121.5419476,"name":"未命名公園","decorType":"park"},{"id":"way-1323378342","lat":25.0206448,"lon":121.5416608,"name":"未命名公園","decorType":"park"},{"id":"way-1323378343","lat":25.0208429,"lon":121.5414283,"name":"未命名公園","decorType":"park"},{"id":"way-1323378344","lat":25.0206957,"lon":121.5414513,"name":"未命名公園","decorType":"park"},{"id":"way-1323384214","lat":25.0206934,"lon":121.543344,"name":"未命名公園","decorType":"park"},{"id":"way-1323384215","lat":25.0208577,"lon":121.5433462,"name":"未命名公園","decorType":"park"},{"id":"way-1323386325","lat":25.019874,"lon":121.5429797,"name":"未命名公園","decorType":"park"},{"id":"way-1323386326","lat":25.0192866,"lon":121.5432323,"name":"未命名公園","decorType":"park"},{"id":"way-1323386327","lat":25.0195634,"lon":121.5432371,"name":"未命名公園","decorType":"park"},{"id":"way-1323386328","lat":25.020022,"lon":121.5432451,"name":"未命名公園","decorType":"park"},{"id":"way-1323386329","lat":25.0203231,"lon":121.5432502,"name":"未命名公園","decorType":"park"},{"id":"way-1323386330","lat":25.0205415,"lon":121.5432539,"name":"未命名公園","decorType":"park"},{"id":"way-1323386331","lat":25.0197873,"lon":121.5429824,"name":"未命名公園","decorType":"park"},{"id":"way-1323386332","lat":25.0207445,"lon":121.5432501,"name":"未命名公園","decorType":"park"},{"id":"way-1323391058","lat":25.0206075,"lon":121.5441828,"name":"未命名公園","decorType":"park"},{"id":"way-1323393754","lat":25.0196503,"lon":121.5429487,"name":"未命名公園","decorType":"park"},{"id":"way-1323402839","lat":25.020036,"lon":121.5413157,"name":"未命名公園","decorType":"park"},{"id":"way-1323402840","lat":25.0203646,"lon":121.5413094,"name":"未命名公園","decorType":"park"},{"id":"way-1323402841","lat":25.0206087,"lon":121.5412975,"name":"未命名公園","decorType":"park"},{"id":"way-1323402842","lat":25.0192367,"lon":121.5413279,"name":"未命名公園","decorType":"park"},{"id":"way-1323402843","lat":25.0195943,"lon":121.5413211,"name":"未命名公園","decorType":"park"},{"id":"way-1323402844","lat":25.0189,"lon":121.5413375,"name":"未命名公園","decorType":"park"},{"id":"way-1323402845","lat":25.0186567,"lon":121.5413421,"name":"未命名公園","decorType":"park"},{"id":"way-1323438726","lat":25.0175246,"lon":121.543322,"name":"未命名公園","decorType":"park"},{"id":"way-1323447404","lat":25.0183338,"lon":121.5414347,"name":"未命名公園","decorType":"park"},{"id":"way-1323447416","lat":25.0178751,"lon":121.5437453,"name":"未命名公園","decorType":"park"},{"id":"way-1323447417","lat":25.0177916,"lon":121.5437359,"name":"未命名公園","decorType":"park"},{"id":"way-1323447418","lat":25.0180946,"lon":121.5442691,"name":"未命名公園","decorType":"park"},{"id":"way-1323449503","lat":25.0191372,"lon":121.5420029,"name":"未命名公園","decorType":"park"},{"id":"way-1323449504","lat":25.0191484,"lon":121.5423976,"name":"未命名公園","decorType":"park"},{"id":"way-1323449919","lat":25.0187549,"lon":121.5429404,"name":"未命名公園","decorType":"park"},{"id":"way-1323449920","lat":25.0187485,"lon":121.5428127,"name":"未命名公園","decorType":"park"},{"id":"way-1323449921","lat":25.0187671,"lon":121.542715,"name":"未命名公園","decorType":"park"},{"id":"way-1323449922","lat":25.0185746,"lon":121.542825,"name":"未命名公園","decorType":"park"},{"id":"way-1323449923","lat":25.0185793,"lon":121.542958,"name":"未命名公園","decorType":"park"},{"id":"way-1323449924","lat":25.0185792,"lon":121.5426745,"name":"未命名公園","decorType":"park"},{"id":"way-1323452537","lat":25.0175359,"lon":121.5434149,"name":"未命名公園","decorType":"park"},{"id":"way-1323452538","lat":25.0176298,"lon":121.5435258,"name":"未命名公園","decorType":"park"},{"id":"way-1323452546","lat":25.0175999,"lon":121.5433499,"name":"未命名公園","decorType":"park"},{"id":"way-1323452547","lat":25.0175923,"lon":121.5433729,"name":"未命名公園","decorType":"park"},{"id":"way-1323452548","lat":25.0176413,"lon":121.5433242,"name":"未命名公園","decorType":"park"},{"id":"way-1323452549","lat":25.0175278,"lon":121.5437003,"name":"未命名公園","decorType":"park"},{"id":"way-1323453334","lat":25.0171361,"lon":121.5418889,"name":"未命名公園","decorType":"park"},{"id":"way-1323453335","lat":25.0169153,"lon":121.5414247,"name":"未命名公園","decorType":"park"},{"id":"way-1323453336","lat":25.0169577,"lon":121.5413888,"name":"未命名公園","decorType":"park"},{"id":"way-1323453337","lat":25.0165463,"lon":121.5403892,"name":"未命名公園","decorType":"park"},{"id":"way-1323453338","lat":25.0166774,"lon":121.5407359,"name":"未命名公園","decorType":"park"},{"id":"way-1323582017","lat":25.0184901,"lon":121.5356155,"name":"未命名公園","decorType":"park"},{"id":"way-1323582018","lat":25.018474,"lon":121.5352875,"name":"未命名公園","decorType":"park"},{"id":"way-1323582019","lat":25.0184875,"lon":121.5354642,"name":"未命名公園","decorType":"park"},{"id":"way-1323584507","lat":25.0186876,"lon":121.5357528,"name":"未命名橋樑","decorType":"bridge"},{"id":"way-1323642023","lat":25.0166731,"lon":121.5356747,"name":"未命名公園","decorType":"park"},{"id":"way-1323645086","lat":25.0156447,"lon":121.5356244,"name":"未命名公園","decorType":"park"},{"id":"way-1323645087","lat":25.0156408,"lon":121.5356839,"name":"未命名公園","decorType":"park"},{"id":"way-1323645088","lat":25.0156303,"lon":121.5354259,"name":"未命名公園","decorType":"park"},{"id":"way-1323677377","lat":25.0178401,"lon":121.5397002,"name":"陳文成事件紀念廣場","decorType":"park"},{"id":"way-1323680520","lat":25.0172353,"lon":121.538855,"name":"未命名公園","decorType":"park"},{"id":"way-1323680521","lat":25.0172336,"lon":121.5387348,"name":"未命名公園","decorType":"park"},{"id":"way-1323680522","lat":25.017232,"lon":121.538615,"name":"未命名公園","decorType":"park"},{"id":"way-1323680523","lat":25.0172295,"lon":121.5384349,"name":"未命名公園","decorType":"park"},{"id":"way-1323680524","lat":25.0172279,"lon":121.5383173,"name":"未命名公園","decorType":"park"},{"id":"way-1323680525","lat":25.0172263,"lon":121.5382008,"name":"未命名公園","decorType":"park"},{"id":"way-1323680526","lat":25.0172237,"lon":121.5380128,"name":"未命名公園","decorType":"park"},{"id":"way-1323680527","lat":25.0172219,"lon":121.5378789,"name":"未命名公園","decorType":"park"},{"id":"way-1323680528","lat":25.0172201,"lon":121.537743,"name":"未命名公園","decorType":"park"},{"id":"way-1323680529","lat":25.0172169,"lon":121.5375196,"name":"未命名公園","decorType":"park"},{"id":"way-1323680530","lat":25.0172143,"lon":121.537329,"name":"未命名公園","decorType":"park"},{"id":"way-1323680531","lat":25.0172118,"lon":121.5371413,"name":"未命名公園","decorType":"park"},{"id":"way-1323680532","lat":25.0174049,"lon":121.5388517,"name":"未命名公園","decorType":"park"},{"id":"way-1323680533","lat":25.0174034,"lon":121.5387322,"name":"未命名公園","decorType":"park"},{"id":"way-1323680534","lat":25.0174017,"lon":121.5386124,"name":"未命名公園","decorType":"park"},{"id":"way-1323680535","lat":25.0173985,"lon":121.5384221,"name":"未命名公園","decorType":"park"},{"id":"way-1323680536","lat":25.017397,"lon":121.5382107,"name":"未命名公園","decorType":"park"},{"id":"way-1323680750","lat":25.0171801,"lon":121.5389302,"name":"未命名公園","decorType":"park"},{"id":"way-1323680751","lat":25.0174607,"lon":121.5389256,"name":"未命名公園","decorType":"park"},{"id":"way-1323882493","lat":25.0205684,"lon":121.5444071,"name":"未命名公園","decorType":"park"},{"id":"way-1323882507","lat":25.0197591,"lon":121.5449052,"name":"未命名公園","decorType":"park"},{"id":"way-1323882508","lat":25.0199345,"lon":121.5453096,"name":"未命名公園","decorType":"park"},{"id":"way-1323882509","lat":25.0199188,"lon":121.5452604,"name":"曹公曹媽祠","decorType":"shrine"},{"id":"way-1323882514","lat":25.0199634,"lon":121.5450986,"name":"未命名公園","decorType":"park"},{"id":"way-1323882516","lat":25.0201226,"lon":121.5450148,"name":"未命名公園","decorType":"park"},{"id":"way-1323886487","lat":25.0187572,"lon":121.5456,"name":"未命名大學&學院","decorType":"university"},{"id":"way-1323892768","lat":25.0205369,"lon":121.5439949,"name":"未命名橋樑","decorType":"bridge"},{"id":"way-1323892778","lat":25.0205897,"lon":121.5439759,"name":"未命名公園","decorType":"park"},{"id":"way-1323892784","lat":25.0204622,"lon":121.5437919,"name":"未命名橋樑","decorType":"bridge"},{"id":"way-1323892785","lat":25.0204776,"lon":121.543868,"name":"未命名橋樑","decorType":"bridge"},{"id":"way-1324029663","lat":25.0195679,"lon":121.5462409,"name":"未命名公園","decorType":"park"},{"id":"way-1324029664","lat":25.0193926,"lon":121.5464346,"name":"未命名公園","decorType":"park"},{"id":"way-1324029671","lat":25.0196902,"lon":121.5468019,"name":"未命名公園","decorType":"park"},{"id":"way-1324029672","lat":25.0197786,"lon":121.5469035,"name":"未命名公園","decorType":"park"},{"id":"way-1324064049","lat":25.0192231,"lon":121.5439176,"name":"未命名公園","decorType":"park"},{"id":"way-1324064050","lat":25.0192487,"lon":121.5436112,"name":"未命名公園","decorType":"park"},{"id":"way-1324064051","lat":25.019012,"lon":121.5434948,"name":"未命名公園","decorType":"park"},{"id":"way-1324073784","lat":25.0163332,"lon":121.5394722,"name":"未命名公園","decorType":"park"},{"id":"way-1324073785","lat":25.0162496,"lon":121.5391389,"name":"未命名公園","decorType":"park"},{"id":"way-1324073786","lat":25.0162421,"lon":121.5390571,"name":"未命名公園","decorType":"park"},{"id":"way-1324076627","lat":25.0138852,"lon":121.537026,"name":"未命名公園","decorType":"park"},{"id":"way-1324076628","lat":25.0138951,"lon":121.5369491,"name":"未命名公園","decorType":"park"},{"id":"way-1324081393","lat":25.0176122,"lon":121.5439578,"name":"未命名公園","decorType":"park"},{"id":"way-1324081394","lat":25.0175118,"lon":121.5443238,"name":"未命名公園","decorType":"park"},{"id":"way-1324081395","lat":25.017434,"lon":121.5442208,"name":"未命名公園","decorType":"park"},{"id":"way-1324081397","lat":25.0183321,"lon":121.5450918,"name":"未命名公園","decorType":"park"},{"id":"way-1324081398","lat":25.01822,"lon":121.545158,"name":"未命名公園","decorType":"park"},{"id":"way-1324081399","lat":25.0181822,"lon":121.5448605,"name":"未命名公園","decorType":"park"},{"id":"way-1324081400","lat":25.0177974,"lon":121.5446549,"name":"未命名公園","decorType":"park"},{"id":"way-1324162871","lat":25.0208704,"lon":121.5393596,"name":"未命名公園","decorType":"park"},{"id":"way-1324162872","lat":25.0210725,"lon":121.5393186,"name":"未命名公園","decorType":"park"},{"id":"way-1324162873","lat":25.0211467,"lon":121.5390171,"name":"未命名公園","decorType":"park"},{"id":"way-1324162874","lat":25.0217137,"lon":121.5377299,"name":"未命名公園","decorType":"park"},{"id":"way-1324162875","lat":25.0217365,"lon":121.5378032,"name":"未命名公園","decorType":"park"},{"id":"way-1324162876","lat":25.0215788,"lon":121.5378759,"name":"未命名公園","decorType":"park"},{"id":"way-1324162877","lat":25.0215239,"lon":121.5379304,"name":"未命名公園","decorType":"park"},{"id":"way-1324162878","lat":25.0214151,"lon":121.538264,"name":"未命名公園","decorType":"park"},{"id":"way-1324162879","lat":25.0213761,"lon":121.5383367,"name":"未命名公園","decorType":"park"},{"id":"way-1324162880","lat":25.0212389,"lon":121.5385814,"name":"未命名公園","decorType":"park"},{"id":"way-1324162882","lat":25.0217345,"lon":121.5378389,"name":"未命名公園","decorType":"park"},{"id":"way-1324162883","lat":25.0217392,"lon":121.53793,"name":"未命名公園","decorType":"park"},{"id":"way-1324162884","lat":25.0217354,"lon":121.537668,"name":"未命名公園","decorType":"park"},{"id":"way-1324162886","lat":25.0219434,"lon":121.5375205,"name":"未命名公園","decorType":"park"},{"id":"way-1324162887","lat":25.0218736,"lon":121.5372312,"name":"未命名公園","decorType":"park"},{"id":"way-1324162888","lat":25.0216761,"lon":121.5372299,"name":"未命名公園","decorType":"park"},{"id":"way-1324164307","lat":25.022019,"lon":121.5352343,"name":"未命名公園","decorType":"park"},{"id":"way-1324168698","lat":25.0175244,"lon":121.5370754,"name":"未命名公園","decorType":"park"},{"id":"way-1324178870","lat":25.0132285,"lon":121.5371638,"name":"未命名公園","decorType":"park"},{"id":"way-1324178871","lat":25.0133462,"lon":121.5370626,"name":"未命名公園","decorType":"park"},{"id":"way-1324178872","lat":25.0133184,"lon":121.5370333,"name":"未命名公園","decorType":"park"},{"id":"way-1324178873","lat":25.0132109,"lon":121.5371228,"name":"未命名公園","decorType":"park"},{"id":"way-1324178874","lat":25.0134673,"lon":121.5369424,"name":"未命名公園","decorType":"park"},{"id":"way-1324181234","lat":25.012591,"lon":121.5367528,"name":"未命名公園","decorType":"park"},{"id":"way-1324181235","lat":25.0129151,"lon":121.536452,"name":"未命名公園","decorType":"park"},{"id":"way-1324181236","lat":25.0127877,"lon":121.5365506,"name":"未命名公園","decorType":"park"},{"id":"way-1324181238","lat":25.0132216,"lon":121.5363633,"name":"未命名公園","decorType":"park"},{"id":"way-1324181239","lat":25.0126607,"lon":121.5365894,"name":"未命名公園","decorType":"park"},