{"bbox":{"south":25.007519,"north":25.023125,"west":121.535187,"east":121.548219},"pois":[{"id":"node-311449107","lat":25.018023,"lon":121.537435,"name":"全家便利商店","decorType":"convenience"},{"id":"node-319442252","lat":25.018595,"lon":121.537368,"name":"臺大郵局","decorType":"post_office"},{"id":"node-461524963","lat":25.018636,"lon":121.537337,"name":"Hello Cafe","decorType":"cafe"},{"id":"node-469620172","lat":25.021736,"lon":121.541262,"name":"星巴克","decorType":"cafe"},{"id":"node-472558738","lat":25.022109,"lon":121.54098,"name":"7-Eleven","decorType":"convenience"},{"id":"node-736492716","lat":25.013055,"lon":121.536624,"name":"全家便利商店","decorType":"convenience"},{"id":"node-736739538","lat":25.012796,"lon":121.535252,"name":"BASKETBALL","decorType":"clothing"},{"id":"node-738837566","lat":25.013178,"lon":121.536443,"name":"Subway","decorType":"burger"},{"id":"node-924214891","lat":25.012836,"lon":121.536821,"name":"小蔬杭 絕對蔬食","decorType":"restaurant"},{"id":"node-1686583629","lat":25.008046,"lon":121.53647,"name":"文山萬盛郵局","decorType":"post_office"},{"id":"node-1707866516","lat":25.016846,"lon":121.536057,"name":"物理文物廳","decorType":"art_gallery"},{"id":"node-1707866520","lat":25.017768,"lon":121.535337,"name":"台大校史館","decorType":"art_gallery"},{"id":"node-1707866538","lat":25.011079,"lon":121.540771,"name":"昆蟲標本館","decorType":"art_gallery"},{"id":"node-1707866560","lat":25.015593,"lon":121.538974,"name":"動物博物館","decorType":"art_gallery"},{"id":"node-1708079052","lat":25.011749,"lon":121.538108,"name":"公館","decorType":"bus_stop"},{"id":"node-1708079066","lat":25.020697,"lon":121.544594,"name":"青年活動中心","decorType":"bus_stop"},{"id":"node-1708079071","lat":25.017351,"lon":121.544741,"name":"基隆長興街口","decorType":"bus_stop"},{"id":"node-1708079073","lat":25.015707,"lon":121.542205,"name":"臺大癌醫(基隆路)","decorType":"bus_stop"},{"id":"node-1708079078","lat":25.013961,"lon":121.535231,"name":"捷運公館站","decorType":"bus_stop"},{"id":"node-1708079079","lat":25.013444,"lon":121.540136,"name":"臺灣科技大學","decorType":"bus_stop"},{"id":"node-1708079082","lat":25.011753,"lon":121.537535,"name":"公館","decorType":"bus_stop"},{"id":"node-1708079112","lat":25.015457,"lon":121.542491,"name":"臺大癌醫(基隆路)","decorType":"bus_stop"},{"id":"node-1708079116","lat":25.014188,"lon":121.54052,"name":"臺灣科技大學","decorType":"bus_stop"},{"id":"node-1708079118","lat":25.018345,"lon":121.545334,"name":"基隆長興街口","decorType":"bus_stop"},{"id":"node-1716390526","lat":25.00799,"lon":121.537931,"name":"未命名郵局","decorType":"post_office"},{"id":"node-1716390527","lat":25.013768,"lon":121.542728,"name":"未命名郵局","decorType":"post_office"},{"id":"node-1716390549","lat":25.011822,"lon":121.53587,"name":"臺北汀州郵局","decorType":"post_office"},{"id":"node-1716390551","lat":25.017853,"lon":121.54345,"name":"未命名郵局","decorType":"post_office"},{"id":"node-1716390559","lat":25.007669,"lon":121.539101,"name":"未命名郵局","decorType":"post_office"},{"id":"node-1719272514","lat":25.021569,"lon":121.543231,"name":"未命名郵局","decorType":"post_office"},{"id":"node-1947655593","lat":25.018644,"lon":121.537588,"name":"未命名郵局","decorType":"post_office"},{"id":"node-2023229621","lat":25.017752,"lon":121.540242,"name":"全家便利商店","decorType":"convenience"},{"id":"node-2023229622","lat":25.015779,"lon":121.544754,"name":"全家便利商店","decorType":"convenience"},{"id":"node-2026200468","lat":25.017165,"lon":121.544737,"name":"7-Eleven","decorType":"convenience"},{"id":"node-2034267058","lat":25.011167,"lon":121.547359,"name":"芳蘭地藏巖","decorType":"shrine"},{"id":"node-2064686164","lat":25.017997,"lon":121.540279,"name":"金盃美而美","decorType":"restaurant"},{"id":"node-2160836811","lat":25.007705,"lon":121.536856,"name":"公館校區","decorType":"bus_stop"},{"id":"node-2178340365","lat":25.018299,"lon":121.540248,"name":"麥當勞","decorType":"burger"},{"id":"node-2188228791","lat":25.022871,"lon":121.5432,"name":"御提伴手禮 宴會點心","decorType":"bakery"},{"id":"node-2188228792","lat":25.02297,"lon":121.543273,"name":"大安健康服務中心","decorType":"bus_stop"},{"id":"node-2188231674","lat":25.023091,"lon":121.543221,"name":"小李子清粥小菜","decorType":"restaurant"},{"id":"node-2306318138","lat":25.017671,"lon":121.547893,"name":"自來水處(辛亥)","decorType":"bus_stop"},{"id":"node-2306318191","lat":25.019608,"lon":121.547501,"name":"和平高中","decorType":"bus_stop"},{"id":"node-2306318196","lat":25.020301,"lon":121.547668,"name":"和平高中","decorType":"bus_stop"},{"id":"node-2307668493","lat":25.007617,"lon":121.538507,"name":"師大分部","decorType":"bus_stop"},{"id":"node-2312683782","lat":25.013115,"lon":121.535752,"name":"捷運公館站","decorType":"bus_stop"},{"id":"node-2312683785","lat":25.013043,"lon":121.536232,"name":"捷運公館站","decorType":"bus_stop"},{"id":"node-2315915814","lat":25.008168,"lon":121.538086,"name":"師大分部","decorType":"bus_stop"},{"id":"node-2315915815","lat":25.008306,"lon":121.537887,"name":"師大分部","decorType":"bus_stop"},{"id":"node-2340183165","lat":25.018111,"lon":121.540341,"name":"吉品勝口味","decorType":"restaurant"},{"id":"node-2340183167","lat":25.01804,"lon":121.540341,"name":"樂法Le Phare","decorType":"restaurant"},{"id":"node-2340183168","lat":25.017951,"lon":121.540343,"name":"四海遊龍鍋貼專賣","decorType":"restaurant"},{"id":"node-2340183171","lat":25.018205,"lon":121.540296,"name":"純義西點麵包坊","decorType":"bakery"},{"id":"node-2340183172","lat":25.01804,"lon":121.540278,"name":"食香園","decorType":"restaurant"},{"id":"node-2340183173","lat":25.018088,"lon":121.540276,"name":"韓風小舖","decorType":"restaurant"},{"id":"node-2340183174","lat":25.018132,"lon":121.540273,"name":"御喜自助餐","decorType":"restaurant"},{"id":"node-2341939228","lat":25.012566,"lon":121.535432,"name":"東南亞冰店","decorType":"sweetshop"},{"id":"node-2402967367","lat":25.008035,"lon":121.537512,"name":"全家便利商店","decorType":"convenience"},{"id":"node-2420798949","lat":25.014429,"lon":121.547134,"name":"自來水事業處","decorType":"bus_stop"},{"id":"node-2420798950","lat":25.020324,"lon":121.545888,"name":"大安運動中心","decorType":"bus_stop"},{"id":"node-2420798951","lat":25.02208,"lon":121.54347,"name":"大安健康服務中心","decorType":"bus_stop"},{"id":"node-2420798952","lat":25.01527,"lon":121.547545,"name":"自來水事業處","decorType":"bus_stop"},{"id":"node-2420798962","lat":25.01429,"lon":121.543763,"name":"臺大癌醫","decorType":"bus_stop"},{"id":"node-2420798965","lat":25.012588,"lon":121.545274,"name":"芳蘭路","decorType":"bus_stop"},{"id":"node-2420798969","lat":25.012937,"lon":121.545493,"name":"芳蘭路","decorType":"bus_stop"},{"id":"node-2420798972","lat":25.016121,"lon":121.548098,"name":"地震研究中心","decorType":"bus_stop"},{"id":"node-2420798975","lat":25.014267,"lon":121.543707,"name":"臺大癌醫","decorType":"bus_stop"},{"id":"node-2456823935","lat":25.013378,"lon":121.535456,"name":"配件王","decorType":"electronics"},{"id":"node-2456823961","lat":25.010792,"lon":121.53672,"name":"百老匯影城","decorType":"movie_theater"},{"id":"node-2473232849","lat":25.021941,"lon":121.541233,"name":"全家便利商店","decorType":"convenience"},{"id":"node-2473232853","lat":25.022076,"lon":121.54131,"name":"大李水餃","decorType":"restaurant"},{"id":"node-2473232860","lat":25.021718,"lon":121.540943,"name":"厚宅咖哩","decorType":"restaurant"},{"id":"node-2473232863","lat":25.021929,"lon":121.541927,"name":"菁宏滷肉飯","decorType":"restaurant"},{"id":"node-2473232867","lat":25.02208,"lon":121.541392,"name":"吉野烤肉飯","decorType":"restaurant"},{"id":"node-2473232868","lat":25.021949,"lon":121.542218,"name":"林達髮型設計","decorType":"hair_salon"},{"id":"node-2473232871","lat":25.021648,"lon":121.542147,"name":"正香海南雞飯","decorType":"restaurant"},{"id":"node-2473232878","lat":25.021726,"lon":121.542761,"name":"印渡風情","decorType":"restaurant"},{"id":"node-2473232881","lat":25.022125,"lon":121.542752,"name":"李記水餃","decorType":"restaurant"},{"id":"node-2473232885","lat":25.021676,"lon":121.542905,"name":"大易園","decorType":"restaurant"},{"id":"node-2473232889","lat":25.021953,"lon":121.542926,"name":"珍品味泰式炭烤","decorType":"restaurant"},{"id":"node-2473232892","lat":25.022235,"lon":121.542937,"name":"咖哩廚房","decorType":"restaurant"},{"id":"node-2473232896","lat":25.022316,"lon":121.542931,"name":"憶馬當鮮馬來西亞風味料理","decorType":"restaurant"},{"id":"node-2473232900","lat":25.022619,"lon":121.542923,"name":"喬治派克經典好茶","decorType":"cafe"},{"id":"node-2473232903","lat":25.022582,"lon":121.542925,"name":"小李子牛肉麵","decorType":"restaurant"},{"id":"node-2473232907","lat":25.022574,"lon":121.542773,"name":"文哥巷子口古早味米粉湯","decorType":"restaurant"},{"id":"node-2473232910","lat":25.02304,"lon":121.542783,"name":"Oneway Cafe","decorType":"cafe"},{"id":"node-2473232913","lat":25.022943,"lon":121.542628,"name":"忠誠山東蔥油餅","decorType":"restaurant"},{"id":"node-2473232940","lat":25.022824,"lon":121.541204,"name":"溫州大混沌","decorType":"restaurant"},{"id":"node-2473232943","lat":25.022945,"lon":121.541194,"name":"九品早餐店","decorType":"restaurant"},{"id":"node-2473232946","lat":25.02228,"lon":121.541034,"name":"北方大陸餅","decorType":"restaurant"},{"id":"node-2473232956","lat":25.021871,"lon":121.543189,"name":"全家便利商店","decorType":"convenience"},{"id":"node-2473232960","lat":25.022244,"lon":121.542108,"name":"親來食堂","decorType":"restaurant"},{"id":"node-2572568012","lat":25.011969,"lon":121.535769,"name":"新馬辣經典麻辣鍋","decorType":"restaurant"},{"id":"node-2609549900","lat":25.012137,"lon":121.535439,"name":"三媽臭臭鍋","decorType":"restaurant"},{"id":"node-2609549933","lat":25.012198,"lon":121.535417,"name":"小飯館兒","decorType":"restaurant"},{"id":"node-2635371415","lat":25.007903,"lon":121.538568,"name":"7-Eleven","decorType":"convenience"},{"id":"node-2669833882","lat":25.007983,"lon":121.544032,"name":"蟾蜍山","decorType":"mountain"},{"id":"node-2837820262","lat":25.012362,"lon":121.535533,"name":"維倫麵店","decorType":"restaurant"},{"id":"node-2837820263","lat":25.012314,"lon":121.535557,"name":"順園小館","decorType":"restaurant"},{"id":"node-2837820264","lat":25.012268,"lon":121.535588,"name":"壹森泰食堂","decorType":"restaurant"},{"id":"node-2917411049","lat":25.021675,"lon":121.543959,"name":"道藩分館","decorType":"library"},{"id":"node-2917441717","lat":25.020467,"lon":121.544381,"name":"萊爾富","decorType":"convenience"},{"id":"node-2917693023","lat":25.022617,"lon":121.542634,"name":"八方雲集","decorType":"burger"},{"id":"node-2925675602","lat":25.011403,"lon":121.536067,"name":"寶藏巖","decorType":"bus_stop"},{"id":"node-2925675603","lat":25.011428,"lon":121.535944,"name":"寶藏巖","decorType":"bus_stop"},{"id":"node-2935820265","lat":25.022265,"lon":121.543557,"name":"芝加哥比薩","decorType":"restaurant"},{"id":"node-3008812245","lat":25.012045,"lon":121.53578,"name":"拉芙漢堡","decorType":"restaurant"},{"id":"node-3014391178","lat":25.020446,"lon":121.544722,"name":"臺大國青大樓前郵筒","decorType":"post_office"},{"id":"node-3080933442","lat":25.02163,"lon":121.542734,"name":"阿玉水餃","decorType":"restaurant"},{"id":"node-3188130319","lat":25.02106,"lon":121.540849,"name":"臺大計資中心","decorType":"bus_stop"},{"id":"node-3188130320","lat":25.021637,"lon":121.540369,"name":"臺大計資中心","decorType":"bus_stop"},{"id":"node-3387037593","lat":25.014669,"lon":121.535209,"name":"CoCo壱番屋","decorType":"restaurant"},{"id":"node-3521852855","lat":25.008775,"lon":121.537593,"name":"公館福德宮","decorType":"shrine"},{"id":"node-3596859025","lat":25.021631,"lon":121.542644,"name":"喜川麵館","decorType":"restaurant"},{"id":"node-3622811693","lat":25.011678,"lon":121.53597,"name":"Luca Vergani","decorType":"clothing"},{"id":"node-3622811895","lat":25.012031,"lon":121.535514,"name":"法點法食","decorType":"cafe"},{"id":"node-3644253285","lat":25.011244,"lon":121.54095,"name":"未命名郵局","decorType":"post_office"},{"id":"node-3657496289","lat":25.009967,"lon":121.537867,"name":"清寶宮","decorType":"shrine"},{"id":"node-3701535079","lat":25.012273,"lon":121.535321,"name":"酷必五星級牛排飯","decorType":"restaurant"},{"id":"node-3701541985","lat":25.012095,"lon":121.535465,"name":"炎帝鐵板燒","decorType":"restaurant"},{"id":"node-3723318923","lat":25.01273,"lon":121.536013,"name":"塊雞師事務所","decorType":"restaurant"},{"id":"node-3723319525","lat":25.012769,"lon":121.535981,"name":"MACANNA","decorType":"clothing"},{"id":"node-3723319532","lat":25.012416,"lon":121.53621,"name":"茂林動物福利蛋","decorType":"supermarket"},{"id":"node-3723319535","lat":25.013091,"lon":121.53566,"name":"茶予抱報","decorType":"cafe"},{"id":"node-3723319536","lat":25.012674,"lon":121.536054,"name":"想聚","decorType":"restaurant"},{"id":"node-3723319538","lat":25.012929,"lon":121.535792,"name":"海人","decorType":"restaurant"},{"id":"node-3723319585","lat":25.012849,"lon":121.535929,"name":"啦啦麵","decorType":"restaurant"},{"id":"node-3723319586","lat":25.013123,"lon":121.535642,"name":"Vortex","decorType":"clothing"},{"id":"node-3723319587","lat":25.012994,"lon":121.535798,"name":"米澤製麵","decorType":"restaurant"},{"id":"node-3723319589","lat":25.012636,"lon":121.536084,"name":"520 SPA美容越式洗頭","decorType":"cosmetics"},{"id":"node-3723319590","lat":25.012952,"lon":121.535831,"name":"頂呱呱","decorType":"burger"},{"id":"node-3780775615","lat":25.00805,"lon":121.536831,"name":"7-Eleven","decorType":"convenience"},{"id":"node-3811140813","lat":25.013013,"lon":121.536558,"name":"龐德羅沙","decorType":"restaurant"},{"id":"node-3811140814","lat":25.012887,"lon":121.536688,"name":"Gugu Kitchen","decorType":"restaurant"},{"id":"node-3811140815","lat":25.013125,"lon":121.536489,"name":"魯山人和風壽喜鍋物","decorType":"restaurant"},{"id":"node-3811141114","lat":25.012971,"lon":121.536703,"name":"Lacuz","decorType":"restaurant"},{"id":"node-3825998761","lat":25.012594,"lon":121.53547,"name":"直火人","decorType":"restaurant"},{"id":"node-3825998764","lat":25.012865,"lon":121.535191,"name":"全家便利商店","decorType":"convenience"},{"id":"node-3832679351","lat":25.021729,"lon":121.540594,"name":"貝拉小屋","decorType":"restaurant"},{"id":"node-3834063057","lat":25.021888,"lon":121.548199,"name":"akuma caca","decorType":"cafe"},{"id":"node-3867798198","lat":25.012986,"lon":121.535193,"name":"聚英軒","decorType":"restaurant"},{"id":"node-3867798204","lat":25.012517,"lon":121.535412,"name":"7-Eleven","decorType":"convenience"},{"id":"node-3917907435","lat":25.019892,"lon":121.547148,"name":"蔬果店","decorType":"supermarket"},{"id":"node-4018205776","lat":25.013495,"lon":121.536356,"name":"義饗食堂","decorType":"restaurant"},{"id":"node-4033359734","lat":25.007556,"lon":121.538109,"name":"亞運撞球館","decorType":"stadium"},{"id":"node-4108947169","lat":25.022419,"lon":121.540403,"name":"Toh-A桌藏","decorType":"restaurant"},{"id":"node-4114350999","lat":25.01251,"lon":121.547849,"name":"芳蘭山莊","decorType":"bus_stop"},{"id":"node-4213847985","lat":25.009702,"lon":121.538955,"name":"未命名郵局","decorType":"post_office"},{"id":"node-4236823708","lat":25.009048,"lon":121.538214,"name":"光山","decorType":"mountain"},{"id":"node-4236824143","lat":25.009307,"lon":121.537361,"name":"紅蔥","decorType":"restaurant"},{"id":"node-4254654848","lat":25.022578,"lon":121.543115,"name":"Seven Fine Days","decorType":"restaurant"},{"id":"node-4254654855","lat":25.023041,"lon":121.54294,"name":"巧味快餐","decorType":"restaurant"},{"id":"node-4254654858","lat":25.021869,"lon":121.542766,"name":"池先生咖哩屋","decorType":"restaurant"},{"id":"node-4328118410","lat":25.008827,"lon":121.537565,"name":"以琳髮型設計","decorType":"hair_salon"},{"id":"node-4328118414","lat":25.012814,"lon":121.535787,"name":"公館蚵仔麵線","decorType":"restaurant"},{"id":"node-4328118420","lat":25.012747,"lon":121.535698,"name":"台南碗磕","decorType":"restaurant"},{"id":"node-4328118422","lat":25.013202,"lon":121.53522,"name":"牛二哥牛排館","decorType":"restaurant"},{"id":"node-4328118424","lat":25.013256,"lon":121.535239,"name":"喬雅美妝","decorType":"pharmacy"},{"id":"node-4328118607","lat":25.012712,"lon":121.535646,"name":"臭豆腐","decorType":"restaurant"},{"id":"node-4328118608","lat":25.013075,"lon":121.535365,"name":"芙蘿菈時尚美甲","decorType":"cosmetics"},{"id":"node-4328118613","lat":25.013004,"lon":121.53542,"name":"蘭陽美食綠色臭豆腐","decorType":"restaurant"},{"id":"node-4328118616","lat":25.012849,"lon":121.53553,"name":"阿里媽媽","decorType":"restaurant"},{"id":"node-4328118618","lat":25.013123,"lon":121.535329,"name":"韓一閣韓式料理","decorType":"restaurant"},{"id":"node-4360380424","lat":25.022969,"lon":121.541193,"name":"國安乾洗","decorType":"laundry"},{"id":"node-4360380425","lat":25.022072,"lon":121.541992,"name":"大柱子擔仔麵","decorType":"restaurant"},{"id":"node-4360380426","lat":25.022083,"lon":121.541218,"name":"姐弟蔬果店","decorType":"supermarket"},{"id":"node-4360380427","lat":25.023026,"lon":121.541197,"name":"山林美食館","decorType":"restaurant"},{"id":"node-4360380429","lat":25.023065,"lon":121.54121,"name":"惠盈藥局","decorType":"pharmacy"},{"id":"node-4360380431","lat":25.0231,"lon":121.542786,"name":"老哥雞肉飯 乾拌麵","decorType":"restaurant"},{"id":"node-4360380443","lat":25.022936,"lon":121.542552,"name":"邦食堂","decorType":"restaurant"},{"id":"node-4360380445","lat":25.022073,"lon":121.541484,"name":"韓喜堂","decorType":"restaurant"},{"id":"node-4360380446","lat":25.022637,"lon":121.541239,"name":"揪食堂韓式餐館","decorType":"restaurant"},{"id":"node-4360850489","lat":25.021722,"lon":121.540332,"name":"illy coffee L'angolo","decorType":"cafe"},{"id":"node-4417637944","lat":25.007587,"lon":121.53804,"name":"小尚品精緻鍋物","decorType":"restaurant"},{"id":"node-4505512189","lat":25.01248,"lon":121.535455,"name":"狗一下","decorType":"restaurant"},{"id":"node-4507665996","lat":25.01795,"lon":121.544534,"name":"Living One","decorType":"restaurant"},{"id":"node-4524318957","lat":25.009014,"lon":121.537478,"name":"水果禮盒","decorType":"supermarket"},{"id":"node-4524328187","lat":25.012413,"lon":121.535477,"name":"味自慢","decorType":"restaurant"},{"id":"node-4524328188","lat":25.012438,"lon":121.535463,"name":"麻煮mini麻辣煲","decorType":"restaurant"},{"id":"node-4524864517","lat":25.022772,"lon":121.540892,"name":"未命名公園","decorType":"park"},{"id":"node-4754476211","lat":25.012132,"lon":121.535666,"name":"客家魷魚羹","decorType":"restaurant"},{"id":"node-4754476212","lat":25.012181,"lon":121.535629,"name":"大埔鐵板燒","decorType":"restaurant"},{"id":"node-4834761742","lat":25.007813,"lon":121.538618,"name":"Space Out Art","decorType":"art_gallery"},{"id":"node-4834803702","lat":25.017415,"lon":121.545062,"name":"Adam Store","decorType":"electronics"},{"id":"node-4834803703","lat":25.017361,"lon":121.544998,"name":"摩斯漢堡","decorType":"burger"},{"id":"node-4834803705","lat":25.017267,"lon":121.54489,"name":"電腦先生","decorType":"electronics"},{"id":"node-4834803706","lat":25.017212,"lon":121.544834,"name":"星巴克","decorType":"cafe"},{"id":"node-4834803715","lat":25.012275,"lon":121.535224,"name":"漫果子桌遊主題餐廳","decorType":"restaurant"},{"id":"node-4834803827","lat":25.012633,"lon":121.535654,"name":"金名號 鹿野雞肉飯專賣","decorType":"restaurant"},{"id":"node-4834803829","lat":25.013283,"lon":121.535268,"name":"泰風味小吃店","decorType":"restaurant"},{"id":"node-4834803830","lat":25.012003,"lon":121.535798,"name":"雅澤沙龍","decorType":"hair_salon"},{"id":"node-4834803831","lat":25.011918,"lon":121.535807,"name":"牛髓知味紅燒牛肉麵","decorType":"restaurant"},{"id":"node-4834803856","lat":25.013065,"lon":121.536553,"name":"Mövenpick Café","decorType":"cafe"},{"id":"node-4880964021","lat":25.02241,"lon":121.543182,"name":"鬍子茶","decorType":"cafe"},{"id":"node-4952060640","lat":25.01493,"lon":121.535483,"name":"Mensa","decorType":"restaurant"},{"id":"node-4952060641","lat":25.014969,"lon":121.535465,"name":"未命名便利商店","decorType":"convenience"},{"id":"node-5012516850","lat":25.021912,"lon":121.540838,"name":"豆系研究室","decorType":"cafe"},{"id":"node-5052612407","lat":25.011668,"lon":121.535989,"name":"大學城團體服","decorType":"clothing"},{"id":"node-5102058921","lat":25.023069,"lon":121.537095,"name":"7-Eleven","decorType":"convenience"},{"id":"node-5110245021","lat":25.012715,"lon":121.535975,"name":"黑特咖啡","decorType":"restaurant"},{"id":"node-5316457293","lat":25.01783,"lon":121.541199,"name":"原住民族圖書資訊中心","decorType":"library"},{"id":"node-5395213422","lat":25.022307,"lon":121.541183,"name":"遊藝思文創空間","decorType":"cafe"},{"id":"node-5551929262","lat":25.012298,"lon":121.535303,"name":"鍋in百元風味火鍋","decorType":"restaurant"},{"id":"node-5561584642","lat":25.018086,"lon":121.53908,"name":"綜合教學館","decorType":"bus_stop"},{"id":"node-5587511570","lat":25.01549,"lon":121.536915,"name":"國立臺灣學員生消費合作社","decorType":"convenience"},{"id":"node-5775285051","lat":25.023025,"lon":121.540826,"name":"理髮","decorType":"hair_salon"},{"id":"node-5839638858","lat":25.022789,"lon":121.547576,"name":"Boom Coffee Roasters","decorType":"cafe"},{"id":"node-5849573415","lat":25.020718,"lon":121.546178,"name":"怡客咖啡","decorType":"cafe"},{"id":"node-5960741880","lat":25.007795,"lon":121.538635,"name":"校門對面那間店","decorType":"restaurant"},{"id":"node-6007607969","lat":25.013264,"lon":121.535585,"name":"麥味登","decorType":"restaurant"},{"id":"node-6037206719","lat":25.019434,"lon":121.539248,"name":"全家便利商店","decorType":"convenience"},{"id":"node-6114700752","lat":25.023008,"lon":121.541194,"name":"家庭理髮店","decorType":"hair_salon"},{"id":"node-6114700753","lat":25.022991,"lon":121.541194,"name":"便當","decorType":"restaurant"},{"id":"node-6114700754","lat":25.022054,"lon":121.542448,"name":"合益佳雞肉飯","decorType":"restaurant"},{"id":"node-6114700755","lat":25.02202,"lon":121.542928,"name":"28麵堂","decorType":"restaurant"},{"id":"node-6114714475","lat":25.022059,"lon":121.542757,"name":"水果店","decorType":"supermarket"},{"id":"node-6114714476","lat":25.022089,"lon":121.542922,"name":"舒美乾洗店","decorType":"laundry"},{"id":"node-6114714477","lat":25.022143,"lon":121.542915,"name":"師大附中水煎包","decorType":"restaurant"},{"id":"node-6114714478","lat":25.022203,"lon":121.542916,"name":"甜品屋","decorType":"restaurant"},{"id":"node-6114714479","lat":25.022364,"lon":121.542928,"name":"大易園早午餐","decorType":"restaurant"},{"id":"node-6114714480","lat":25.022434,"lon":121.54293,"name":"笑嘻嘻港式現炒飯麵","decorType":"restaurant"},{"id":"node-6317546194","lat":25.021724,"lon":121.54074,"name":"鼎貴小吃店","decorType":"restaurant"},{"id":"node-6401808753","lat":25.020474,"lon":121.536796,"name":"未命名公園","decorType":"park"},{"id":"node-6587809188","lat":25.022324,"lon":121.543558,"name":"麥味登","decorType":"restaurant"},{"id":"node-6649157804","lat":25.017382,"lon":121.536666,"name":"傅鐘 (往城中校區)","decorType":"bus_stop"},{"id":"node-6697187509","lat":25.022965,"lon":121.547601,"name":"千松谷","decorType":"restaurant"},{"id":"node-6697187510","lat":25.02297,"lon":121.547673,"name":"麥味登","decorType":"restaurant"},{"id":"node-6699805979","lat":25.015937,"lon":121.543158,"name":"紅蔥","decorType":"restaurant"},{"id":"node-6714766659","lat":25.012927,"lon":121.536643,"name":"曉鹿鳴樓","decorType":"restaurant"},{"id":"node-7056026970","lat":25.022517,"lon":121.54356,"name":"健康生機超市","decorType":"supermarket"},{"id":"node-7056026977","lat":25.022176,"lon":121.543549,"name":"池先生馬來西亞傳統料理","decorType":"restaurant"},{"id":"node-7056026980","lat":25.021781,"lon":121.543545,"name":"電腦達人","decorType":"electronics"},{"id":"node-7112865688","lat":25.020702,"lon":121.548152,"name":"早餐店","decorType":"restaurant"},{"id":"node-7174571369","lat":25.021727,"lon":121.540652,"name":"依依平價火鍋","decorType":"restaurant"},{"id":"node-7213007953","lat":25.021635,"lon":121.542905,"name":"禾園水果行","decorType":"supermarket"},{"id":"node-7213007955","lat":25.021816,"lon":121.542763,"name":"高和食堂","decorType":"restaurant"},{"id":"node-7213007956","lat":25.0219,"lon":121.542765,"name":"路易沙","decorType":"cafe"},{"id":"node-7213007957","lat":25.022061,"lon":121.542708,"name":"蔥燉牛肉麵","decorType":"restaurant"},{"id":"node-7213007958","lat":25.021912,"lon":121.542922,"name":"紫牛平價牛排","decorType":"restaurant"},{"id":"node-7213007959","lat":25.02184,"lon":121.542923,"name":"源士林粥品","decorType":"restaurant"},{"id":"node-7213007960","lat":25.022274,"lon":121.542931,"name":"釀釀禾","decorType":"restaurant"},{"id":"node-7213007961","lat":25.022398,"lon":121.542931,"name":"t c shop","decorType":"clothing"},{"id":"node-7213007962","lat":25.022466,"lon":121.542928,"name":"五九麵館","decorType":"restaurant"},{"id":"node-7213007963","lat":25.022502,"lon":121.542927,"name":"郭董麻辣牛肉麵","decorType":"restaurant"},{"id":"node-7213007964","lat":25.022535,"lon":121.542926,"name":"靜園環保藥局","decorType":"pharmacy"},{"id":"node-7213007965","lat":25.022366,"lon":121.542765,"name":"速修王","decorType":"electronics"},{"id":"node-7213007968","lat":25.022467,"lon":121.542771,"name":"新格名品服飾","decorType":"clothing"},{"id":"node-7213007969","lat":25.022517,"lon":121.542773,"name":"I'm Pasta","decorType":"restaurant"},{"id":"node-7213007971","lat":25.022784,"lon":121.542778,"name":"滇味小廚","decorType":"restaurant"},{"id":"node-7213007972","lat":25.022859,"lon":121.542774,"name":"卡瓦利印度料理","decorType":"restaurant"},{"id":"node-7213007973","lat":25.022618,"lon":121.543023,"name":"貞有緣素食","decorType":"restaurant"},{"id":"node-7213007974","lat":25.022618,"lon":121.542971,"name":"河內美食","decorType":"restaurant"},{"id":"node-7213007975","lat":25.022726,"lon":121.542936,"name":"台南周記冰鎮滷味","decorType":"restaurant"},{"id":"node-7213007976","lat":25.022795,"lon":121.542938,"name":"慈心素食","decorType":"restaurant"},{"id":"node-7213007977","lat":25.022842,"lon":121.542948,"name":"馬祖麵館","decorType":"restaurant"},{"id":"node-7213007979","lat":25.022914,"lon":121.542942,"name":"大叔蔬食","decorType":"restaurant"},{"id":"node-7213007981","lat":25.023093,"lon":121.542948,"name":"成都川菜小吃","decorType":"restaurant"},{"id":"node-7330746357","lat":25.014514,"lon":121.537992,"name":"7-Eleven","decorType":"convenience"},{"id":"node-7330746358","lat":25.01446,"lon":121.537892,"name":"丹堤咖啡","decorType":"cafe"},{"id":"node-7330746360","lat":25.014567,"lon":121.537923,"name":"路易莎咖啡","decorType":"cafe"},{"id":"node-7330800319","lat":25.01459,"lon":121.537871,"name":"全家喜湯包","decorType":"restaurant"},{"id":"node-7594589824","lat":25.021568,"lon":121.541948,"name":"未命名郵局","decorType":"post_office"},{"id":"node-7594589836","lat":25.02198,"lon":121.540694,"name":"歐克法","decorType":"cafe"},{"id":"node-7657642011","lat":25.014526,"lon":121.537671,"name":"未命名公園","decorType":"park"},{"id":"node-7714151050","lat":25.010457,"lon":121.536793,"name":"小麻雀","decorType":"clothing"},{"id":"node-7747683208","lat":25.018495,"lon":121.537291,"name":"文湯武醬","decorType":"restaurant"},{"id":"node-7747683214","lat":25.011953,"lon":121.541042,"name":"豪享來","decorType":"restaurant"},{"id":"node-7747683219","lat":25.012043,"lon":121.540924,"name":"天津蔥抓餅","decorType":"restaurant"},{"id":"node-7747683225","lat":25.011918,"lon":121.540881,"name":"帝一味自助餐","decorType":"restaurant"},{"id":"node-7747683231","lat":25.020057,"lon":121.538246,"name":"稍飽 燒肉廚房","decorType":"restaurant"},{"id":"node-7747683236","lat":25.01201,"lon":121.540874,"name":"藝素佳素食","decorType":"restaurant"},{"id":"node-7747683238","lat":25.021738,"lon":121.537295,"name":"JM Café & Bistro","decorType":"restaurant"},{"id":"node-7747683245","lat":25.011872,"lon":121.540937,"name":"八方雲集","decorType":"burger"},{"id":"node-7749776763","lat":25.016324,"lon":121.545734,"name":"台大後餐鹹酥雞","decorType":"restaurant"},{"id":"node-7749776767","lat":25.015815,"lon":121.544716,"name":"波斯菊素食坊","decorType":"restaurant"},{"id":"node-7749776769","lat":25.015405,"lon":121.537195,"name":"大叔韓國炸雞","decorType":"restaurant"},{"id":"node-7749776770","lat":25.019432,"lon":121.539258,"name":"五花馬水餃館","decorType":"restaurant"},{"id":"node-7749776771","lat":25.012774,"lon":121.543142,"name":"台科後餐炒飯炒麵","decorType":"restaurant"},{"id":"node-7749776774","lat":25.015935,"lon":121.544729,"name":"武吉家","decorType":"restaurant"},{"id":"node-7749776775","lat":25.014099,"lon":121.542453,"name":"赤糰飯糰","decorType":"restaurant"},{"id":"node-7749776777","lat":25.013791,"lon":121.542726,"name":"Medditerranian Cusine Halal Algarian","decorType":"restaurant"},{"id":"node-7749776778","lat":25.015986,"lon":121.544651,"name":"丼太郎","decorType":"restaurant"},{"id":"node-7749782389","lat":25.014503,"lon":121.544132,"name":"吉野家","decorType":"burger"},{"id":"node-7749782390","lat":25.015974,"lon":121.544724,"name":"男一快餐","decorType":"restaurant"},{"id":"node-7749782391","lat":25.015862,"lon":121.544721,"name":"我家廚房早餐店","decorType":"restaurant"},{"id":"node-7749782396","lat":25.013742,"lon":121.54284,"name":"品客自助餐","decorType":"restaurant"},{"id":"node-7749782397","lat":25.013801,"lon":121.542631,"name":"一品快餐","decorType":"restaurant"},{"id":"node-7749782401","lat":25.013748,"lon":121.542692,"name":"福客鐵板料李","decorType":"restaurant"},{"id":"node-7749782405","lat":25.013971,"lon":121.542683,"name":"福客亭早餐吧","decorType":"restaurant"},{"id":"node-7765187649","lat":25.021701,"lon":121.539824,"name":"SEMINAR西餐廳","decorType":"restaurant"},{"id":"node-7765187996","lat":25.021719,"lon":121.539999,"name":"Open開房間桌遊餐館","decorType":"restaurant"},{"id":"node-7765188023","lat":25.021705,"lon":121.539725,"name":"協民隆有限公司","decorType":"restaurant"},{"id":"node-7779795810","lat":25.022067,"lon":121.54239,"name":"香港林師傅","decorType":"restaurant"},{"id":"node-7795486071","lat":25.012025,"lon":121.535536,"name":"法點法食","decorType":"restaurant"},{"id":"node-7795486072","lat":25.011717,"lon":121.535958,"name":"武林茶","decorType":"cafe"},{"id":"node-8218123651","lat":25.010717,"lon":121.536904,"name":"燒肉星球","decorType":"restaurant"},{"id":"node-8999398230","lat":25.011903,"lon":121.540981,"name":"雞同鴨講","decorType":"restaurant"},{"id":"node-8999398231","lat":25.011975,"lon":121.540828,"name":"京都日式料理","decorType":"restaurant"},{"id":"node-8999398232","lat":25.012014,"lon":121.541106,"name":"稻村麵包","decorType":"restaurant"},{"id":"node-8999398233","lat":25.01208,"lon":121.54098,"name":"茶覺","decorType":"cafe"},{"id":"node-8999398234","lat":25.011981,"lon":121.541074,"name":"活力讚早午餐","decorType":"restaurant"},{"id":"node-8999398235","lat":25.011929,"lon":121.541012,"name":"突厥廚房","decorType":"restaurant"},{"id":"node-8999398236","lat":25.012956,"lon":121.542736,"name":"萊爾富","decorType":"convenience"},{"id":"node-10154681387","lat":25.013702,"lon":121.542779,"name":"家常清真小吃","decorType":"restaurant"},{"id":"node-10154681388","lat":25.013776,"lon":121.542879,"name":"高麗元","decorType":"restaurant"},{"id":"node-10154681389","lat":25.013841,"lon":121.542838,"name":"動太郎","decorType":"restaurant"},{"id":"node-10154681390","lat":25.013866,"lon":121.542806,"name":"甘味廚房","decorType":"restaurant"},{"id":"node-10154681391","lat":25.013895,"lon":121.542767,"name":"溫州大餛飩","decorType":"restaurant"},{"id":"node-10154681392","lat":25.013929,"lon":121.542732,"name":"嚴茶","decorType":"restaurant"},{"id":"node-10154681393","lat":25.013837,"lon":121.542589,"name":"小熊廚房","decorType":"restaurant"},{"id":"node-10154681394","lat":25.013878,"lon":121.542539,"name":"強尼兄弟","decorType":"restaurant"},{"id":"node-11323178645","lat":25.013931,"lon":121.538046,"name":"國立臺灣大學管理學院","decorType":"university"},{"id":"node-11951580626","lat":25.023066,"lon":121.542797,"name":"餃子酒場晴屋","decorType":"restaurant"},{"id":"node-11981499265","lat":25.012672,"lon":121.536037,"name":"芮微荷夢幻森林","decorType":"cosmetics"},{"id":"node-11981499266","lat":25.012981,"lon":121.535782,"name":"茗香園冰室","decorType":"restaurant"},{"id":"node-12066226016","lat":25.012553,"lon":121.535714,"name":"京阪豚骨拉麵","decorType":"restaurant"},{"id":"node-12091469324","lat":25.014088,"lon":121.54268,"name":"摩斯漢堡","decorType":"burger"},{"id":"node-12174967078","lat":25.014721,"lon":121.543142,"name":"路易莎咖啡","decorType":"cafe"},{"id":"node-12250662070","lat":25.018856,"lon":121.545612,"name":"臺大植物教學醫院","decorType":"university"},{"id":"node-12250787800","lat":25.019928,"lon":121.544792,"name":"臺大法學院圖書館","decorType":"library"},{"id":"node-12253427526","lat":25.015443,"lon":121.53891,"name":"國立臺灣大學生命科學院","decorType":"university"},{"id":"node-12253532779","lat":25.017109,"lon":121.539475,"name":"總圖","decorType":"bus_stop"},{"id":"node-12253532780","lat":25.017232,"lon":121.536775,"name":"傅鐘 (往總區)","decorType":"bus_stop"},{"id":"node-12254561053","lat":25.018254,"lon":121.542219,"name":"獸醫專業學院","decorType":"university"},{"id":"node-12258614997","lat":25.013768,"lon":121.54707,"name":"國立臺大永齡健康研究院","decorType":"university"},{"id":"node-12718628642","lat":25.020497,"lon":121.540962,"name":"國際華語研習所","decorType":"university"},{"id":"node-13005612705","lat":25.009346,"lon":121.536985,"name":"未命名餐廳","decorType":"restaurant"},{"id":"node-13130317492","lat":25.012939,"lon":121.536775,"name":"熊一燒肉","decorType":"restaurant"},{"id":"node-13183685244","lat":25.015335,"lon":121.537016,"name":"全家便利商店","decorType":"convenience"},{"id":"node-13275684252","lat":25.012468,"lon":121.538498,"name":"公館","decorType":"bus_stop"},{"id":"way-39450474","lat":25.01856,"lon":121.537355,"name":"小福","decorType":"university"},{"id":"way-50212704","lat":25.018975,"lon":121.54639,"name":"未命名橋樑","decorType":"bridge"},{"id":"way-50212705","lat":25.018944,"lon":121.546443,"name":"未命名橋樑","decorType":"bridge"},{"id":"way-50212706","lat":25.019889,"lon":121.547522,"name":"未命名橋樑","decorType":"bridge"},{"id":"way-50752698","lat":25.015762,"lon":121.542653,"name":"未命名橋樑","decorType":"bridge"},{"id":"way-59383257","lat":25.013149,"lon":121.536911,"name":"管理學院二號館","decorType":"university"},{"id":"way-113547891","lat":25.019516,"lon":121.54164,"name":"資訊工程館","decorType":"university"},{"id":"way-158624113","lat":25.020759,"lon":121.542308,"name":"社會科學院大樓","decorType":"university"},{"id":"way-158651499","lat":25.013411,"lon":121.538391,"name":"管理學院交誼廳","decorType":"university"},{"id":"way-177612503","lat":25.015198,"lon":121.541472,"name":"未命名大學&學院","decorType":"university"},{"id":"way-177612507","lat":25.016256,"lon":121.541712,"name":"考種館","decorType":"university"},{"id":"way-183002398","lat":25.008518,"lon":121.537909,"name":"師大分部","decorType":"bus_stop"},{"id":"way-185260559","lat":25.016767,"lon":121.535903,"name":"二號館","decorType":"university"},{"id":"way-191350723","lat":25.016852,"lon":121.537648,"name":"四號館","decorType":"university"},{"id":"way-191350725","lat":25.017867,"lon":121.53831,"name":"土木系館","decorType":"university"},{"id":"way-191350726","lat":25.016482,"lon":121.535913,"name":"三號館","decorType":"university"},{"id":"way-191350727","lat":25.01579,"lon":121.537593,"name":"共同教學館","decorType":"university"},{"id":"way-191350729","lat":25.020693,"lon":121.538182,"name":"思亮館國際會議廳","decorType":"university"},{"id":"way-191350730","lat":25.020371,"lon":121.538417,"name":"舊數館","decorType":"university"},{"id":"way-191350731","lat":25.016567,"lon":121.537654,"name":"五號館","decorType":"university"},{"id":"way-191350733","lat":25.019848,"lon":121.537682,"name":"未命名橋樑","decorType":"bridge"},{"id":"way-191350734","lat":25.015415,"lon":121.538731,"name":"生命科學大樓","decorType":"university"},{"id":"way-191350735","lat":25.020887,"lon":121.5386,"name":"思亮館","decorType":"university"},{"id":"way-191350736","lat":25.016244,"lon":121.535903,"name":"農化新館","decorType":"university"},{"id":"way-191350738","lat":25.017872,"lon":121.539392,"name":"圖資系系館","decorType":"university"},{"id":"way-191350740","lat":25.016188,"lon":121.537613,"name":"農業綜合大樓","decorType":"university"},{"id":"way-191350741","lat":25.018194,"lon":121.538302,"name":"化工館","decorType":"university"},{"id":"way-191350742","lat":25.020085,"lon":121.538511,"name":"數學研究中心","decorType":"university"},{"id":"way-191350743","lat":25.016868,"lon":121.539607,"name":"衛生保健中心","decorType":"university"},{"id":"way-191354836","lat":25.021799,"lon":121.536676,"name":"物理學系/凝態科學研究中心","decorType":"university"},{"id":"way-191354839","lat":25.018051,"lon":121.53614,"name":"文學院研究大樓","decorType":"university"},{"id":"way-191354840","lat":25.020869,"lon":121.539371,"name":"水產養殖池","decorType":"university"},{"id":"way-191354841","lat":25.020872,"lon":121.539845,"name":"計算機及網路資訊中心","decorType":"university"},{"id":"way-191354842","lat":25.020539,"lon":121.539428,"name":"漁業科學館","decorType":"university"},{"id":"way-191354844","lat":25.019048,"lon":121.538674,"name":"電機一館","decorType":"university"},{"id":"way-191354845","lat":25.019735,"lon":121.538423,"name":"新生教學館","decorType":"university"},{"id":"way-191354846","lat":25.021308,"lon":121.536655,"name":"全球變遷研究中心","decorType":"university"},{"id":"way-191354849","lat":25.020551,"lon":121.543818,"name":"霖澤館","decorType":"university"},{"id":"way-191354852","lat":25.017832,"lon":121.544355,"name":"明達館","decorType":"university"},{"id":"way-191358131","lat":25.01563,"lon":121.536808,"name":"農化系實驗室","decorType":"university"},{"id":"way-191358132","lat":25.018894,"lon":121.536665,"name":"博雅教學館","decorType":"university"},{"id":"way-191358135","lat":25.015109,"lon":121.537606,"name":"鹿鳴堂","decorType":"university"},{"id":"way-191358137","lat":25.014027,"lon":121.539981,"name":"造園館","decorType":"university"},{"id":"way-191358138","lat":25.018251,"lon":121.541843,"name":"獸醫館","decorType":"university"},{"id":"way-191358141","lat":25.015335,"lon":121.536208,"name":"植物系研究室(舊館)","decorType":"university"},{"id":"way-191358143","lat":25.019619,"lon":121.540252,"name":"心理系南館","decorType":"university"},{"id":"way-191358145","lat":25.019288,"lon":121.542271,"name":"博理館","decorType":"university"},{"id":"way-191358148","lat":25.02004,"lon":121.540255,"name":"心理系北館","decorType":"university"},{"id":"way-191358149","lat":25.018797,"lon":121.542852,"name":"鄭江樓","decorType":"university"},{"id":"way-191358150","lat":25.015194,"lon":121.536242,"name":"望樂樓","decorType":"university"},{"id":"way-191358151","lat":25.0122,"lon":121.537451,"name":"建築與城鄉研究所","decorType":"university"},{"id":"way-191358153","lat":25.017941,"lon":121.542768,"name":"農機館","decorType":"university"},{"id":"way-191358155","lat":25.019346,"lon":121.538565,"name":"生化科學館","decorType":"university"},{"id":"way-191358160","lat":25.02052,"lon":121.540283,"name":"外語教學中心","decorType":"university"},{"id":"way-191358161","lat":25.015447,"lon":121.537098,"name":"小小福","decorType":"university"},{"id":"way-191358164","lat":25.011072,"lon":121.54065,"name":"昆蟲館","decorType":"university"},{"id":"way-191360823","lat":25.021491,"lon":121.537376,"name":"未命名大學&學院","decorType":"university"},{"id":"way-191360824","lat":25.014802,"lon":121.537138,"name":"地質系館","decorType":"university"},{"id":"way-191360826","lat":25.014777,"lon":121.536585,"name":"展書樓","decorType":"university"},{"id":"way-191360827","lat":25.014777,"lon":121.538445,"name":"浩瀚樓","decorType":"university"},{"id":"way-191360828","lat":25.016307,"lon":121.538451,"name":"生工系實驗室","decorType":"university"},{"id":"way-191360830","lat":25.016634,"lon":121.538664,"name":"花卉館","decorType":"university"},{"id":"way-191524010","lat":25.018721,"lon":121.536841,"name":"未命名橋樑","decorType":"bridge"},{"id":"way-191757820","lat":25.01483,"lon":121.538937,"name":"大氣系館","decorType":"university"},{"id":"way-191757841","lat":25.013466,"lon":121.536363,"name":"捷絲旅","decorType":"hotel"},{"id":"way-191780023","lat":25.017918,"lon":121.537017,"name":"未命名公園","decorType":"park"},{"id":"way-192060405","lat":25.015707,"lon":121.535775,"name":"營繕組水電股","decorType":"university"},{"id":"way-192060407","lat":25.014966,"lon":121.538717,"name":"氣象館","decorType":"university"},{"id":"way-192060423","lat":25.014048,"lon":121.538977,"name":"食品科技館","decorType":"university"},{"id":"way-192060460","lat":25.015709,"lon":121.547184,"name":"生物技術研究中心","decorType":"university"},{"id":"way-192060462","lat":25.01598,"lon":121.535483,"name":"未命名大學&學院","decorType":"university"},{"id":"way-192060464","lat":25.015746,"lon":121.53621,"name":"行政大樓西側平房","decorType":"university"},{"id":"way-192060472","lat":25.015936,"lon":121.536794,"name":"第一會議室","decorType":"university"},{"id":"way-192626432","lat":25.01894,"lon":121.54582,"name":"未命名大學&學院","decorType":"university"},{"id":"way-192626438","lat":25.017918,"lon":121.547089,"name":"土研大樓","decorType":"university"},{"id":"way-192626451","lat":25.017113,"lon":121.547909,"name":"地震中心","decorType":"university"},{"id":"way-192637384","lat":25.011431,"lon":121.54561,"name":"資源回收場","decorType":"university"},{"id":"way-192637386","lat":25.011875,"lon":121.545309,"name":"實驗動物中心","decorType":"university"},{"id":"way-192637397","lat":25.012011,"lon":121.544804,"name":"環境大樓","decorType":"university"},{"id":"way-192884940","lat":25.015504,"lon":121.543216,"name":"台大動物醫院","decorType":"university"},{"id":"way-193253432","lat":25.011771,"lon":121.53785,"name":"未命名橋樑","decorType":"bridge"},{"id":"way-194300396","lat":25.01586,"lon":121.538127,"name":"臺大農場農產品展示中心","decorType":"university"},{"id":"way-194580871","lat":25.020705,"lon":121.546035,"name":"大安運動中心","decorType":"stadium"},{"id":"way-196535735","lat":25.008222,"lon":121.535997,"name":"中正堂","decorType":"university"},{"id":"way-196633265","lat":25.007523,"lon":121.535408,"name":"理學院大樓A","decorType":"university"},{"id":"way-196634362","lat":25.008686,"lon":121.535288,"name":"公館校區體育館","decorType":"university"},{"id":"way-196634563","lat":25.008207,"lon":121.535351,"name":"歐洲公園","decorType":"park"},{"id":"way-197614303","lat":25.008432,"lon":121.536549,"name":"生態池","decorType":"park"},{"id":"way-198269014","lat":25.022772,"lon":121.54087,"name":"敦親公園","decorType":"park"},{"id":"way-202164133","lat":25.013859,"lon":121.54276,"name":"學生活動中心","decorType":"university"},{"id":"way-202164501","lat":25.014174,"lon":121.543209,"name":"體育館","decorType":"university"},{"id":"way-229193793","lat":25.011086,"lon":121.5364,"name":"基隆路高架道路","decorType":"bridge"},{"id":"way-229801684","lat":25.011392,"lon":121.53732,"name":"未命名橋樑","decorType":"bridge"},{"id":"way-238689693","lat":25.010539,"lon":121.535914,"name":"基隆路高架道路","decorType":"bridge"},{"id":"way-238689696","lat":25.016652,"lon":121.543749,"name":"基隆路高架道路","decorType":"bridge"},{"id":"way-249701078","lat":25.013039,"lon":121.54022,"name":"國際大樓","decorType":"university"},{"id":"way-249702325","lat":25.013231,"lon":121.541081,"name":"行政大樓","decorType":"university"},{"id":"way-263153811","lat":25.018254,"lon":121.542273,"name":"獸醫三館","decorType":"university"},{"id":"way-299815318","lat":25.019317,"lon":121.541662,"name":"德田館","decorType":"university"},{"id":"way-299815319","lat":25.015317,"lon":121.537984,"name":"鹿鳴廣場","decorType":"park"},{"id":"way-299837902","lat":25.016203,"lon":121.539423,"name":"舟山路","decorType":"bridge"},{"id":"way-311536360","lat":25.020413,"lon":121.5423,"name":"辜振甫先生紀念圖書館","decorType":"library"},{"id":"way-311536532","lat":25.020261,"lon":121.542512,"name":"未命名公園","decorType":"park"},{"id":"way-312614613","lat":25.009077,"lon":121.535528,"name":"未命名橋樑","decorType":"bridge"},{"id":"way-323467344","lat":25.013349,"lon":121.542153,"name":"工程一館","decorType":"university"},{"id":"way-323467348","lat":25.014344,"lon":121.541769,"name":"第一教學大樓","decorType":"university"},{"id":"way-323467350","lat":25.013876,"lon":121.541774,"name":"第四教學大樓","decorType":"university"},{"id":"way-323467352","lat":25.013501,"lon":121.542906,"name":"第三教學大樓","decorType":"university"},{"id":"way-324901035","lat":25.022669,"lon":121.545125,"name":"體育館","decorType":"university"},{"id":"way-324901039","lat":25.022985,"lon":121.544087,"name":"創意館","decorType":"university"},{"id":"way-324901040","lat":25.022227,"lon":121.544238,"name":"泳健館","decorType":"university"},{"id":"way-324901041","lat":25.022273,"lon":121.544872,"name":"明德樓","decorType":"university"},{"id":"way-326202541","lat":25.010423,"lon":121.535822,"name":"河濱福德宮","decorType":"shrine"},{"id":"way-327217632","lat":25.015564,"lon":121.537598,"name":"小木屋鬆餅","decorType":"sweetshop"},{"id":"way-345047186","lat":25.016888,"lon":121.536776,"name":"未命名水邊","decorType":"waterside"},{"id":"way-353807591","lat":25.01104,"lon":121.537661,"name":"未命名公園","decorType":"park"},{"id":"way-359397573","lat":25.014496,"lon":121.537401,"name":"地質標本館","decorType":"art_gallery"},{"id":"way-359804565","lat":25.013051,"lon":121.544279,"name":"未命名大學&學院","decorType":"university"},{"id":"way-359804566","lat":25.013584,"lon":121.546702,"name":"園藝教學管理研究室","decorType":"university"},{"id":"way-359804568","lat":25.012441,"lon":121.54466,"name":"未命名大學&學院","decorType":"university"},{"id":"way-359804569","lat":25.013231,"lon":121.54329,"name":"台大牧場牛奶工廠","decorType":"university"},{"id":"way-359804570","lat":25.011925,"lon":121.545782,"name":"未命名大學&學院","decorType":"university"},{"id":"way-359804574","lat":25.012681,"lon":121.547787,"name":"農業昆蟲館","decorType":"university"},{"id":"way-359804575","lat":25.011832,"lon":121.546185,"name":"翔安大樓","decorType":"university"},{"id":"way-360363438","lat":25.014046,"lon":121.541638,"name":"視聽館","decorType":"university"},{"id":"way-365725612","lat":25.013551,"lon":121.536662,"name":"伯公亭","decorType":"shrine"},{"id":"way-375697615","lat":25.007824,"lon":121.537099,"name":"Zamia","decorType":"park"},{"id":"way-386348289","lat":25.008427,"lon":121.536581,"name":"未命名水邊","decorType":"waterside"},{"id":"way-404718178","lat":25.01387,"lon":121.535331,"name":"未命名公車站","decorType":"bus_stop"},{"id":"way-409000297","lat":25.021787,"lon":121.537414,"name":"次震宇宙館","decorType":"university"},{"id":"way-421635834","lat":25.011568,"lon":121.540455,"name":"公館公園","decorType":"park"},{"id":"way-421635874","lat":25.008784,"lon":121.538841,"name":"未命名公園","decorType":"park"},{"id":"way-426157526","lat":25.022163,"lon":121.547474,"name":"下內埔福安宮","decorType":"shrine"},{"id":"way-426157528","lat":25.021591,"lon":121.545517,"name":"台北和平籃球館","decorType":"stadium"},{"id":"way-452478170","lat":25.009004,"lon":121.536545,"name":"萬盛溪","decorType":"waterside"},{"id":"way-454017681","lat":25.012936,"lon":121.536608,"name":"第二學生活動中心","decorType":"university"},{"id":"way-454017682","lat":25.013876,"lon":121.539275,"name":"食品研發大樓","decorType":"university"},{"id":"way-454806745","lat":25.022877,"lon":121.540598,"name":"未命名公園","decorType":"park"},{"id":"way-456763672","lat":25.014576,"lon":121.536713,"name":"展書樓後棟","decorType":"university"},{"id":"way-502865699","lat":25.014586,"lon":121.537037,"name":"地質系小屋/薄片室","decorType":"university"},{"id":"way-535165809","lat":25.021608,"lon":121.546643,"name":"未命名公園","decorType":"park"},{"id":"way-554778090","lat":25.010493,"lon":121.537014,"name":"五月家青年旅舍","decorType":"hotel"},{"id":"way-557838244","lat":25.013551,"lon":121.540753,"name":"未命名水邊","decorType":"waterside"},{"id":"way-562776018","lat":25.015118,"lon":121.537141,"name":"岩石公園","decorType":"park"},{"id":"way-571750532","lat":25.014674,"lon":121.542442,"name":"司令台","decorType":"university"},{"id":"way-578043431","lat":25.02228,"lon":121.540273,"name":"龍淵里綠地二號公園","decorType":"park"},{"id":"way-584536487","lat":25.019071,"lon":121.537534,"name":"瑠公圳原址水道","decorType":"waterside"},{"id":"way-584536491","lat":25.019008,"lon":121.537526,"name":"未命名橋樑","decorType":"bridge"},{"id":"way-603803111","lat":25.007823,"lon":121.536985,"name":"警衛室","decorType":"university"},{"id":"way-603803131","lat":25.00809,"lon":121.536603,"name":"公館校區行政大樓","decorType":"university"},{"id":"way-603930824","lat":25.021851,"lon":121.547908,"name":"未命名公園","decorType":"park"},{"id":"way-615768526","lat":25.02209,"lon":121.548209,"name":"未命名公園","decorType":"park"},{"id":"way-616346341","lat":25.013623,"lon":121.543198,"name":"國際會館","decorType":"hotel"},{"id":"way-616346342","lat":25.011972,"lon":121.541729,"name":"臺灣建築科技中心","decorType":"university"},{"id":"way-646293060","lat":25.015042,"lon":121.542796,"name":"研揚大樓","decorType":"university"},{"id":"way-646301762","lat":25.014233,"lon":121.541377,"name":"綜合研究大樓","decorType":"university"},{"id":"way-646382023","lat":25.013733,"lon":121.543096,"name":"未命名大學&學院","decorType":"university"},{"id":"way-646382060","lat":25.011894,"lon":121.541375,"name":"電資館","decorType":"university"},{"id":"way-646382062","lat":25.012392,"lon":121.541258,"name":"管理大樓","decorType":"university"},{"id":"way-646382066","lat":25.01253,"lon":121.540717,"name":"工程二館","decorType":"university"},{"id":"way-646382069","lat":25.012073,"lon":121.540884,"name":"第二教學大樓","decorType":"university"},{"id":"way-712325728","lat":25.016265,"lon":121.542535,"name":"臺大立體機車停車場","decorType":"university"},{"id":"way-712593157","lat":25.012971,"lon":121.539347,"name":"基隆路高架道路","decorType":"bridge"},{"id":"way-720453353","lat":25.013692,"lon":121.54767,"name":"未命名橋樑","decorType":"bridge"},{"id":"way-720453359","lat":25.01255,"lon":121.544305,"name":"動科系","decorType":"university"},{"id":"way-721488131","lat":25.013807,"lon":121.54017,"name":"基隆路高架道路","decorType":"bridge"},{"id":"way-722218809","lat":25.013085,"lon":121.543844,"name":"未命名大學&學院","decorType":"university"},{"id":"way-722218810","lat":25.012855,"lon":121.543522,"name":"未命名大學&學院","decorType":"university"},{"id":"way-722218812","lat":25.013345,"lon":121.543782,"name":"未命名大學&學院","decorType":"university"},{"id":"way-722218813","lat":25.013463,"lon":121.543941,"name":"未命名大學&學院","decorType":"university"},{"id":"way-722218814","lat":25.013618,"lon":121.543825,"name":"未命名大學&學院","decorType":"university"},{"id":"way-722218815","lat":25.013551,"lon":121.543716,"name":"未命名大學&學院","decorType":"university"},{"id":"way-722218816","lat":25.012687,"lon":121.54465,"name":"未命名大學&學院","decorType":"university"},{"id":"way-722218817","lat":25.012534,"lon":121.54454,"name":"未命名大學&學院","decorType":"university"},{"id":"way-722218818","lat":25.012818,"lon":121.544225,"name":"未命名大學&學院","decorType":"university"},{"id":"way-813068152","lat":25.022603,"lon":121.540754,"name":"有求必應堂","decorType":"shrine"},{"id":"way-998182526","lat":25.019805,"lon":121.5398,"name":"未命名森林","decorType":"forest"},{"id":"way-1026471848","lat":25.011269,"lon":121.535649,"name":"未命名橋樑","decorType":"bridge"},{"id":"way-1052244435","lat":25.020028,"lon":121.538245,"name":"未命名大學&學院","decorType":"university"},{"id":"way-1052246503","lat":25.019696,"lon":121.53715,"name":"未命名山丘","decorType":"mountain"},{"id":"way-1052246504","lat":25.019682,"lon":121.537194,"name":"未命名山丘","decorType":"mountain"},{"id":"way-1052252267","lat":25.020164,"lon":121.543894,"name":"未命名水邊","decorType":"waterside"},{"id":"way-1052252286","lat":25.020659,"lon":121.536184,"name":"游泳池","decorType":"university"},{"id":"way-1052252308","lat":25.01971,"lon":121.536489,"name":"臺大體育館","decorType":"university"},{"id":"way-1052254387","lat":25.02041,"lon":121.544748,"name":"未命名公園","decorType":"park"},{"id":"way-1052254388","lat":25.020319,"lon":121.544134,"name":"未命名公園","decorType":"park"},{"id":"way-1052254389","lat":25.020388,"lon":121.544538,"name":"未命名公園","decorType":"park"},{"id":"way-1052254390","lat":25.020535,"lon":121.544201,"name":"未命名公園","decorType":"park"},{"id":"way-1052254391","lat":25.020364,"lon":121.544385,"name":"國青大樓","decorType":"university"},{"id":"way-1052254393","lat":25.019926,"lon":121.544774,"name":"萬才館","decorType":"university"},{"id":"way-1052261055","lat":25.018646,"lon":121.543439,"name":"未命名公園","decorType":"park"},{"id":"way-1052261056","lat":25.018092,"lon":121.543442,"name":"未命名公園","decorType":"park"},{"id":"way-1052261057","lat":25.018232,"lon":121.543394,"name":"未命名公園","decorType":"park"},{"id":"way-1052261058","lat":25.018306,"lon":121.543678,"name":"未命名公園","decorType":"park"},{"id":"way-1052261059","lat":25.018231,"lon":121.543621,"name":"未命名公園","decorType":"park"},{"id":"way-1052261060","lat":25.018276,"lon":121.543574,"name":"中非大樓","decorType":"university"},{"id":"way-1052261065","lat":25.018852,"lon":121.545612,"name":"臺灣大學植物教學醫院","decorType":"university"},{"id":"way-1052271427","lat":25.01823,"lon":121.54118,"name":"未命名公園","decorType":"park"},{"id":"way-1052271429","lat":25.018185,"lon":121.541436,"name":"未命名公園","decorType":"park"},{"id":"way-1052271430","lat":25.018272,"lon":121.541435,"name":"未命名公園","decorType":"park"},{"id":"way-1052271431","lat":25.018237,"lon":121.541275,"name":"未命名公園","decorType":"park"},{"id":"way-1052271432","lat":25.01827,"lon":121.541158,"name":"未命名公園","decorType":"park"},{"id":"way-1052271433","lat":25.018366,"lon":121.541154,"name":"未命名公園","decorType":"park"},{"id":"way-1052271434","lat":25.018389,"lon":121.541434,"name":"未命名公園","decorType":"park"},{"id":"way-1052271435","lat":25.018367,"lon":121.541273,"name":"未命名公園","decorType":"park"},{"id":"way-1052271436","lat":25.018082,"lon":121.541038,"name":"未命名公園","decorType":"park"},{"id":"way-1052271443","lat":25.017612,"lon":121.54145,"name":"未命名公園","decorType":"park"},{"id":"way-1052271444","lat":25.017989,"lon":121.54145,"name":"未命名公園","decorType":"park"},{"id":"way-1052271446","lat":25.017014,"lon":121.541006,"name":"未命名公園","decorType":"park"},{"id":"way-1052271447","lat":25.016913,"lon":121.540724,"name":"未命名公園","decorType":"park"},{"id":"way-1052271448","lat":25.016936,"lon":121.540935,"name":"未命名公園","decorType":"park"},{"id":"way-1052271450","lat":25.016997,"lon":121.540626,"name":"未命名公園","decorType":"park"},{"id":"way-1052271451","lat":25.016997,"lon":121.540463,"name":"未命名公園","decorType":"park"},{"id":"way-1052271452","lat":25.017143,"lon":121.540459,"name":"未命名公園","decorType":"park"},{"id":"way-1052271453","lat":25.017507,"lon":121.540339,"name":"未命名公園","decorType":"park"},{"id":"way-1052271454","lat":25.017159,"lon":121.54031,"name":"未命名公園","decorType":"park"},{"id":"way-1052271455","lat":25.017238,"lon":121.540254,"name":"未命名公園","decorType":"park"},{"id":"way-1052271456","lat":25.017437,"lon":121.540251,"name":"未命名公園","decorType":"park"},{"id":"way-1052271457","lat":25.017491,"lon":121.540315,"name":"未命名公園","decorType":"park"},{"id":"way-1052271458","lat":25.017186,"lon":121.54032,"name":"未命名公園","decorType":"park"},{"id":"way-1052271459","lat":25.017944,"lon":121.540676,"name":"未命名公園","decorType":"park"},{"id":"way-1052271460","lat":25.018293,"lon":121.540755,"name":"農藝館","decorType":"university"},{"id":"way-1052271461","lat":25.017813,"lon":121.540908,"name":"未命名公園","decorType":"park"},{"id":"way-1052271462","lat":25.017882,"lon":121.54092,"name":"未命名公園","decorType":"park"},{"id":"way-1052271463","lat":25.017834,"lon":121.540779,"name":"未命名公園","decorType":"park"},{"id":"way-1052271465","lat":25.017714,"lon":121.540768,"name":"未命名公園","decorType":"park"},{"id":"way-1052271466","lat":25.0177,"lon":121.540608,"name":"未命名公園","decorType":"park"},{"id":"way-1052271467","lat":25.017697,"lon":121.540452,"name":"未命名公園","decorType":"park"},{"id":"way-1052271468","lat":25.01754,"lon":121.540453,"name":"未命名公園","decorType":"park"},{"id":"way-1052271470","lat":25.017149,"lon":121.540623,"name":"未命名公園","decorType":"park"},{"id":"way-1052271471","lat":25.017545,"lon":121.540614,"name":"未命名公園","decorType":"park"},{"id":"way-1052273373","lat":25.01786,"lon":121.540147,"name":"未命名公園","decorType":"park"},{"id":"way-1052273374","lat":25.017858,"lon":121.539971,"name":"未命名公園","decorType":"park"},{"id":"way-1052273375","lat":25.018019,"lon":121.539932,"name":"未命名公園","decorType":"park"},{"id":"way-1052273377","lat":25.018008,"lon":121.539879,"name":"未命名公園","decorType":"park"},{"id":"way-1052275371","lat":25.017185,"lon":121.539261,"name":"未命名公園","decorType":"park"},{"id":"way-1052275372","lat":25.017467,"lon":121.539256,"name":"未命名公園","decorType":"park"},{"id":"way-1052275385","lat":25.017137,"lon":121.539767,"name":"未命名公園","decorType":"park"},{"id":"way-1052275386","lat":25.017526,"lon":121.539761,"name":"未命名公園","decorType":"park"},{"id":"way-1052279962","lat":25.017751,"lon":121.53969,"name":"未命名公園","decorType":"park"},{"id":"way-1052279963","lat":25.017661,"lon":121.53956,"name":"未命名公園","decorType":"park"},{"id":"way-1052279968","lat":25.016449,"lon":121.54037,"name":"未命名水邊","decorType":"waterside"},{"id":"way-1052279972","lat":25.016875,"lon":121.540391,"name":"未命名公園","decorType":"park"},{"id":"way-1052279973","lat":25.016642,"lon":121.540281,"name":"未命名公園","decorType":"park"},{"id":"way-1052279974","lat":25.017003,"lon":121.540123,"name":"未命名公園","decorType":"park"},{"id":"way-1052281784","lat":25.016354,"lon":121.539146,"name":"水工試驗所","decorType":"university"},{"id":"way-1052281785","lat":25.016605,"lon":121.539137,"name":"水工試驗所舊館","decorType":"university"},{"id":"way-1052281786","lat":25.016872,"lon":121.538999,"name":"森林系館","decorType":"university"},{"id":"way-1052281789","lat":25.016407,"lon":121.539142,"name":"未命名水邊","decorType":"waterside"},{"id":"way-1052288219","lat":25.015126,"lon":121.541167,"name":"綠房子","decorType":"university"},{"id":"way-1052288235","lat":25.01573,"lon":121.540487,"name":"未命名水邊","decorType":"waterside"},{"id":"way-1052288242","lat":25.016587,"lon":121.5398,"name":"未命名大學&學院","decorType":"university"},{"id":"way-1052288243","lat":25.016585,"lon":121.539731,"name":"未命名大學&學院","decorType":"university"},{"id":"way-1052288244","lat":25.016655,"lon":121.539663,"name":"林產館","decorType":"university"},{"id":"way-1052288246","lat":25.016497,"lon":121.539671,"name":"航空測量館","decorType":"university"},{"id":"way-1052293681","lat":25.016128,"lon":121.541071,"name":"人工控制氣候室","decorType":"university"},{"id":"way-1052293683","lat":25.016841,"lon":121.541527,"name":"未命名森林","decorType":"forest"},{"id":"way-1052293693","lat":25.016684,"lon":121.541344,"name":"未命名山丘","decorType":"mountain"},{"id":"way-1052293694","lat":25.016698,"lon":121.541379,"name":"未命名山丘","decorType":"mountain"},{"id":"way-1052294782","lat":25.015535,"lon":121.541569,"name":"農業試驗場辦公室","decorType":"university"},{"id":"way-1052294783","lat":25.015633,"lon":121.541314,"name":"未命名水邊","decorType":"waterside"},{"id":"way-1052294784","lat":25.015688,"lon":121.541268,"name":"未命名水邊","decorType":"waterside"},{"id":"way-1052301466","lat":25.017337,"lon":121.543662,"name":"未命名水邊","decorType":"waterside"},{"id":"way-1052301467","lat":25.017281,"lon":121.543607,"name":"納環館","decorType":"university"},{"id":"way-1052301474","lat":25.016623,"lon":121.54216,"name":"聲學實驗室","decorType":"university"},{"id":"way-1052301475","lat":25.017083,"lon":121.542678,"name":"工程科學及海洋工程學系館","decorType":"university"},{"id":"way-1052301478","lat":25.014996,"lon":121.541167,"name":"未命名水邊","decorType":"waterside"},{"id":"way-1052301480","lat":25.015412,"lon":121.541722,"name":"未命名大學&學院","decorType":"university"},{"id":"way-1052301490","lat":25.016023,"lon":121.541923,"name":"土壤館","decorType":"university"},{"id":"way-1052301502","lat":25.015724,"lon":121.541794,"name":"製冰/麵包廠","decorType":"university"},{"id":"way-1052301503","lat":25.015893,"lon":121.541657,"name":"稻香館","decorType":"university"},{"id":"way-1052304739","lat":25.013907,"lon":121.544493,"name":"未命名公園","decorType":"park"},{"id":"way-1052304740","lat":25.013967,"lon":121.544496,"name":"未命名公園","decorType":"park"},{"id":"way-1052304741","lat":25.014401,"lon":121.543793,"name":"未命名公園","decorType":"park"},{"id":"way-1052319752","lat":25.017475,"lon":121.538422,"name":"未命名公園","decorType":"park"},{"id":"way-1052319753","lat":25.017472,"lon":121.53821,"name":"未命名公園","decorType":"park"},{"id":"way-1052319754","lat":25.017395,"lon":121.538011,"name":"未命名公園","decorType":"park"},{"id":"way-1052319755","lat":25.017393,"lon":121.537877,"name":"未命名公園","decorType":"park"},{"id":"way-1052319756","lat":25.017392,"lon":121.537739,"name":"未命名公園","decorType":"park"},{"id":"way-1052319757","lat":25.017384,"lon":121.537516,"name":"未命名公園","decorType":"park"},{"id":"way-1052319758","lat":25.017382,"lon":121.537325,"name":"未命名公園","decorType":"park"},{"id":"way-1052319759","lat":25.01738,"lon":121.537137,"name":"未命名公園","decorType":"park"},{"id":"way-1052319760","lat":25.017374,"lon":121.536921,"name":"未命名公園","decorType":"park"},{"id":"way-1052319761","lat":25.017373,"lon":121.536768,"name":"未命名公園","decorType":"park"},{"id":"way-1052319762","lat":25.017371,"lon":121.536615,"name":"未命名公園","decorType":"park"},{"id":"way-1052319763","lat":25.017368,"lon":121.5364,"name":"未命名公園","decorType":"park"},{"id":"way-1052319764","lat":25.017365,"lon":121.536209,"name":"未命名公園","decorType":"park"},{"id":"way-1052319765","lat":25.017363,"lon":121.536023,"name":"未命名公園","decorType":"park"},{"id":"way-1052319766","lat":25.017358,"lon":121.535775,"name":"未命名公園","decorType":"park"},{"id":"way-1052319767","lat":25.017356,"lon":121.535604,"name":"未命名公園","decorType":"park"},{"id":"way-1052319768","lat":25.017351,"lon":121.535312,"name":"未命名公園","decorType":"park"},{"id":"way-1052319775","lat":25.017401,"lon":121.535311,"name":"未命名公園","decorType":"park"},{"id":"way-1052319776","lat":25.017466,"lon":121.536213,"name":"未命名公園","decorType":"park"},{"id":"way-1052319777","lat":25.017423,"lon":121.535689,"name":"未命名公園","decorType":"park"},{"id":"way-1052319778","lat":25.017435,"lon":121.536769,"name":"未命名公園","decorType":"park"},{"id":"way-1052319779","lat":25.017462,"lon":121.53662,"name":"未命名公園","decorType":"park"},{"id":"way-1052319780","lat":25.017468,"lon":121.536915,"name":"未命名公園","decorType":"park"},{"id":"way-1052319781","lat":25.017493,"lon":121.537889,"name":"未命名公園","decorType":"park"},{"id":"way-1052319782","lat":25.017483,"lon":121.537327,"name":"未命名公園","decorType":"park"},{"id":"way-1052496698","lat":25.016131,"lon":121.544357,"name":"未命名公園","decorType":"park"},{"id":"way-1052496699","lat":25.016163,"lon":121.544632,"name":"未命名公園","decorType":"park"},{"id":"way-1052496703","lat":25.015678,"lon":121.545381,"name":"未命名公園","decorType":"park"},{"id":"way-1052496710","lat":25.015829,"lon":121.545529,"name":"未命名公園","decorType":"park"},{"id":"way-1052496711","lat":25.016175,"lon":121.544143,"name":"未命名公園","decorType":"park"},{"id":"way-1052496712","lat":25.016803,"lon":121.544355,"name":"未命名公園","decorType":"park"},{"id":"way-1052496713","lat":25.016634,"lon":121.544642,"name":"未命名公園","decorType":"park"},{"id":"way-1052496715","lat":25.01635,"lon":121.544083,"name":"未命名公園","decorType":"park"},{"id":"way-1052496717","lat":25.016476,"lon":121.54498,"name":"未命名大學&學院","decorType":"university"},{"id":"way-1052496721","lat":25.016305,"lon":121.544655,"name":"未命名公園","decorType":"park"},{"id":"way-1052496729","lat":25.015888,"lon":121.544804,"name":"未命名公園","decorType":"park"},{"id":"way-1052496730","lat":25.016089,"lon":121.544701,"name":"未命名公園","decorType":"park"},{"id":"way-1052496738","lat":25.016307,"lon":121.544181,"name":"未命名公園","decorType":"park"},{"id":"way-1052496747","lat":25.016511,"lon":121.544307,"name":"未命名公園","decorType":"park"},{"id":"way-1052496748","lat":25.0165,"lon":121.544206,"name":"未命名公園","decorType":"park"},{"id":"way-1052496749","lat":25.016577,"lon":121.544283,"name":"未命名公園","decorType":"park"},{"id":"way-1052496750","lat":25.016567,"lon":121.544197,"name":"未命名公園","decorType":"park"},{"id":"way-1182954806","lat":25.010835,"lon":121.535705,"name":"基隆路四段","decorType":"bridge"},{"id":"way-1182954808","lat":25.010712,"lon":121.535786,"name":"基隆路四段","decorType":"bridge"},{"id":"way-1182954809","lat":25.010642,"lon":121.535807,"name":"福和橋機慢車道","decorType":"bridge"},{"id":"way-1182954810","lat":25.010625,"lon":121.535839,"name":"未命名橋樑","decorType":"bridge"},{"id":"way-1291566884","lat":25.015142,"lon":121.539208,"name":"未命名大學&學院","decorType":"university"},{"id":"way-1291566888","lat":25.014509,"lon":121.53981,"name":"自動控溫管理室","decorType":"university"},{"id":"way-1303202939","lat":25.017699,"lon":121.540077,"name":"未命名公園","decorType":"park"},{"id":"way-1303517415","lat":25.018548,"lon":121.536743,"name":"普通教學館","decorType":"university"},{"id":"way-1303528872","lat":25.017911,"lon":121.536499,"name":"未命名公園","decorType":"park"},{"id":"way-1315323592","lat":25.014604,"lon":121.543191,"name":"醫揚大樓","decorType":"university"},{"id":"way-1321582119","lat":25.017183,"lon":121.535188,"name":"未命名公園","decorType":"park"},{"id":"way-1321582120","lat":25.017186,"lon":121.535441,"name":"未命名公園","decorType":"park"},{"id":"way-1321582121","lat":25.017188,"lon":121.535608,"name":"未命名公園","decorType":"park"},{"id":"way-1321582122","lat":25.01719,"lon":121.535779,"name":"未命名公園","decorType":"park"},{"id":"way-1321582123","lat":25.017193,"lon":121.536024,"name":"未命名公園","decorType":"park"},{"id":"way-1321582124","lat":25.017196,"lon":121.536212,"name":"未命名公園","decorType":"park"},{"id":"way-1321582125","lat":25.017198,"lon":121.536403,"name":"未命名公園","decorType":"park"},{"id":"way-1321582132","lat":25.017089,"lon":121.535613,"name":"未命名公園","decorType":"park"},{"id":"way-1321582133","lat":25.017099,"lon":121.536216,"name":"未命名公園","decorType":"park"},{"id":"way-1321582134","lat":25.01661,"lon":121.536908,"name":"未命名公園","decorType":"park"},{"id":"way-1321582135","lat":25.016606,"lon":121.536654,"name":"未命名公園","decorType":"park"},{"id":"way-1321582136","lat":25.0165,"lon":121.537023,"name":"未命名公園","decorType":"park"},{"id":"way-1321582137","lat":25.016523,"lon":121.536558,"name":"未命名公園","decorType":"park"},{"id":"way-1321582138","lat":25.016647,"lon":121.53678,"name":"未命名公園","decorType":"park"},{"id":"way-1321582139","lat":25.017208,"lon":121.536926,"name":"未命名公園","decorType":"park"},{"id":"way-1321582140","lat":25.017206,"lon":121.536773,"name":"未命名公園","decorType":"park"},{"id":"way-1321582141","lat":25.017204,"lon":121.53662,"name":"未命名公園","decorType":"park"},{"id":"way-1321582142","lat":25.017126,"lon":121.536621,"name":"未命名公園","decorType":"park"},{"id":"way-1321582143","lat":25.016889,"lon":121.53693,"name":"未命名公園","decorType":"park"},{"id":"way-1321582144","lat":25.016887,"lon":121.536777,"name":"未命名公園","decorType":"park"},{"id":"way-1321582145","lat":25.016885,"lon":121.536624,"name":"未命名公園","decorType":"park"},{"id":"way-1321582146","lat":25.01713,"lon":121.536927,"name":"未命名公園","decorType":"park"},{"id":"way-1321582147","lat":25.017128,"lon":121.536774,"name":"未命名公園","decorType":"park"},{"id":"way-1321845983","lat":25.014659,"lon":121.535565,"name":"未命名公園","decorType":"park"},{"id":"way-1321851971","lat":25.016466,"lon":121.535192,"name":"植物標本館","decorType":"university"},{"id":"way-1322072575","lat":25.014285,"lon":121.536977,"name":"未命名公園","decorType":"park"},{"id":"way-1322090301","lat":25.016025,"lon":121.537716,"name":"未命名水邊","decorType":"waterside"},{"id":"way-1322106304","lat":25.014154,"lon":121.538373,"name":"未命名公園","decorType":"park"},{"id":"way-1322643454","lat":25.016674,"lon":121.537813,"name":"未命名水邊","decorType":"waterside"},{"id":"way-1322649991","lat":25.016473,"lon":121.538765,"name":"未命名大學&學院","decorType":"university"},{"id":"way-1322649992","lat":25.016153,"lon":121.538928,"name":"未命名大學&學院","decorType":"university"},{"id":"way-1322649993","lat":25.016238,"lon":121.538643,"name":"未命名大學&學院","decorType":"university"},{"id":"way-1322649996","lat":25.016046,"lon":121.53822,"name":"未命名大學&學院","decorType":"university"},{"id":"way-1322936718","lat":25.016265,"lon":121.539182,"name":"未命名橋樑","decorType":"bridge"},{"id":"way-1322937349","lat":25.016122,"lon":121.53862,"name":"農化系土壤環境化學研究室","decorType":"university"},{"id":"way-1322941106","lat":25.016062,"lon":121.537506,"name":"未命名橋樑","decorType":"bridge"},{"id":"way-1322942858","lat":25.017141,"lon":121.538735,"name":"未命名公園","decorType":"park"},{"id":"way-1322942859","lat":25.017136,"lon":121.538321,"name":"未命名公園","decorType":"park"},{"id":"way-1322942860","lat":25.017121,"lon":121.537881,"name":"未命名公園","decorType":"park"},{"id":"way-1322942861","lat":25.017113,"lon":121.537332,"name":"未命名公園","decorType":"park"},{"id":"way-1322944311","lat":25.016415,"lon":121.53724,"name":"未命名公園","decorType":"park"},{"id":"way-1322944312","lat":25.016498,"lon":121.537235,"name":"未命名公園","decorType":"park"},{"id":"way-1322944313","lat":25.016587,"lon":121.537234,"name":"未命名公園","decorType":"park"},{"id":"way-1322944314","lat":25.016877,"lon":121.536269,"name":"未命名公園","decorType":"park"},{"id":"way-1322944315","lat":25.016937,"lon":121.537948,"name":"未命名公園","decorType":"park"},{"id":"way-1322944317","lat":25.016825,"lon":121.537301,"name":"未命名公園","decorType":"park"},{"id":"way-1322946978","lat":25.016968,"lon":121.539198,"name":"未命名公園","decorType":"park"},{"id":"way-1322946980","lat":25.016967,"lon":121.538784,"name":"未命名公園","decorType":"park"},{"id":"way-1322954565","lat":25.016989,"lon":121.539601,"name":"未命名公園","decorType":"park"},{"id":"way-1322954566","lat":25.016938,"lon":121.539491,"name":"未命名公園","decorType":"park"},{"id":"way-1323117936","lat":25.014058,"lon":121.538795,"name":"未命名公園","decorType":"park"},{"id":"way-1323117937","lat":25.013837,"lon":121.538973,"name":"未命名公園","decorType":"park"},{"id":"way-1323117944","lat":25.014651,"lon":121.538389,"name":"未命名公園","decorType":"park"},{"id":"way-1323117945","lat":25.014752,"lon":121.538316,"name":"未命名公園","decorType":"park"},{"id":"way-1323117946","lat":25.014863,"lon":121.53812,"name":"未命名公園","decorType":"park"},{"id":"way-1323117947","lat":25.014676,"lon":121.538271,"name":"未命名公園","decorType":"park"},{"id":"way-1323117948","lat":25.014986,"lon":121.53815,"name":"未命名公園","decorType":"park"},{"id":"way-1323117949","lat":25.014886,"lon":121.53826,"name":"未命名公園","decorType":"park"},{"id":"way-1323119157","lat":25.014736,"lon":121.539006,"name":"未命名公園","decorType":"park"},{"id":"way-1323125044","lat":25.013996,"lon":121.538476,"name":"未命名公園","decorType":"park"},{"id":"way-1323125045","lat":25.013936,"lon":121.538641,"name":"未命名公園","decorType":"park"},{"id":"way-1323125046","lat":25.013974,"lon":121.538697,"name":"未命名公園","decorType":"park"},{"id":"way-1323125047","lat":25.014069,"lon":121.538619,"name":"未命名公園","decorType":"park"},{"id":"way-1323125051","lat":25.013667,"lon":121.538887,"name":"未命名公園","decorType":"park"},{"id":"way-1323125053","lat":25.013969,"lon":121.540041,"name":"未命名公園","decorType":"park"},{"id":"way-1323126651","lat":25.015325,"lon":121.538945,"name":"未命名公園","decorType":"park"},{"id":"way-1323127823","lat":25.015537,"lon":121.539152,"name":"未命名公園","decorType":"park"},{"id":"way-1323127824","lat":25.015636,"lon":121.538988,"name":"未命名公園","decorType":"park"},{"id":"way-1323127825","lat":25.015659,"lon":121.539139,"name":"未命名公園","decorType":"park"},{"id":"way-1323127827","lat":25.015704,"lon":121.538482,"name":"未命名公園","decorType":"park"},{"id":"way-1323127828","lat":25.015781,"lon":121.538662,"name":"未命名公園","decorType":"park"},{"id":"way-1323128283","lat":25.015401,"lon":121.538308,"name":"未命名公園","decorType":"park"},{"id":"way-1323128429","lat":25.013567,"lon":121.538799,"name":"雅頌廣場","decorType":"park"},{"id":"way-1323132732","lat":25.015281,"lon":121.536113,"name":"未命名公園","decorType":"park"},{"id":"way-1323132733","lat":25.015257,"lon":121.536005,"name":"未命名公園","decorType":"park"},{"id":"way-1323132734","lat":25.015318,"lon":121.535954,"name":"未命名公園","decorType":"park"},{"id":"way-1323134624","lat":25.014981,"lon":121.536356,"name":"未命名公園","decorType":"park"},{"id":"way-1323134625","lat":25.015508,"lon":121.536382,"name":"未命名公園","decorType":"park"},{"id":"way-1323145791","lat":25.013756,"lon":121.536236,"name":"未命名公園","decorType":"park"},{"id":"way-1323146434","lat":25.014174,"lon":121.536526,"name":"未命名公園","decorType":"park"},{"id":"way-1323150698","lat":25.014324,"lon":121.537528,"name":"未命名公園","decorType":"park"},{"id":"way-1323150699","lat":25.014253,"lon":121.537586,"name":"未命名公園","decorType":"park"},{"id":"way-1323150700","lat":25.014588,"lon":121.537592,"name":"未命名公園","decorType":"park"},{"id":"way-1323152474","lat":25.014759,"lon":121.536213,"name":"未命名水邊","decorType":"waterside"},{"id":"way-1323196763","lat":25.018435,"lon":121.537354,"name":"未命名公園","decorType":"park"},{"id":"way-1323196793","lat":25.017716,"lon":121.536011,"name":"未命名水邊","decorType":"waterside"},{"id":"way-1323198013","lat":25.018963,"lon":121.537203,"name":"未命名公園","decorType":"park"},{"id":"way-1323198014","lat":25.01908,"lon":121.537003,"name":"未命名公園","decorType":"park"},{"id":"way-1323198015","lat":25.019076,"lon":121.536718,"name":"未命名公園","decorType":"park"},{"id":"way-1323198016","lat":25.019071,"lon":121.536457,"name":"未命名公園","decorType":"park"},{"id":"way-1323198017","lat":25.019066,"lon":121.536095,"name":"未命名公園","decorType":"park"},{"id":"way-1323198018","lat":25.018751,"lon":121.536699,"name":"未命名公園","decorType":"park"},{"id":"way-1323198019","lat":25.018769,"lon":121.536951,"name":"未命名公園","decorType":"park"},{"id":"way-1323198020","lat":25.01877,"lon":121.53644,"name":"未命名公園","decorType":"park"},{"id":"way-1323198021","lat":25.01867,"lon":121.537232,"name":"未命名公園","decorType":"park"},{"id":"way-1323198022","lat":25.018671,"lon":121.537042,"name":"未命名公園","decorType":"park"},{"id":"way-1323198023","lat":25.018676,"lon":121.536704,"name":"未命名公園","decorType":"park"},{"id":"way-1323198024","lat":25.018664,"lon":121.536446,"name":"未命名公園","decorType":"park"},{"id":"way-1323206829","lat":25.019521,"lon":121.538551,"name":"未命名公園","decorType":"park"},{"id":"way-1323206831","lat":25.019438,"lon":121.538341,"name":"未命名公園","decorType":"park"},{"id":"way-1323207892","lat":25.018478,"lon":121.538236,"name":"未命名公園","decorType":"park"},{"id":"way-1323207893","lat":25.01869,"lon":121.537748,"name":"未命名公園","decorType":"park"},{"id":"way-1323207896","lat":25.018532,"lon":121.538723,"name":"未命名公園","decorType":"park"},{"id":"way-1323207897","lat":25.01848,"lon":121.538358,"name":"未命名公園","decorType":"park"},{"id":"way-1323207898","lat":25.018651,"lon":121.538202,"name":"未命名公園","decorType":"park"},{"id":"way-1323207899","lat":25.018895,"lon":121.538811,"name":"未命名公園","decorType":"park"},{"id":"way-1323207900","lat":25.018659,"lon":121.538815,"name":"未命名公園","decorType":"park"},{"id":"way-1323207901","lat":25.018851,"lon":121.538618,"name":"未命名公園","decorType":"park"},{"id":"way-1323207902","lat":25.018961,"lon":121.538224,"name":"未命名公園","decorType":"park"},{"id":"way-1323213361","lat":25.019965,"lon":121.538612,"name":"未命名公園","decorType":"park"},{"id":"way-1323213362","lat":25.019993,"lon":121.538829,"name":"未命名公園","decorType":"park"},{"id":"way-1323213363","lat":25.020141,"lon":121.538827,"name":"未命名公園","decorType":"park"},{"id":"way-1323214006","lat":25.019653,"lon":121.538834,"name":"未命名公園","decorType":"park"},{"id":"way-1323214007","lat":25.019722,"lon":121.538831,"name":"未命名公園","decorType":"park"},{"id":"way-1323214008","lat":25.019834,"lon":121.538828,"name":"未命名公園","decorType":"park"},{"id":"way-1323220631","lat":25.020767,"lon":121.540016,"name":"未命名公園","decorType":"park"},{"id":"way-1323220632","lat":25.020763,"lon":121.539673,"name":"未命名公園","decorType":"park"},{"id":"way-1323232225","lat":25.02212,"lon":121.536705,"name":"未命名公園","decorType":"park"},{"id":"way-1323232226","lat":25.021886,"lon":121.537032,"name":"未命名公園","decorType":"park"},{"id":"way-1323232227","lat":25.021958,"lon":121.536247,"name":"未命名公園","decorType":"park"},{"id":"way-1323232228","lat":25.021979,"lon":121.536576,"name":"未命名公園","decorType":"park"},{"id":"way-1323236763","lat":25.021556,"lon":121.535755,"name":"未命名橋樑","decorType":"bridge"},{"id":"way-1323236765","lat":25.021734,"lon":121.535752,"name":"未命名橋樑","decorType":"bridge"},{"id":"way-1323236779","lat":25.022102,"lon":121.535813,"name":"未命名公園","decorType":"park"},{"id":"way-1323353775","lat":25.018695,"lon":121.539919,"name":"未命名公園","decorType":"park"},{"id":"way-1323353776","lat":25.018572,"lon":121.539702,"name":"未命名公園","decorType":"park"},{"id":"way-1323353777","lat":25.018573,"lon":121.539749,"name":"未命名公園","decorType":"park"},{"id":"way-1323353778","lat":25.018573,"lon":121.539794,"name":"未命名公園","decorType":"park"},{"id":"way-1323353779","lat":25.018618,"lon":121.539793,"name":"未命名公園","decorType":"park"},{"id":"way-1323353780","lat":25.018618,"lon":121.539838,"name":"未命名公園","decorType":"park"},{"id":"way-1323353781","lat":25.018618,"lon":121.539881,"name":"未命名公園","decorType":"park"},{"id":"way-1323353782","lat":25.018617,"lon":121.539702,"name":"未命名公園","decorType":"park"},{"id":"way-1323353783","lat":25.018617,"lon":121.539749,"name":"未命名公園","decorType":"park"},{"id":"way-1323353784","lat":25.018573,"lon":121.539838,"name":"未命名公園","decorType":"park"},{"id":"way-1323353785","lat":25.018574,"lon":121.539885,"name":"未命名公園","decorType":"park"},{"id":"way-1323353786","lat":25.018619,"lon":121.53992,"name":"未命名公園","decorType":"park"},{"id":"way-1323353787","lat":25.018574,"lon":121.53992,"name":"未命名公園","decorType":"park"},{"id":"way-1323353788","lat":25.019298,"lon":121.539867,"name":"未命名公園","decorType":"park"},{"id":"way-1323353789","lat":25.019295,"lon":121.539467,"name":"未命名公園","decorType":"park"},{"id":"way-1323353790","lat":25.018111,"lon":121.53914,"name":"未命名水邊","decorType":"waterside"},{"id":"way-1323353791","lat":25.0183,"lon":121.539138,"name":"未命名水邊","decorType":"waterside"},{"id":"way-1323353794","lat":25.018529,"lon":121.53952,"name":"未命名公園","decorType":"park"},{"id":"way-1323353795","lat":25.019113,"lon":121.539175,"name":"未命名公園","decorType":"park"},{"id":"way-1323353800","lat":25.018672,"lon":121.539256,"name":"未命名公園","decorType":"park"},{"id":"way-1323353815","lat":25.018893,"lon":121.539472,"name":"未命名公園","decorType":"park"},{"id":"way-1323354043","lat":25.018711,"lon":121.540489,"name":"未命名公園","decorType":"park"},{"id":"way-1323354044","lat":25.018819,"lon":121.540406,"name":"未命名公園","decorType":"park"},{"id":"way-1323354045","lat":25.018718,"lon":121.540343,"name":"未命名公園","decorType":"park"},{"id":"way-1323354046","lat":25.018665,"lon":121.540416,"name":"未命名公園","decorType":"park"},{"id":"way-1323354047","lat":25.018545,"lon":121.54029,"name":"未命名公園","decorType":"park"},{"id":"way-1323354048","lat":25.018807,"lon":121.540305,"name":"未命名公園","decorType":"park"},{"id":"way-1323354049","lat":25.018837,"lon":121.540002,"name":"未命名公園","decorType":"park"},{"id":"way-1323354050","lat":25.018777,"lon":121.540032,"name":"未命名公園","decorType":"park"},{"id":"way-1323355606","lat":25.020076,"lon":121.539664,"name":"未命名公園","decorType":"park"},{"id":"way-1323355607","lat":25.020068,"lon":121.539703,"name":"未命名公園","decorType":"park"},{"id":"way-1323355608","lat":25.020208,"lon":121.539298,"name":"未命名公園","decorType":"park"},{"id":"way-1323355610","lat":25.019485,"lon":121.539373,"name":"未命名公園","decorType":"park"},{"id":"way-1323355611","lat":25.019565,"lon":121.539387,"name":"未命名公園","decorType":"park"},{"id":"way-1323355612","lat":25.019755,"lon":121.539259,"name":"未命名公園","decorType":"park"},{"id":"way-1323355613","lat":25.019823,"lon":121.539251,"name":"未命名公園","decorType":"park"},{"id":"way-1323355614","lat":25.019741,"lon":121.539473,"name":"未命名公園","decorType":"park"},{"id":"way-1323355615","lat":25.019828,"lon":121.53949,"name":"未命名公園","decorType":"park"},{"id":"way-1323355616","lat":25.019974,"lon":121.539639,"name":"未命名公園","decorType":"park"},{"id":"way-1323355617","lat":25.019966,"lon":121.539302,"name":"未命名公園","decorType":"park"},{"id":"way-1323358368","lat":25.019938,"lon":121.540824,"name":"未命名公園","decorType":"park"},{"id":"way-1323358369","lat":25.019706,"lon":121.540828,"name":"未命名公園","decorType":"park"},{"id":"way-1323358386","lat":25.018771,"lon":121.539607,"name":"宗倬章館","decorType":"university"},{"id":"way-1323358387","lat":25.019046,"lon":121.539588,"name":"機械系館","decorType":"university"},{"id":"way-1323366412","lat":25.020565,"lon":121.541098,"name":"未命名公園","decorType":"park"},{"id":"way-1323366413","lat":25.020702,"lon":121.541101,"name":"未命名公園","decorType":"park"},{"id":"way-1323366414","lat":25.02042,"lon":121.541006,"name":"未命名公園","decorType":"park"},{"id":"way-1323366415","lat":25.020389,"lon":121.540507,"name":"未命名公園","decorType":"park"},{"id":"way-1323366416","lat":25.020378,"lon":121.540771,"name":"未命名公園","decorType":"park"},{"id":"way-1323366417","lat":25.020393,"lon":121.540106,"name":"未命名公園","decorType":"park"},{"id":"way-1323367196","lat":25.02027,"lon":121.539615,"name":"未命名公園","decorType":"park"},{"id":"way-1323367197","lat":25.02024,"lon":121.540876,"name":"未命名公園","decorType":"park"},{"id":"way-1323367198","lat":25.020308,"lon":121.540733,"name":"未命名公園","decorType":"park"},{"id":"way-1323367199","lat":25.020323,"lon":121.54009,"name":"未命名公園","decorType":"park"},{"id":"way-1323367200","lat":25.020341,"lon":121.539411,"name":"未命名公園","decorType":"park"},{"id":"way-1323367201","lat":25.020253,"lon":121.540363,"name":"未命名公園","decorType":"park"},{"id":"way-1323367296","lat":25.020383,"lon":121.540588,"name":"未命名水邊","decorType":"waterside"},{"id":"way-1323367897","lat":25.020525,"lon":121.539876,"name":"未命名公園","decorType":"park"},{"id":"way-1323367898","lat":25.020534,"lon":121.539804,"name":"未命名公園","decorType":"park"},{"id":"way-1323368721","lat":25.020405,"lon":121.54199,"name":"未命名公園","decorType":"park"},{"id":"way-1323368722","lat":25.020576,"lon":121.541993,"name":"未命名公園","decorType":"park"},{"id":"way-1323368723","lat":25.020239,"lon":121.542386,"name":"未命名水邊","decorType":"waterside"},{"id":"way-1323370671","lat":25.020456,"lon":121.542567,"name":"未命名水邊","decorType":"waterside"},{"id":"way-1323370672","lat":25.020517,"lon":121.542575,"name":"未命名水邊","decorType":"waterside"},{"id":"way-1323370673","lat":25.02038,"lon":121.542573,"name":"未命名水邊","decorType":"waterside"},{"id":"way-1323370674","lat":25.020198,"lon":121.542104,"name":"未命名水邊","decorType":"waterside"},{"id":"way-1323370675","lat":25.020186,"lon":121.542155,"name":"未命名水邊","decorType":"waterside"},{"id":"way-1323370676","lat":25.020564,"lon":121.542574,"name":"未命名水邊","decorType":"waterside"},{"id":"way-1323370677","lat":25.020597,"lon":121.542572,"name":"未命名水邊","decorType":"waterside"},{"id":"way-1323370678","lat":25.020628,"lon":121.542582,"name":"未命名水邊","decorType":"waterside"},{"id":"way-1323370679","lat":25.020588,"lon":121.542603,"name":"未命名公園","decorType":"park"},{"id":"way-1323370680","lat":25.02053,"lon":121.542654,"name":"未命名公園","decorType":"park"},{"id":"way-1323370681","lat":25.020464,"lon":121.542598,"name":"未命名公園","decorType":"park"},{"id":"way-1323370682","lat":25.020411,"lon":121.542632,"name":"未命名公園","decorType":"park"},{"id":"way-1323370683","lat":25.020361,"lon":121.542627,"name":"未命名公園","decorType":"park"},{"id":"way-1323370684","lat":25.02031,"lon":121.542594,"name":"未命名公園","decorType":"park"},{"id":"way-1323370685","lat":25.020239,"lon":121.542635,"name":"未命名公園","decorType":"park"},{"id":"way-1323370686","lat":25.020168,"lon":121.542592,"name":"未命名公園","decorType":"park"},{"id":"way-1323370687","lat":25.020162,"lon":121.5424,"name":"未命名公園","decorType":"park"},{"id":"way-1323370688","lat":25.020115,"lon":121.542498,"name":"未命名公園","decorType":"park"},{"id":"way-1323370689","lat":25.020131,"lon":121.54235,"name":"未命名公園","decorType":"park"},{"id":"way-1323370690","lat":25.020165,"lon":121.542281,"name":"未命名公園","decorType":"park"},{"id":"way-1323370691","lat":25.020173,"lon":121.542181,"name":"未命名公園","decorType":"park"},{"id":"way-1323370692","lat":25.020415,"lon":121.542033,"name":"未命名水邊","decorType":"waterside"},{"id":"way-1323370693","lat":25.020174,"lon":121.542051,"name":"未命名公園","decorType":"park"},{"id":"way-1323370694","lat":25.020635,"lon":121.542101,"name":"未命名水邊","decorType":"waterside"},{"id":"way-1323370695","lat":25.02064,"lon":121.54217,"name":"未命名水邊","decorType":"waterside"},{"id":"way-1323370696","lat":25.020633,"lon":121.542252,"name":"未命名水邊","decorType":"waterside"},{"id":"way-1323370697","lat":25.020631,"lon":121.542345,"name":"未命名水邊","decorType":"waterside"},{"id":"way-1323370698","lat":25.020631,"lon":121.542405,"name":"未命名水邊","decorType":"waterside"},{"id":"way-1323370699","lat":25.020629,"lon":121.542447,"name":"未命名水邊","decorType":"waterside"},{"id":"way-1323370700","lat":25.020629,"lon":121.542516,"name":"未命名水邊","decorType":"waterside"},{"id":"way-1323370701","lat":25.02017,"lon":121.542112,"name":"未命名公園","decorType":"park"},{"id":"way-1323370702","lat":25.020269,"lon":121.542007,"name":"未命名公園","decorType":"park"},{"id":"way-1323372999","lat":25.020312,"lon":121.542659,"name":"未命名公園","decorType":"park"},{"id":"way-1323373000","lat":25.020382,"lon":121.542719,"name":"未命名公園","decorType":"park"},{"id":"way-1323373001","lat":25.020447,"lon":121.542775,"name":"未命名公園","decorType":"park"},{"id":"way-1323373002","lat":25.02047,"lon":121.542683,"name":"未命名公園","decorType":"park"},{"id":"way-1323373003","lat":25.020139,"lon":121.542703,"name":"未命名公園","decorType":"park"},{"id":"way-1323373005","lat":25.019976,"lon":121.54294,"name":"未命名公園","decorType":"park"},{"id":"way-1323373007","lat":25.02039,"lon":121.542943,"name":"未命名公園","decorType":"park"},{"id":"way-1323373016","lat":25.020583,"lon":121.542955,"name":"未命名公園","decorType":"park"},{"id":"way-1323373017","lat":25.020609,"lon":121.542709,"name":"未命名公園","decorType":"park"},{"id":"way-1323373657","lat":25.020469,"lon":121.541884,"name":"未命名公園","decorType":"park"},{"id":"way-1323373658","lat":25.020555,"lon":121.541902,"name":"未命名公園","decorType":"park"},{"id":"way-1323373659","lat":25.020058,"lon":121.541961,"name":"未命名公園","decorType":"park"},{"id":"way-1323373660","lat":25.020184,"lon":121.541989,"name":"未命名公園","decorType":"park"},{"id":"way-1323373661","lat":25.020142,"lon":121.541988,"name":"未命名公園","decorType":"park"},{"id":"way-1323373662","lat":25.020136,"lon":121.542059,"name":"未命名公園","decorType":"park"},{"id":"way-1323373663","lat":25.020112,"lon":121.542135,"name":"未命名公園","decorType":"park"},{"id":"way-1323373664","lat":25.020102,"lon":121.542278,"name":"未命名公園","decorType":"park"},{"id":"way-1323373665","lat":25.019999,"lon":121.542105,"name":"未命名公園","decorType":"park"},{"id":"way-1323373666","lat":25.01994,"lon":121.54199,"name":"未命名公園","decorType":"park"},{"id":"way-1323373667","lat":25.019946,"lon":121.54226,"name":"未命名公園","decorType":"park"},{"id":"way-1323373668","lat":25.019958,"lon":121.542454,"name":"未命名公園","decorType":"park"},{"id":"way-1323373669","lat":25.019994,"lon":121.542646,"name":"未命名公園","decorType":"park"},{"id":"way-1323376159","lat":25.020631,"lon":121.54189,"name":"未命名公園","decorType":"park"},{"id":"way-1323376161","lat":25.020337,"lon":121.54191,"name":"未命名公園","decorType":"park"},{"id":"way-1323376162","lat":25.020397,"lon":121.54186,"name":"未命名公園","decorType":"park"},{"id":"way-1323376163","lat":25.020089,"lon":121.542034,"name":"未命名水邊","decorType":"waterside"},{"id":"way-1323376164","lat":25.020162,"lon":121.541922,"name":"未命名水邊","decorType":"waterside"},{"id":"way-1323376174","lat":25.020248,"lon":121.541913,"name":"未命名公園","decorType":"park"},{"id":"way-1323376175","lat":25.020232,"lon":121.541977,"name":"未命名公園","decorType":"park"},{"id":"way-1323376176","lat":25.020296,"lon":121.541973,"name":"未命名公園","decorType":"park"},{"id":"way-1323376177","lat":25.020408,"lon":121.54192,"name":"未命名公園","decorType":"park"},{"id":"way-1323376178","lat":25.020476,"lon":121.541948,"name":"未命名公園","decorType":"park"},{"id":"way-1323378342","lat":25.020645,"lon":121.541661,"name":"未命名公園","decorType":"park"},{"id":"way-1323378343","lat":25.020843,"lon":121.541428,"name":"未命名公園","decorType":"park"},{"id":"way-1323378344","lat":25.020696,"lon":121.541451,"name":"未命名公園","decorType":"park"},{"id":"way-1323384214","lat":25.020693,"lon":121.543344,"name":"未命名公園","decorType":"park"},{"id":"way-1323384215","lat":25.020858,"lon":121.543346,"name":"未命名公園","decorType":"park"},{"id":"way-1323386325","lat":25.019874,"lon":121.54298,"name":"未命名公園","decorType":"park"},{"id":"way-1323386326","lat":25.019287,"lon":121.543232,"name":"未命名公園","decorType":"park"},{"id":"way-1323386327","lat":25.019563,"lon":121.543237,"name":"未命名公園","decorType":"park"},{"id":"way-1323386328","lat":25.020022,"lon":121.543245,"name":"未命名公園","decorType":"park"},{"id":"way-1323386329","lat":25.020323,"lon":121.54325,"name":"未命名公園","decorType":"park"},{"id":"way-1323386330","lat":25.020542,"lon":121.543254,"name":"未命名公園","decorType":"park"},{"id":"way-1323386331","lat":25.019787,"lon":121.542982,"name":"未命名公園","decorType":"park"},{"id":"way-1323386332","lat":25.020745,"lon":121.54325,"name":"未命名公園","decorType":"park"},{"id":"way-1323391058","lat":25.020608,"lon":121.544183,"name":"未命名公園","decorType":"park"},{"id":"way-1323393754","lat":25.01965,"lon":121.542949,"name":"未命名公園","decorType":"park"},{"id":"way-1323402839","lat":25.020036,"lon":121.541316,"name":"未命名公園","decorType":"park"},{"id":"way-1323402840","lat":25.020365,"lon":121.541309,"name":"未命名公園","decorType":"park"},{"id":"way-1323402841","lat":25.020609,"lon":121.541298,"name":"未命名公園","decorType":"park"},{"id":"way-1323402842","lat":25.019237,"lon":121.541328,"name":"未命名公園","decorType":"park"},{"id":"way-1323402843","lat":25.019594,"lon":121.541321,"name":"未命名公園","decorType":"park"},{"id":"way-1323402844","lat":25.0189,"lon":121.541338,"name":"未命名公園","decorType":"park"},{"id":"way-1323402845","lat":25.018657,"lon":121.541342,"name":"未命名公園","decorType":"park"},{"id":"way-1323438726","lat":25.017525,"lon":121.543322,"name":"未命名公園","decorType":"park"},{"id":"way-1323447404","lat":25.018334,"lon":121.541435,"name":"未命名公園","decorType":"park"},{"id":"way-1323447416","lat":25.017875,"lon":121.543745,"name":"未命名公園","decorType":"park"},{"id":"way-1323447417","lat":25.017792,"lon":121.543736,"name":"未命名公園","decorType":"park"},{"id":"way-1323447418","lat":25.018095,"lon":121.544269,"name":"未命名公園","decorType":"park"},{"id":"way-1323449503","lat":25.019137,"lon":121.542003,"name":"未命名公園","decorType":"park"},{"id":"way-1323449504","lat":25.019148,"lon":121.542398,"name":"未命名公園","decorType":"park"},{"id":"way-1323449919","lat":25.018755,"lon":121.54294,"name":"未命名公園","decorType":"park"},{"id":"way-1323449920","lat":25.018749,"lon":121.542813,"name":"未命名公園","decorType":"park"},{"id":"way-1323449921","lat":25.018767,"lon":121.542715,"name":"未命名公園","decorType":"park"},{"id":"way-1323449922","lat":25.018575,"lon":121.542825,"name":"未命名公園","decorType":"park"},{"id":"way-1323449923","lat":25.018579,"lon":121.542958,"name":"未命名公園","decorType":"park"},{"id":"way-1323449924","lat":25.018579,"lon":121.542675,"name":"未命名公園","decorType":"park"},{"id":"way-1323452537","lat":25.017536,"lon":121.543415,"name":"未命名公園","decorType":"park"},{"id":"way-1323452538","lat":25.01763,"lon":121.543526,"name":"未命名公園","decorType":"park"},{"id":"way-1323452546","lat":25.0176,"lon":121.54335,"name":"未命名公園","decorType":"park"},{"id":"way-1323452547","lat":25.017592,"lon":121.543373,"name":"未命名公園","decorType":"park"},{"id":"way-1323452548","lat":25.017641,"lon":121.543324,"name":"未命名公園","decorType":"park"},{"id":"way-1323452549","lat":25.017528,"lon":121.5437,"name":"未命名公園","decorType":"park"},{"id":"way-1323453334","lat":25.017136,"lon":121.541889,"name":"未命名公園","decorType":"park"},{"id":"way-1323453335","lat":25.016915,"lon":121.541425,"name":"未命名公園","decorType":"park"},{"id":"way-1323453336","lat":25.016958,"lon":121.541389,"name":"未命名公園","decorType":"park"},{"id":"way-1323453337","lat":25.016546,"lon":121.540389,"name":"未命名公園","decorType":"park"},{"id":"way-1323453338","lat":25.016677,"lon":121.540736,"name":"未命名公園","decorType":"park"},{"id":"way-1323582017","lat":25.01849,"lon":121.535616,"name":"未命名公園","decorType":"park"},{"id":"way-1323582018","lat":25.018474,"lon":121.535288,"name":"未命名公園","decorType":"park"},{"id":"way-1323582019","lat":25.018488,"lon":121.535464,"name":"未命名公園","decorType":"park"},{"id":"way-1323584507","lat":25.018688,"lon":121.535753,"name":"未命名橋樑","decorType":"bridge"},{"id":"way-1323642023","lat":25.016673,"lon":121.535675,"name":"未命名公園","decorType":"park"},{"id":"way-1323645086","lat":25.015645,"lon":121.535624,"name":"未命名公園","decorType":"park"},{"id":"way-1323645087","lat":25.015641,"lon":121.535684,"name":"未命名公園","decorType":"park"},{"id":"way-1323645088","lat":25.01563,"lon":121.535426,"name":"未命名公園","decorType":"park"},{"id":"way-1323677377","lat":25.01784,"lon":121.5397,"name":"陳文成事件紀念廣場","decorType":"park"},{"id":"way-1323680520","lat":25.017235,"lon":121.538855,"name":"未命名公園","decorType":"park"},{"id":"way-1323680521","lat":25.017234,"lon":121.538735,"name":"未命名公園","decorType":"park"},{"id":"way-1323680522","lat":25.017232,"lon":121.538615,"name":"未命名公園","decorType":"park"},{"id":"way-1323680523","lat":25.01723,"lon":121.538435,"name":"未命名公園","decorType":"park"},{"id":"way-1323680524","lat":25.017228,"lon":121.538317,"name":"未命名公園","decorType":"park"},{"id":"way-1323680525","lat":25.017226,"lon":121.538201,"name":"未命名公園","decorType":"park"},{"id":"way-1323680526","lat":25.017224,"lon":121.538013,"name":"未命名公園","decorType":"park"},{"id":"way-1323680527","lat":25.017222,"lon":121.537879,"name":"未命名公園","decorType":"park"},{"id":"way-1323680528","lat":25.01722,"lon":121.537743,"name":"未命名公園","decorType":"park"},{"id":"way-1323680529","lat":25.017217,"lon":121.53752,"name":"未命名公園","decorType":"park"},{"id":"way-1323680530","lat":25.017214,"lon":121.537329,"name":"未命名公園","decorType":"park"},{"id":"way-1323680531","lat":25.017212,"lon":121.537141,"name":"未命名公園","decorType":"park"},{"id":"way-1323680532","lat":25.017405,"lon":121.538852,"name":"未命名公園","decorType":"park"},{"id":"way-1323680533","lat":25.017403,"lon":121.538732,"name":"未命名公園","decorType":"park"},{"id":"way-1323680534","lat":25.017402,"lon":121.538612,"name":"未命名公園","decorType":"park"},{"id":"way-1323680535","lat":25.017399,"lon":121.538422,"name":"未命名公園","decorType":"park"},{"id":"way-1323680536","lat":25.017397,"lon":121.538211,"name":"未命名公園","decorType":"park"},{"id":"way-1323680750","lat":25.01718,"lon":121.53893,"name":"未命名公園","decorType":"park"},{"id":"way-1323680751","lat":25.017461,"lon":121.538926,"name":"未命名公園","decorType":"park"},{"id":"way-1323882493","lat":25.020568,"lon":121.544407,"name":"未命名公園","decorType":"park"},{"id":"way-1323882507","lat":25.019759,"lon":121.544905,"name":"未命名公園","decorType":"park"},{"id":"way-1323882508","lat":25.019935,"lon":121.54531,"name":"未命名公園","decorType":"park"},{"id":"way-1323882509","lat":25.019919,"lon":121.54526,"name":"曹公曹媽祠","decorType":"shrine"},{"id":"way-1323882514","lat":25.019963,"lon":121.545099,"name":"未命名公園","decorType":"park"},{"id":"way-1323882516","lat":25.020123,"lon":121.545015,"name":"未命名公園","decorType":"park"},{"id":"way-1323886487","lat":25.018757,"lon":121.5456,"name":"未命名大學&學院","decorType":"university"},{"id":"way-1323892768","lat":25.020537,"lon":121.543995,"name":"未命名橋樑","decorType":"bridge"},{"id":"way-1323892778","lat":25.02059,"lon":121.543976,"name":"未命名公園","decorType":"park"},{"id":"way-1323892784","lat":25.020462,"lon":121.543792,"name":"未命名橋樑","decorType":"bridge"},{"id":"way-1323892785","lat":25.020478,"lon":121.543868,"name":"未命名橋樑","decorType":"bridge"},{"id":"way-1324029663","lat":25.019568,"lon":121.546241,"name":"未命名公園","decorType":"park"},{"id":"way-1324029664","lat":25.019393,"lon":121.546435,"name":"未命名公園","decorType":"park"},{"id":"way-1324029671","lat":25.01969,"lon":121.546802,"name":"未命名公園","decorType":"park"},{"id":"way-1324029672","lat":25.019779,"lon":121.546904,"name":"未命名公園","decorType":"park"},{"id":"way-1324064049","lat":25.019223,"lon":121.543918,"name":"未命名公園","decorType":"park"},{"id":"way-1324064050","lat":25.019249,"lon":121.543611,"name":"未命名公園","decorType":"park"},{"id":"way-1324064051","lat":25.019012,"lon":121.543495,"name":"未命名公園","decorType":"park"},{"id":"way-1324073784","lat":25.016333,"lon":121.539472,"name":"未命名公園","decorType":"park"},{"id":"way-1324073785","lat":25.01625,"lon":121.539139,"name":"未命名公園","decorType":"park"},{"id":"way-1324073786","lat":25.016242,"lon":121.539057,"name":"未命名公園","decorType":"park"},{"id":"way-1324076627","lat":25.013885,"lon":121.537026,"name":"未命名公園","decorType":"park"},{"id":"way-1324076628","lat":25.013895,"lon":121.536949,"name":"未命名公園","decorType":"park"},{"id":"way-1324081393","lat":25.017612,"lon":121.543958,"name":"未命名公園","decorType":"park"},{"id":"way-1324081394","lat":25.017512,"lon":121.544324,"name":"未命名公園","decorType":"park"},{"id":"way-1324081395","lat":25.017434,"lon":121.544221,"name":"未命名公園","decorType":"park"},{"id":"way-1324081397","lat":25.018332,"lon":121.545092,"name":"未命名公園","decorType":"park"},{"id":"way-1324081398","lat":25.01822,"lon":121.545158,"name":"未命名公園","decorType":"park"},{"id":"way-1324081399","lat":25.018182,"lon":121.544861,"name":"未命名公園","decorType":"park"},{"id":"way-1324081400","lat":25.017797,"lon":121.544655,"name":"未命名公園","decorType":"park"},{"id":"way-1324162871","lat":25.02087,"lon":121.53936,"name":"未命名公園","decorType":"park"},{"id":"way-1324162872","lat":25.021073,"lon":121.539319,"name":"未命名公園","decorType":"park"},{"id":"way-1324162873","lat":25.021147,"lon":121.539017,"name":"未命名公園","decorType":"park"},{"id":"way-1324162874","lat":25.021714,"lon":121.53773,"name":"未命名公園","decorType":"park"},{"id":"way-1324162875","lat":25.021737,"lon":121.537803,"name":"未命名公園","decorType":"park"},{"id":"way-1324162876","lat":25.021579,"lon":121.537876,"name":"未命名公園","decorType":"park"},{"id":"way-1324162877","lat":25.021524,"lon":121.53793,"name":"未命名公園","decorType":"park"},{"id":"way-1324162878","lat":25.021415,"lon":121.538264,"name":"未命名公園","decorType":"park"},{"id":"way-1324162879","lat":25.021376,"lon":121.538337,"name":"未命名公園","decorType":"park"},{"id":"way-1324162880","lat":25.021239,"lon":121.538581,"name":"未命名公園","decorType":"park"},{"id":"way-1324162882","lat":25.021735,"lon":121.537839,"name":"未命名公園","decorType":"park"},{"id":"way-1324162883","lat":25.021739,"lon":121.53793,"name":"未命名公園","decorType":"park"},{"id":"way-1324162884","lat":25.021735,"lon":121.537668,"name":"未命名公園","decorType":"park"},{"id":"way-1324162886","lat":25.021943,"lon":121.537521,"name":"未命名公園","decorType":"park"},{"id":"way-1324162887","lat":25.021874,"lon":121.537231,"name":"未命名公園","decorType":"park"},{"id":"way-1324162888","lat":25.021676,"lon":121.53723,"name":"未命名公園","decorType":"park"},{"id":"way-1324164307","lat":25.022019,"lon":121.535234,"name":"未命名公園","decorType":"park"},{"id":"way-1324168698","lat":25.017524,"lon":121.537075,"name":"未命名公園","decorType":"park"},{"id":"way-1324178870","lat":25.013229,"lon":121.537164,"name":"未命名公園","decorType":"park"},{"id":"way-1324178871","lat":25.013346,"lon":121.537063,"name":"未命名公園","decorType":"park"},{"id":"way-1324178872","lat":25.013318,"lon":121.537033,"name":"未命名公園","decorType":"park"},{"id":"way-1324178873","lat":25.013211,"lon":121.537123,"name":"未命名公園","decorType":"park"},{"id":"way-1324178874","lat":25.013467,"lon":121.536942,"name":"未命名公園","decorType":"park"},{"id":"way-1324181234","lat":25.012591,"lon":121.536753,"name":"未命名公園","decorType":"park"},{"id":"way-1324181235","lat":25.012915,"lon":121.536452,"name":"未命名公園","decorType":"park"},{"id":"way-1324181236","lat":25.012788,"lon":121.536551,"name":"未命名公園","decorType":"park"},{"id":"way-1324181238","lat":25.013222,"lon":121.536363,"name":"未命名公園","decorType":"park"},{"id":"way-1324181239","lat":25.012661,"lon":121.536589,"name":"未命名公園","decorType":"park"},{"id":"way-1324181240","lat":25.012375,"lon":121.536909,"name":"未命名公園","decorType":"park"},{"id":"way-1324192436","lat":25.016846,"lon":121.540073,"name":"未命名公園","decorType":"park"},{"id":"way-1324298585","lat":25.018281,"lon":121.542544,"name":"未命名橋樑","decorType":"bridge"},{"id":"way-1324298587","lat":25.018174,"lon":121.543052,"name":"未命名橋樑","decorType":"bridge"},{"id":"way-1324298588","lat":25.018189,"lon":121.542915,"name":"未命名橋樑","decorType":"bridge"},{"id":"way-1324300951","lat":25.015809,"lon":121.543025,"name":"未命名公園","decorType":"park"},{"id":"way-1324300958","lat":25.015595,"lon":121.542909,"name":"未命名公園","decorType":"park"},{"id":"way-1324302550","lat":25.013836,"lon":121.544758,"name":"未命名公園","decorType":"park"},{"id":"way-1324302551","lat":25.013883,"lon":121.545042,"name":"未命名公園","decorType":"park"},{"id":"way-1324302552","lat":25.01362,"lon":121.544882,"name":"未命名公園","decorType":"park"},{"id":"way-1324302553","lat":25.013677,"lon":121.544393,"name":"未命名公園","decorType":"park"},{"id":"way-1324302554","lat":25.013819,"lon":121.544243,"name":"未命名公園","decorType":"park"},{"id":"way-1324306181","lat":25.015544,"lon":121.543802,"name":"未命名公園","decorType":"park"},{"id":"way-1324306182","lat":25.014925,"lon":121.543712,"name":"未命名公園","decorType":"park"},{"id":"way-1324306183","lat":25.014869,"lon":121.543796,"name":"未命名公園","decorType":"park"},{"id":"way-1324306184","lat":25.014936,"lon":121.54384,"name":"未命名公園","decorType":"park"},{"id":"way-1324306186","lat":25.014943,"lon":121.543762,"name":"未命名公園","decorType":"park"},{"id":"way-1324306187","lat":25.015009,"lon":121.543646,"name":"未命名公園","decorType":"park"},{"id":"way-1324306188","lat":25.015422,"lon":121.543664,"name":"未命名公園","decorType":"park"},{"id":"way-1324306189","lat":25.015416,"lon":121.543841,"name":"未命名公園","decorType":"park"},{"id":"way-1324306190","lat":25.015458,"lon":121.543805,"name":"未命名公園","decorType":"park"},{"id":"way-1324306191","lat":25.015517,"lon":121.543929,"name":"未命名公園","decorType":"park"},{"id":"way-1324306192","lat":25.015583,"lon":121.544022,"name":"未命名公園","decorType":"park"},