{"bbox":{"south":25.023125,"north":25.038731,"west":121.535187,"east":121.548219},"pois":[{"id":"way-347251052","lat":25.02316,"lon":121.535685,"name":"游泳池","decorType":"stadium"},{"id":"way-583425394","lat":25.023176,"lon":121.5481,"name":"未命名公園","decorType":"park"},{"id":"node-689489025","lat":25.025683,"lon":121.543687,"name":"麥當勞","decorType":"burger"},{"id":"node-689560111","lat":25.026245,"lon":121.543691,"name":"7-Eleven","decorType":"convenience"},{"id":"node-1281234333","lat":25.036125,"lon":121.547122,"name":"曜日","decorType":"restaurant"},{"id":"node-1282483919","lat":25.03421,"lon":121.543896,"name":"台北美侖大飯店","decorType":"hotel"},{"id":"node-1982299403","lat":25.023498,"lon":121.543589,"name":"自家烘焙咖啡館","decorType":"cafe"},{"id":"node-2056021917","lat":25.036093,"lon":121.545921,"name":"北平半畝園","decorType":"restaurant"},{"id":"node-2056021919","lat":25.035944,"lon":121.545641,"name":"泰美泰國原始料理","decorType":"restaurant"},{"id":"node-2056021920","lat":25.036086,"lon":121.546694,"name":"潮肉壽喜燒東豐本店","decorType":"restaurant"},{"id":"node-2079533602","lat":25.025423,"lon":121.538415,"name":"龍門國中(和平)","decorType":"bus_stop"},{"id":"node-2079533606","lat":25.024917,"lon":121.54208,"name":"復興南路口","decorType":"bus_stop"},{"id":"node-2079533609","lat":25.026047,"lon":121.543644,"name":"捷運科技大樓站","decorType":"bus_stop"},{"id":"node-2079533617","lat":25.031594,"lon":121.543689,"name":"大安高工","decorType":"bus_stop"},{"id":"node-2079533619","lat":25.034626,"lon":121.543769,"name":"捷運大安站 (復興)","decorType":"bus_stop"},{"id":"node-2079533624","lat":25.03859,"lon":121.543864,"name":"聯合醫院仁愛院區","decorType":"bus_stop"},{"id":"node-2079533638","lat":25.025714,"lon":121.536236,"name":"大安森林公園","decorType":"bus_stop"},{"id":"node-2128931498","lat":25.035921,"lon":121.543902,"name":"好食圓滿","decorType":"restaurant"},{"id":"node-2137219932","lat":25.033577,"lon":121.543837,"name":"星巴克","decorType":"cafe"},{"id":"node-2159143915","lat":25.02632,"lon":121.538024,"name":"和平建國路口","decorType":"bus_stop"},{"id":"node-2160602730","lat":25.033658,"lon":121.539202,"name":"鄭惠中布衣 - 時喜人文","decorType":"clothing"},{"id":"node-2160602742","lat":25.032864,"lon":121.540577,"name":"四季羽毛","decorType":"clothing"},{"id":"node-2183209941","lat":25.033779,"lon":121.538394,"name":"穗川小農鍋物","decorType":"restaurant"},{"id":"node-2188231670","lat":25.023555,"lon":121.542933,"name":"7-Eleven","decorType":"convenience"},{"id":"node-2188231676","lat":25.023529,"lon":121.54321,"name":"全國素食","decorType":"restaurant"},{"id":"node-2307668500","lat":25.025403,"lon":121.540655,"name":"國北教大實小","decorType":"bus_stop"},{"id":"node-2307668505","lat":25.025156,"lon":121.542253,"name":"復興南路口","decorType":"bus_stop"},{"id":"node-2307668510","lat":25.024868,"lon":121.54481,"name":"國立臺北教育大學","decorType":"bus_stop"},{"id":"node-2307668538","lat":25.0247,"lon":121.547558,"name":"臥龍街","decorType":"bus_stop"},{"id":"node-2307668542","lat":25.025563,"lon":121.539161,"name":"龍門國中(和平)","decorType":"bus_stop"},{"id":"node-2315948157","lat":25.02464,"lon":121.545195,"name":"國立臺北教育大學","decorType":"bus_stop"},{"id":"node-2315948158","lat":25.024516,"lon":121.547448,"name":"臥龍街","decorType":"bus_stop"},{"id":"node-2396085350","lat":25.035949,"lon":121.543994,"name":"餃子樂餃子館","decorType":"restaurant"},{"id":"node-2400372302","lat":25.032147,"lon":121.538575,"name":"宇宙小艇","decorType":"restaurant"},{"id":"node-2402502240","lat":25.033734,"lon":121.538116,"name":"未命名郵局","decorType":"post_office"},{"id":"node-2410011026","lat":25.027222,"lon":121.54565,"name":"家樂福超市","decorType":"convenience"},{"id":"node-2410088474","lat":25.034224,"lon":121.546078,"name":"檸檬草火鍋店","decorType":"restaurant"},{"id":"node-2418674188","lat":25.026421,"lon":121.545692,"name":"成功郵局","decorType":"post_office"},{"id":"node-2420798959","lat":25.02446,"lon":121.543297,"name":"國立臺北教育大學","decorType":"bus_stop"},{"id":"node-2422620751","lat":25.025681,"lon":121.538576,"name":"龍門國中(和平)","decorType":"bus_stop"},{"id":"node-2422620752","lat":25.025958,"lon":121.536292,"name":"大安森林公園","decorType":"bus_stop"},{"id":"node-2426954474","lat":25.033363,"lon":121.546226,"name":"信義大安路口","decorType":"bus_stop"},{"id":"node-2426954477","lat":25.033304,"lon":121.545701,"name":"信義大安路口","decorType":"bus_stop"},{"id":"node-2426954485","lat":25.033361,"lon":121.543255,"name":"捷運大安站(信義)","decorType":"bus_stop"},{"id":"node-2426954487","lat":25.033521,"lon":121.535588,"name":"捷運大安森林公園站","decorType":"bus_stop"},{"id":"node-2426954488","lat":25.033459,"lon":121.542131,"name":"師大附中","decorType":"bus_stop"},{"id":"node-2426954490","lat":25.033531,"lon":121.538296,"name":"信義建國路口","decorType":"bus_stop"},{"id":"node-2426954491","lat":25.033423,"lon":121.539233,"name":"信義建國路口","decorType":"bus_stop"},{"id":"node-2426954493","lat":25.033589,"lon":121.536126,"name":"捷運大安森林公園站","decorType":"bus_stop"},{"id":"node-2426954505","lat":25.033408,"lon":121.54395,"name":"捷運大安站(信義)","decorType":"bus_stop"},{"id":"node-2435590493","lat":25.037985,"lon":121.536992,"name":"仁愛建國路口一","decorType":"bus_stop"},{"id":"node-2435590495","lat":25.038,"lon":121.54737,"name":"仁愛敦化路口(圓環)","decorType":"bus_stop"},{"id":"node-2435590496","lat":25.037783,"lon":121.547648,"name":"仁愛敦化路口(圓環)","decorType":"bus_stop"},{"id":"node-2435590500","lat":25.038171,"lon":121.539344,"name":"仁愛建國路口一","decorType":"bus_stop"},{"id":"node-2435590501","lat":25.037915,"lon":121.540934,"name":"仁愛建國路口二","decorType":"bus_stop"},{"id":"node-2435590502","lat":25.038075,"lon":121.543922,"name":"仁愛復興路口(福華飯店)","decorType":"bus_stop"},{"id":"node-2435590503","lat":25.03782,"lon":121.545854,"name":"仁愛大安路口(仁愛醫院)","decorType":"bus_stop"},{"id":"node-2470163462","lat":25.038672,"lon":121.546629,"name":"Cross Cafe","decorType":"cafe"},{"id":"node-2470176170","lat":25.038709,"lon":121.547069,"name":"享Cafe","decorType":"cafe"},{"id":"node-2473232917","lat":25.023414,"lon":121.542953,"name":"Belém Bakery","decorType":"bakery"},{"id":"node-2473232920","lat":25.023755,"lon":121.54276,"name":"Le Cep","decorType":"restaurant"},{"id":"node-2473232927","lat":25.024134,"lon":121.542817,"name":"發現義大利麵","decorType":"restaurant"},{"id":"node-2473232937","lat":25.024877,"lon":121.541545,"name":"加拿大黑熊有機咖啡","decorType":"cafe"},{"id":"node-2473232949","lat":25.023344,"lon":121.541209,"name":"台越美食","decorType":"restaurant"},{"id":"node-2473232953","lat":25.023396,"lon":121.541014,"name":"噹食麵","decorType":"restaurant"},{"id":"node-2495367441","lat":25.035844,"lon":121.543542,"name":"東豐復興路口","decorType":"bus_stop"},{"id":"node-2495367444","lat":25.035803,"lon":121.543807,"name":"東豐復興路口","decorType":"bus_stop"},{"id":"node-2495367447","lat":25.032445,"lon":121.543481,"name":"大安高工","decorType":"bus_stop"},{"id":"node-2495367451","lat":25.026723,"lon":121.543347,"name":"捷運科技大樓站","decorType":"bus_stop"},{"id":"node-2495367454","lat":25.02953,"lon":121.543343,"name":"開平餐飲學校","decorType":"bus_stop"},{"id":"node-2495367458","lat":25.036909,"lon":121.543553,"name":"聯合醫院仁愛院區","decorType":"bus_stop"},{"id":"node-2517658788","lat":25.034142,"lon":121.538134,"name":"信義市場","decorType":"bus_stop"},{"id":"node-2517658847","lat":25.036482,"lon":121.538345,"name":"延平中學","decorType":"bus_stop"},{"id":"node-2597965516","lat":25.03097,"lon":121.543315,"name":"7-Eleven","decorType":"convenience"},{"id":"node-2620553279","lat":25.0283,"lon":121.543718,"name":"全家便利商店","decorType":"convenience"},{"id":"node-2620554680","lat":25.026731,"lon":121.543216,"name":"捷運科技大樓站","decorType":"station"},{"id":"node-2724667931","lat":25.033568,"lon":121.543942,"name":"全家便利商店","decorType":"convenience"},{"id":"node-2813030301","lat":25.023684,"lon":121.543013,"name":"卡帛咖啡素食烘焙坊．義式廚房","decorType":"restaurant"},{"id":"node-2826002442","lat":25.033695,"lon":121.538786,"name":"采岳軒重慶抄手麵食","decorType":"restaurant"},{"id":"node-2962738779","lat":25.025575,"lon":121.543678,"name":"星巴克","decorType":"cafe"},{"id":"node-2962738780","lat":25.025975,"lon":121.54383,"name":"全聯福利中心","decorType":"supermarket"},{"id":"node-2962738781","lat":25.024561,"lon":121.543597,"name":"大埔鐵板燒","decorType":"restaurant"},{"id":"node-2962739570","lat":25.023417,"lon":121.54358,"name":"MONO CAFE","decorType":"cafe"},{"id":"node-3012324261","lat":25.025437,"lon":121.541664,"name":"姐妹小吃","decorType":"restaurant"},{"id":"node-3027219944","lat":25.024967,"lon":121.545026,"name":"八方雲集","decorType":"burger"},{"id":"node-3076221612","lat":25.026588,"lon":121.541889,"name":"紅牌牛肉麵","decorType":"restaurant"},{"id":"node-3076262006","lat":25.026475,"lon":121.541722,"name":"全家便利商店","decorType":"convenience"},{"id":"node-3076284829","lat":25.028513,"lon":121.54103,"name":"7-Eleven","decorType":"convenience"},{"id":"node-3077524845","lat":25.028563,"lon":121.541476,"name":"瑞安豆漿大王","decorType":"restaurant"},{"id":"node-3077603063","lat":25.02865,"lon":121.539312,"name":"全家便利商店","decorType":"convenience"},{"id":"node-3077657902","lat":25.03304,"lon":121.539387,"name":"全家便利商店","decorType":"convenience"},{"id":"node-3077657903","lat":25.032807,"lon":121.543361,"name":"全家便利商店","decorType":"convenience"},{"id":"node-3077695264","lat":25.028079,"lon":121.547761,"name":"全家便利商店","decorType":"convenience"},{"id":"node-3077695265","lat":25.025,"lon":121.543931,"name":"全家便利商店","decorType":"convenience"},{"id":"node-3077753873","lat":25.024847,"lon":121.54176,"name":"全家便利商店","decorType":"convenience"},{"id":"node-3077768710","lat":25.025763,"lon":121.53866,"name":"7-Eleven","decorType":"convenience"},{"id":"node-3077768711","lat":25.028671,"lon":121.538273,"name":"7-Eleven","decorType":"convenience"},{"id":"node-3078276696","lat":25.029796,"lon":121.543295,"name":"永和豆漿","decorType":"restaurant"},{"id":"node-3154666481","lat":25.023265,"lon":121.54097,"name":"香料廚房","decorType":"restaurant"},{"id":"node-3191365379","lat":25.024673,"lon":121.544482,"name":"未命名郵局","decorType":"post_office"},{"id":"node-3210306542","lat":25.025452,"lon":121.54501,"name":"香港金葉港式燒臘","decorType":"restaurant"},{"id":"node-3210313411","lat":25.025509,"lon":121.54525,"name":"全聯福利中心","decorType":"supermarket"},{"id":"node-3210313412","lat":25.025352,"lon":121.544997,"name":"芝鄉涼麵","decorType":"restaurant"},{"id":"node-3210313415","lat":25.025039,"lon":121.545024,"name":"羅胖子倉鍋麵","decorType":"restaurant"},{"id":"node-3210314679","lat":25.025567,"lon":121.545008,"name":"全家便利商店","decorType":"convenience"},{"id":"node-3210314680","lat":25.0254,"lon":121.545353,"name":"成功民眾閱覽室","decorType":"library"},{"id":"node-3210314681","lat":25.025135,"lon":121.545027,"name":"吉美小吃","decorType":"restaurant"},{"id":"node-3224928306","lat":25.024602,"lon":121.544326,"name":"形咖啡","decorType":"cafe"},{"id":"node-3245675058","lat":25.024134,"lon":121.537334,"name":"龍門國中(辛亥路口)","decorType":"bus_stop"},{"id":"node-3257173965","lat":25.025465,"lon":121.537287,"name":"星巴克","decorType":"cafe"},{"id":"node-3262687079","lat":25.028447,"lon":121.545386,"name":"7-Eleven","decorType":"convenience"},{"id":"node-3270336880","lat":25.033248,"lon":121.536294,"name":"未命名車站","decorType":"station"},{"id":"node-3270339880","lat":25.033159,"lon":121.535578,"name":"未命名車站","decorType":"station"},{"id":"node-3270339881","lat":25.033846,"lon":121.536023,"name":"未命名車站","decorType":"station"},{"id":"node-3270356063","lat":25.029859,"lon":121.538037,"name":"大安國宅","decorType":"bus_stop"},{"id":"node-3273406580","lat":25.026024,"lon":121.543698,"name":"未命名車站","decorType":"station"},{"id":"node-3275610392","lat":25.028089,"lon":121.547571,"name":"7-Eleven","decorType":"convenience"},{"id":"node-3355534993","lat":25.032903,"lon":121.543867,"name":"捷運大安站5號出口","decorType":"station"},{"id":"node-3355535193","lat":25.03306,"lon":121.543986,"name":"捷運大安站4號出口","decorType":"station"},{"id":"node-3355535194","lat":25.033637,"lon":121.541997,"name":"捷運大安站1號出口","decorType":"station"},{"id":"node-3355535293","lat":25.034182,"lon":121.54378,"name":"大安站6號出口","decorType":"station"},{"id":"node-3355535493","lat":25.033647,"lon":121.541624,"name":"捷運大安站2號出口","decorType":"station"},{"id":"node-3377063669","lat":25.026625,"lon":121.541731,"name":"森之豆","decorType":"burger"},{"id":"node-3377063671","lat":25.026774,"lon":121.541891,"name":"La Clé D'or","decorType":"restaurant"},{"id":"node-3377063672","lat":25.026721,"lon":121.541743,"name":"Vitalita義式廚房","decorType":"restaurant"},{"id":"node-3377079807","lat":25.026973,"lon":121.541882,"name":"瑞麟美而美","decorType":"burger"},{"id":"node-3377079808","lat":25.025384,"lon":121.54167,"name":"萬家鄉","decorType":"burger"},{"id":"node-3403899627","lat":25.027487,"lon":121.54369,"name":"信義書局","decorType":"library"},{"id":"node-3438496860","lat":25.025007,"lon":121.544255,"name":"中國基督教會信義會靈光堂","decorType":"shrine"},{"id":"node-3494960748","lat":25.033329,"lon":121.543555,"name":"大安","decorType":"station"},{"id":"node-3494960749","lat":25.033562,"lon":121.535279,"name":"大安森林公園","decorType":"station"},{"id":"node-3497302604","lat":25.026101,"lon":121.54346,"name":"科技大樓","decorType":"station"},{"id":"node-3592556104","lat":25.038184,"lon":121.547392,"name":"7-Eleven","decorType":"convenience"},{"id":"node-3596859088","lat":25.037416,"lon":121.542952,"name":"羅浮宮","decorType":"restaurant"},{"id":"node-3720751144","lat":25.026936,"lon":121.541773,"name":"Heima Cafe","decorType":"restaurant"},{"id":"node-3720758453","lat":25.026895,"lon":121.541885,"name":"漫高三明治","decorType":"restaurant"},{"id":"node-3720758454","lat":25.027059,"lon":121.54192,"name":"國榮桌球","decorType":"stadium"},{"id":"node-3721291639","lat":25.027598,"lon":121.541756,"name":"天主教靈醫會聖嘉民之家","decorType":"shrine"},{"id":"node-3721291640","lat":25.027712,"lon":121.541684,"name":"天主教靈醫會會院","decorType":"shrine"},{"id":"node-3721304896","lat":25.027965,"lon":121.540768,"name":"龍門客棧餃子館","decorType":"restaurant"},{"id":"node-3721304897","lat":25.027913,"lon":121.540854,"name":"協和切麵店","decorType":"restaurant"},{"id":"node-3721304898","lat":25.028041,"lon":121.540635,"name":"香港大中華燒臘","decorType":"restaurant"},{"id":"node-3721398571","lat":25.028125,"lon":121.540698,"name":"Guoguo","decorType":"clothing"},{"id":"node-3721398572","lat":25.028165,"lon":121.540742,"name":"xai xing de","decorType":"restaurant"},{"id":"node-3721398573","lat":25.028198,"lon":121.540773,"name":"采真時裝","decorType":"clothing"},{"id":"node-3721398575","lat":25.028276,"lon":121.540832,"name":"雅典剪燙工作坊","decorType":"hair_salon"},{"id":"node-3721407942","lat":25.028443,"lon":121.540983,"name":"協成中藥行","decorType":"pharmacy"},{"id":"node-3721407943","lat":25.028401,"lon":121.540951,"name":"廣生堂","decorType":"pharmacy"},{"id":"node-3721407946","lat":25.028372,"lon":121.540919,"name":"瑞安早餐吧","decorType":"restaurant"},{"id":"node-3722128695","lat":25.02871,"lon":121.541096,"name":"瑞安雅廚","decorType":"restaurant"},{"id":"node-3722128696","lat":25.028687,"lon":121.541131,"name":"老圓環","decorType":"restaurant"},{"id":"node-3722681651","lat":25.027303,"lon":121.540128,"name":"食為先餐坊","decorType":"restaurant"},{"id":"node-3722705745","lat":25.027424,"lon":121.540108,"name":"我愛你學田","decorType":"supermarket"},{"id":"node-3722705746","lat":25.027339,"lon":121.540032,"name":"小地方","decorType":"restaurant"},{"id":"node-3722747320","lat":25.028741,"lon":121.541674,"name":"俊美髮沙龍","decorType":"hair_salon"},{"id":"node-3722747321","lat":25.028707,"lon":121.541626,"name":"心路洗衣坊","decorType":"laundry"},{"id":"node-3722747322","lat":25.028666,"lon":121.541579,"name":"麗如小吃","decorType":"restaurant"},{"id":"node-3722754930","lat":25.026604,"lon":121.543679,"name":"爭鮮","decorType":"restaurant"},{"id":"node-3723976539","lat":25.027246,"lon":121.543686,"name":"大連風味館","decorType":"restaurant"},{"id":"node-3723976549","lat":25.027193,"lon":121.54369,"name":"長庚生物科技","decorType":"pharmacy"},{"id":"node-3723976551","lat":25.02694,"lon":121.543675,"name":"台灣大哥大","decorType":"electronics"},{"id":"node-3723976552","lat":25.026879,"lon":121.543677,"name":"得正","decorType":"cafe"},{"id":"node-3723983306","lat":25.026828,"lon":121.543676,"name":"這味泰泰","decorType":"restaurant"},{"id":"node-3723983307","lat":25.026786,"lon":121.543676,"name":"肯德基","decorType":"burger"},{"id":"node-3723983308","lat":25.026743,"lon":121.543677,"name":"The House Taipei","decorType":"restaurant"},{"id":"node-3723983309","lat":25.02665,"lon":121.543679,"name":"橘子乾洗","decorType":"laundry"},{"id":"node-3724051663","lat":25.027542,"lon":121.543687,"name":"Onni韓食堂","decorType":"restaurant"},{"id":"node-3724051664","lat":25.02744,"lon":121.543693,"name":"Giorgio Sedra","decorType":"clothing"},{"id":"node-3724512046","lat":25.026591,"lon":121.542044,"name":"屏東空軍涼麵","decorType":"restaurant"},{"id":"node-3724512049","lat":25.026603,"lon":121.542393,"name":"車樂美縫紉機","decorType":"clothing"},{"id":"node-3724512050","lat":25.026601,"lon":121.542467,"name":"Raw Cafe","decorType":"cafe"},{"id":"node-3724523224","lat":25.027677,"lon":121.543701,"name":"Eva Boutique","decorType":"clothing"},{"id":"node-3724526025","lat":25.027647,"lon":121.543698,"name":"凡帝時尚","decorType":"clothing"},{"id":"node-3724529047","lat":25.027781,"lon":121.543695,"name":"So Nice","decorType":"clothing"},{"id":"node-3725502452","lat":25.026592,"lon":121.542797,"name":"艾華","decorType":"clothing"},{"id":"node-3725502458","lat":25.026578,"lon":121.543046,"name":"紫苑","decorType":"clothing"},{"id":"node-3725668855","lat":25.025412,"lon":121.543189,"name":"Mr. Smile好吃雞排","decorType":"burger"},{"id":"node-3732188577","lat":25.030911,"lon":121.538344,"name":"2J CAFE","decorType":"cafe"},{"id":"node-3743056087","lat":25.027484,"lon":121.540018,"name":"水牛書店","decorType":"library"},{"id":"node-3743063130","lat":25.027034,"lon":121.539948,"name":"Dream house","decorType":"hair_salon"},{"id":"node-3743063131","lat":25.026953,"lon":121.539881,"name":"Pillow Cage","decorType":"cafe"},{"id":"node-3743063132","lat":25.026947,"lon":121.539699,"name":"米食韓國餐廳","decorType":"cafe"},{"id":"node-3743078430","lat":25.028647,"lon":121.539497,"name":"路易莎咖啡","decorType":"cafe"},{"id":"node-3743078431","lat":25.02864,"lon":121.54046,"name":"瑞安自助餐","decorType":"restaurant"},{"id":"node-3748632776","lat":25.026585,"lon":121.539602,"name":"the Diner樂子","decorType":"restaurant"},{"id":"node-3748632788","lat":25.026627,"lon":121.539619,"name":"萬春堂藥房","decorType":"pharmacy"},{"id":"node-3748632789","lat":25.027008,"lon":121.539737,"name":"仙薇髮型工作坊","decorType":"hair_salon"},{"id":"node-3750223147","lat":25.02496,"lon":121.546647,"name":"找餐 店","decorType":"burger"},{"id":"node-3785977777","lat":25.033658,"lon":121.539138,"name":"歐客佬咖啡信義店","decorType":"cafe"},{"id":"node-3787970995","lat":25.025184,"lon":121.542645,"name":"西藏廚房","decorType":"restaurant"},{"id":"node-3811447091","lat":25.033193,"lon":121.542467,"name":"7-Eleven","decorType":"convenience"},{"id":"node-3832655082","lat":25.025502,"lon":121.537229,"name":"丹提咖啡","decorType":"cafe"},{"id":"node-3923847438","lat":25.028021,"lon":121.540607,"name":"Angle Cafe","decorType":"cafe"},{"id":"node-3923847439","lat":25.024405,"lon":121.53726,"name":"Casa del Fresco","decorType":"cafe"},{"id":"node-3923847440","lat":25.026891,"lon":121.539646,"name":"N'Z HAIR SALON","decorType":"hair_salon"},{"id":"node-3923847441","lat":25.025263,"lon":121.5421,"name":"良果精緻烘培坊","decorType":"bakery"},{"id":"node-3923847443","lat":25.025621,"lon":121.536299,"name":"全家便利商店","decorType":"convenience"},{"id":"node-3923847446","lat":25.027138,"lon":121.538913,"name":"大新書局","decorType":"library"},{"id":"node-3923847450","lat":25.027843,"lon":121.540623,"name":"小公園牛肉麵","decorType":"restaurant"},{"id":"node-3923847451","lat":25.025224,"lon":121.54231,"name":"能量先生水煮餐盒","decorType":"restaurant"},{"id":"node-3923847452","lat":25.03164,"lon":121.537491,"name":"建國南路","decorType":"bus_stop"},{"id":"node-3923847456","lat":25.027106,"lon":121.539807,"name":"松安自助洗衣","decorType":"laundry"},{"id":"node-3923847458","lat":25.025135,"lon":121.543657,"name":"玉欣珍傳統美食坊","decorType":"restaurant"},{"id":"node-3923847464","lat":25.025672,"lon":121.536451,"name":"未命名郵局","decorType":"post_office"},{"id":"node-3923847465","lat":25.0259,"lon":121.537979,"name":"未命名郵局","decorType":"post_office"},{"id":"node-3923847474","lat":25.025629,"lon":121.536228,"name":"躍獅新生藥局","decorType":"pharmacy"},{"id":"node-3923847475","lat":25.023572,"lon":121.537903,"name":"龍門國中(辛亥路口)","decorType":"bus_stop"},{"id":"node-3923847476","lat":25.025668,"lon":121.535749,"name":"靈糧書房","decorType":"library"},{"id":"node-3927461877","lat":25.029784,"lon":121.537443,"name":"大安國宅","decorType":"bus_stop"},{"id":"node-3937135659","lat":25.034223,"lon":121.537525,"name":"信義市場","decorType":"bus_stop"},{"id":"node-3937135663","lat":25.036186,"lon":121.537378,"name":"延平中學","decorType":"bus_stop"},{"id":"node-3937135677","lat":25.036367,"lon":121.537312,"name":"7-Eleven","decorType":"convenience"},{"id":"node-3939157997","lat":25.025225,"lon":121.539331,"name":"全國電子","decorType":"electronics"},{"id":"node-3939158052","lat":25.028325,"lon":121.541482,"name":"法國當代會館","decorType":"restaurant"},{"id":"node-4034043337","lat":25.031065,"lon":121.547556,"name":"Yuppy Book Store","decorType":"library"},{"id":"node-4089408089","lat":25.032331,"lon":121.544091,"name":"Wine café","decorType":"restaurant"},{"id":"node-4102517189","lat":25.031681,"lon":121.544264,"name":"理想。時光","decorType":"cafe"},{"id":"node-4107002491","lat":25.025259,"lon":121.545222,"name":"越南牛肉河粉","decorType":"restaurant"},{"id":"node-4107045990","lat":25.025564,"lon":121.545535,"name":"原川火鍋","decorType":"restaurant"},{"id":"node-4111630897","lat":25.033732,"lon":121.546081,"name":"書田文化廣場","decorType":"library"},{"id":"node-4115555989","lat":25.023813,"lon":121.54359,"name":"茶曉伊","decorType":"cafe"},{"id":"node-4116017190","lat":25.023818,"lon":121.542957,"name":"格芮潘義式創意廚房","decorType":"restaurant"},{"id":"node-4116861389","lat":25.024978,"lon":121.544236,"name":"佳興福州魚丸店","decorType":"restaurant"},{"id":"node-4196871121","lat":25.035178,"lon":121.544584,"name":"Pig & Pepper","decorType":"restaurant"},{"id":"node-4239440499","lat":25.03292,"lon":121.547593,"name":"這一鍋","decorType":"restaurant"},{"id":"node-4241242790","lat":25.027325,"lon":121.54305,"name":"Water Moon Thé","decorType":"cafe"},{"id":"node-4254654885","lat":25.02485,"lon":121.542626,"name":"未命名郵局","decorType":"post_office"},{"id":"node-4254654887","lat":25.023657,"lon":121.543213,"name":"胖胖原味麻辣","decorType":"restaurant"},{"id":"node-4254655289","lat":25.02457,"lon":121.54323,"name":"阿英海產粥","decorType":"restaurant"},{"id":"node-4280130633","lat":25.025528,"lon":121.536448,"name":"臺北靈糧堂","decorType":"shrine"},{"id":"node-4344472250","lat":25.033052,"lon":121.538248,"name":"林記紅燒牛肉麵","decorType":"restaurant"},{"id":"node-4344472253","lat":25.037658,"lon":121.536875,"name":"未命名郵局","decorType":"post_office"},{"id":"node-4344472255","lat":25.038534,"lon":121.535616,"name":"未命名郵局","decorType":"post_office"},{"id":"node-4344472256","lat":25.032898,"lon":121.538245,"name":"路易莎","decorType":"cafe"},{"id":"node-4360380423","lat":25.023229,"lon":121.542732,"name":"HIMARI葵","decorType":"restaurant"},{"id":"node-4360380433","lat":25.023854,"lon":121.542977,"name":"松田日式飯糰","decorType":"restaurant"},{"id":"node-4360380435","lat":25.023295,"lon":121.541194,"name":"甲吧麵飯","decorType":"restaurant"},{"id":"node-4360380440","lat":25.024464,"lon":121.542826,"name":"食義大安店","decorType":"restaurant"},{"id":"node-4360380441","lat":25.02314,"lon":121.541755,"name":"臺北市教會第三十九聚會所","decorType":"shrine"},{"id":"node-4360380442","lat":25.02408,"lon":121.54281,"name":"樂和牛排","decorType":"restaurant"},{"id":"node-4360380447","lat":25.02391,"lon":121.542929,"name":"Barbershop 男生理髮","decorType":"hair_salon"},{"id":"node-4427375471","lat":25.025608,"lon":121.547196,"name":"真光福音教會","decorType":"shrine"},{"id":"node-4427396476","lat":25.023989,"lon":121.546744,"name":"香葉泰式料理","decorType":"restaurant"},{"id":"node-4427396479","lat":25.024858,"lon":121.546918,"name":"康是美","decorType":"pharmacy"},{"id":"node-4430972992","lat":25.036699,"lon":121.545018,"name":"鈾咖啡","decorType":"cafe"},{"id":"node-4430972993","lat":25.03758,"lon":121.539181,"name":"悄悄好食","decorType":"bakery"},{"id":"node-4432479636","lat":25.034702,"lon":121.546138,"name":"包仔的店","decorType":"restaurant"},{"id":"node-4481939001","lat":25.025285,"lon":121.541932,"name":"瀧厚炙燒熟成牛排","decorType":"restaurant"},{"id":"node-4487228173","lat":25.037295,"lon":121.543536,"name":"福華飯店","decorType":"bus_stop"},{"id":"node-4524863567","lat":25.02829,"lon":121.543229,"name":"萊爾富","decorType":"convenience"},{"id":"node-4524863569","lat":25.036106,"lon":121.546118,"name":"Le Blanc","decorType":"restaurant"},{"id":"node-4524863571","lat":25.025233,"lon":121.542267,"name":"7-Eleven","decorType":"convenience"},{"id":"node-4524863572","lat":25.025894,"lon":121.539153,"name":"馬祖麵館","decorType":"restaurant"},{"id":"node-4524863585","lat":25.035891,"lon":121.543916,"name":"周記麵館","decorType":"restaurant"},{"id":"node-4524863586","lat":25.035854,"lon":121.543914,"name":"富興園","decorType":"restaurant"},{"id":"node-4524863587","lat":25.035805,"lon":121.543915,"name":"好棒棒平價快炒","decorType":"restaurant"},{"id":"node-4524863588","lat":25.035765,"lon":121.543918,"name":"溫州大餛飩","decorType":"restaurant"},{"id":"node-4524863589","lat":25.036887,"lon":121.544135,"name":"信義會恩光堂","decorType":"shrine"},{"id":"node-4524863590","lat":25.03526,"lon":121.545779,"name":"舒旅築旅","decorType":"restaurant"},{"id":"node-4524863635","lat":25.024456,"lon":121.547084,"name":"躍獅安和藥局","decorType":"pharmacy"},{"id":"node-4524863854","lat":25.033145,"lon":121.544433,"name":"屈臣氏","decorType":"pharmacy"},{"id":"node-4524863972","lat":25.032222,"lon":121.543804,"name":"7-Eleven","decorType":"convenience"},{"id":"node-4524863974","lat":25.037167,"lon":121.543894,"name":"丹提咖啡","decorType":"cafe"},{"id":"node-4524864048","lat":25.028489,"lon":121.543395,"name":"未命名郵局","decorType":"post_office"},{"id":"node-4524864051","lat":25.029433,"lon":121.543247,"name":"通化街米粉湯","decorType":"restaurant"},{"id":"node-4524864052","lat":25.032936,"lon":121.543367,"name":"吉野家","decorType":"burger"},{"id":"node-4524864184","lat":25.034129,"lon":121.546079,"name":"橘毛涮涮鍋","decorType":"restaurant"},{"id":"node-4524864553","lat":25.027731,"lon":121.543251,"name":"提拉米蘇","decorType":"bakery"},{"id":"node-4524864556","lat":25.033187,"lon":121.544223,"name":"未命名郵局","decorType":"post_office"},{"id":"node-4524864557","lat":25.031139,"lon":121.544695,"name":"浸宣大安教會","decorType":"shrine"},{"id":"node-4524864559","lat":25.03436,"lon":121.54561,"name":"日幕里","decorType":"restaurant"},{"id":"node-4524864560","lat":25.034351,"lon":121.546095,"name":"夠夠肉火鍋","decorType":"restaurant"},{"id":"node-4524864561","lat":25.035933,"lon":121.545851,"name":"循禮會台北教會","decorType":"shrine"},{"id":"node-4524864563","lat":25.036376,"lon":121.546266,"name":"春日日本料理","decorType":"restaurant"},{"id":"node-4524864565","lat":25.026204,"lon":121.543683,"name":"屈臣氏","decorType":"pharmacy"},{"id":"node-4524864566","lat":25.025332,"lon":121.538439,"name":"8鍋臭臭鍋","decorType":"restaurant"},{"id":"node-4524864577","lat":25.034354,"lon":121.54583,"name":"7-Eleven","decorType":"convenience"},{"id":"node-4538276222","lat":25.033148,"lon":121.544346,"name":"永和豆漿","decorType":"restaurant"},{"id":"node-4563914090","lat":25.033477,"lon":121.548132,"name":"Savour Cafe","decorType":"cafe"},{"id":"node-4605333184","lat":25.028179,"lon":121.541516,"name":"打醬油","decorType":"restaurant"},{"id":"node-4605333185","lat":25.028057,"lon":121.541662,"name":"The Unique","decorType":"restaurant"},{"id":"node-4609097291","lat":25.03821,"lon":121.544663,"name":"FiFi Bar","decorType":"restaurant"},{"id":"node-4622733193","lat":25.027934,"lon":121.542466,"name":"Leslie Pâtisserie & Bistro","decorType":"cafe"},{"id":"node-4659929791","lat":25.036115,"lon":121.546488,"name":"7-Eleven","decorType":"convenience"},{"id":"node-4712595189","lat":25.029394,"lon":121.538961,"name":"全聯福利中心","decorType":"supermarket"},{"id":"node-4754476220","lat":25.037529,"lon":121.547763,"name":"春申食府","decorType":"restaurant"},{"id":"node-4754476721","lat":25.023209,"lon":121.543218,"name":"點亮咖啡","decorType":"cafe"},{"id":"node-4771231228","lat":25.037162,"lon":121.546871,"name":"香港廣東粥","decorType":"restaurant"},{"id":"node-4798992021","lat":25.028646,"lon":121.539637,"name":"早安薬局","decorType":"pharmacy"},{"id":"node-4837986332","lat":25.024415,"lon":121.547711,"name":"義美食品","decorType":"convenience"},{"id":"node-4837986339","lat":25.031683,"lon":121.543778,"name":"義美食品","decorType":"convenience"},{"id":"node-4837986340","lat":25.024446,"lon":121.547238,"name":"溫溫時尚名品","decorType":"clothing"},{"id":"node-4837986342","lat":25.024414,"lon":121.547438,"name":"小林髮廊","decorType":"hair_salon"},{"id":"node-4837986345","lat":25.024405,"lon":121.5478,"name":"瑞麟美而美","decorType":"burger"},{"id":"node-4837986347","lat":25.025219,"lon":121.542371,"name":"Subway","decorType":"burger"},{"id":"node-4837986468","lat":25.034838,"lon":121.548218,"name":"全聯福利中心","decorType":"supermarket"},{"id":"node-4837986469","lat":25.037065,"lon":121.546906,"name":"全家便利商店","decorType":"convenience"},{"id":"node-4837986470","lat":25.036493,"lon":121.547148,"name":"Toko Indo","decorType":"convenience"},{"id":"node-4837986471","lat":25.035992,"lon":121.543505,"name":"未命名郵局","decorType":"post_office"},{"id":"node-4837986528","lat":25.029076,"lon":121.546059,"name":"未命名郵局","decorType":"post_office"},{"id":"node-4837986570","lat":25.025763,"lon":121.538557,"name":"屈臣氏","decorType":"pharmacy"},{"id":"node-4837986587","lat":25.033469,"lon":121.548167,"name":"赤肉羹魷魚羹","decorType":"restaurant"},{"id":"node-4921839019","lat":25.035203,"lon":121.535814,"name":"全聯福利中心","decorType":"supermarket"},{"id":"node-4921859508","lat":25.035055,"lon":121.53576,"name":"臺北市客委會 客家藝文中心","decorType":"art_gallery"},{"id":"node-4978451935","lat":25.038198,"lon":121.546405,"name":"摩斯漢堡","decorType":"burger"},{"id":"node-5061734721","lat":25.025507,"lon":121.537193,"name":"Key Wear","decorType":"clothing"},{"id":"node-5110348657","lat":25.026259,"lon":121.547755,"name":"餘記麵館","decorType":"restaurant"},{"id":"node-5110348658","lat":25.026341,"lon":121.547866,"name":"福皇宴港式小館","decorType":"restaurant"},{"id":"node-5110348659","lat":25.026351,"lon":121.547683,"name":"救世軍台北中央堂","decorType":"shrine"},{"id":"node-5110348782","lat":25.033869,"lon":121.545725,"name":"仁慈宮","decorType":"shrine"},{"id":"node-5128183221","lat":25.024276,"lon":121.537363,"name":"未命名郵局","decorType":"post_office"},{"id":"node-5257642642","lat":25.03364,"lon":121.543816,"name":"大戸屋","decorType":"restaurant"},{"id":"node-5369304260","lat":25.023216,"lon":121.542924,"name":"米多麗小館","decorType":"restaurant"},{"id":"node-5436859493","lat":25.032811,"lon":121.543019,"name":"le corner","decorType":"restaurant"},{"id":"node-5463352821","lat":25.032678,"lon":121.543338,"name":"大安煎包","decorType":"restaurant"},{"id":"node-5483729836","lat":25.032954,"lon":121.543902,"name":"義美食品","decorType":"convenience"},{"id":"node-5483729837","lat":25.032844,"lon":121.544725,"name":"Subway","decorType":"burger"},{"id":"node-5483729838","lat":25.033136,"lon":121.544747,"name":"7-Eleven","decorType":"convenience"},{"id":"node-5483729839","lat":25.033154,"lon":121.544589,"name":"路易莎咖啡","decorType":"cafe"},{"id":"node-5483729840","lat":25.033147,"lon":121.544542,"name":"餵我早餐","decorType":"cafe"},{"id":"node-5483729841","lat":25.03315,"lon":121.54439,"name":"鬍鬚張","decorType":"restaurant"},{"id":"node-5551815826","lat":25.033191,"lon":121.542276,"name":"cow banana","decorType":"cafe"},{"id":"node-5551835422","lat":25.033205,"lon":121.542044,"name":"越南河粉","decorType":"restaurant"},{"id":"node-5551835424","lat":25.033198,"lon":121.542101,"name":"彼得好咖啡","decorType":"cafe"},{"id":"node-5551835425","lat":25.033169,"lon":121.541984,"name":"alphaBlack","decorType":"cafe"},{"id":"node-5551835426","lat":25.033581,"lon":121.542553,"name":"丹堤咖啡","decorType":"cafe"},{"id":"node-5551844221","lat":25.033201,"lon":121.542132,"name":"cama現烘咖啡專門店","decorType":"cafe"},{"id":"node-5551847522","lat":25.033256,"lon":121.54258,"name":"捷運大安站3號出口","decorType":"station"},{"id":"node-5551857322","lat":25.033126,"lon":121.543255,"name":"Birkenstock","decorType":"clothing"},{"id":"node-5551865624","lat":25.033073,"lon":121.541976,"name":"岩谷新鐵板料理","decorType":"restaurant"},{"id":"node-5551865625","lat":25.033192,"lon":121.541778,"name":"意莉名店","decorType":"clothing"},{"id":"node-5551867521","lat":25.032965,"lon":121.541837,"name":"給力盒子","decorType":"restaurant"},{"id":"node-5551867527","lat":25.033201,"lon":121.541242,"name":"隱城•小城外","decorType":"restaurant"},{"id":"node-5551870923","lat":25.033236,"lon":121.540959,"name":"名旺精品陽傘","decorType":"clothing"},{"id":"node-5551870924","lat":25.030448,"lon":121.543333,"name":"ELITA","decorType":"clothing"},{"id":"node-5551873823","lat":25.032972,"lon":121.540768,"name":"桔梗三明治","decorType":"restaurant"},{"id":"node-5551874021","lat":25.033187,"lon":121.541667,"name":"智慧文具","decorType":"library"},{"id":"node-5551876236","lat":25.03063,"lon":121.543324,"name":"crush誇許早午餐下午茶","decorType":"cafe"},{"id":"node-5551876253","lat":25.033259,"lon":121.539031,"name":"Columbia","decorType":"clothing"},{"id":"node-5551876255","lat":25.033363,"lon":121.539583,"name":"Salomon S","decorType":"laundry"},{"id":"node-5551876521","lat":25.03084,"lon":121.543321,"name":"天辣麻辣","decorType":"restaurant"},{"id":"node-5551877226","lat":25.033252,"lon":121.538853,"name":"行家之旅","decorType":"clothing"},{"id":"node-5551877227","lat":25.032769,"lon":121.538186,"name":"清心福全","decorType":"cafe"},{"id":"node-5551887923","lat":25.032902,"lon":121.538199,"name":"建國手工水餃雲吞麵食館","decorType":"restaurant"},{"id":"node-5551891022","lat":25.033252,"lon":121.538442,"name":"非常量販","decorType":"clothing"},{"id":"node-5551893021","lat":25.032981,"lon":121.538201,"name":"林家米粉湯","decorType":"restaurant"},{"id":"node-5551897815","lat":25.025434,"lon":121.54368,"name":"康是美","decorType":"pharmacy"},{"id":"node-5551897905","lat":25.027584,"lon":121.543688,"name":"謝記珍寶食品莊","decorType":"restaurant"},{"id":"node-5551899795","lat":25.034314,"lon":121.543903,"name":"未命名咖啡廳","decorType":"cafe"},{"id":"node-5551899824","lat":25.033064,"lon":121.538195,"name":"小辣椒 魷魚羹 美濃粄條","decorType":"restaurant"},{"id":"node-5551902823","lat":25.034582,"lon":121.538286,"name":"Lotteria","decorType":"burger"},{"id":"node-5551907221","lat":25.034267,"lon":121.538249,"name":"萊爾富","decorType":"convenience"},{"id":"node-5551907222","lat":25.033657,"lon":121.539246,"name":"米盒子","decorType":"restaurant"},{"id":"node-5551907224","lat":25.033851,"lon":121.542299,"name":"你好咖啡旅館","decorType":"hotel"},{"id":"node-5551909602","lat":25.033897,"lon":121.543881,"name":"頂好榕樹下小吃店","decorType":"restaurant"},{"id":"node-5551909605","lat":25.034257,"lon":121.543696,"name":"大安站6號出口","decorType":"station"},{"id":"node-5551910322","lat":25.033657,"lon":121.539171,"name":"老虎醬溫州大餛飩","decorType":"restaurant"},{"id":"node-5551910930","lat":25.03372,"lon":121.53869,"name":"7-Eleven","decorType":"convenience"},{"id":"node-5551914393","lat":25.034046,"lon":121.543882,"name":"名店街","decorType":"convenience"},{"id":"node-5551916159","lat":25.034147,"lon":121.543369,"name":"YUI","decorType":"clothing"},{"id":"node-5551919184","lat":25.024877,"lon":121.546505,"name":"屈臣氏","decorType":"pharmacy"},{"id":"node-5551928250","lat":25.025495,"lon":121.543677,"name":"梁社漢排骨","decorType":"restaurant"},{"id":"node-5551928422","lat":25.034515,"lon":121.543368,"name":"布言布語","decorType":"clothing"},{"id":"node-5551928424","lat":25.02824,"lon":121.543721,"name":"好農市","decorType":"supermarket"},{"id":"node-5551928426","lat":25.028517,"lon":121.543816,"name":"Loranzo","decorType":"clothing"},{"id":"node-5551931022","lat":25.028554,"lon":121.543811,"name":"31well","decorType":"electronics"},{"id":"node-5551931024","lat":25.035285,"lon":121.543882,"name":"綠原品","decorType":"supermarket"},{"id":"node-5551936079","lat":25.033994,"lon":121.543904,"name":"T_shirt","decorType":"clothing"},{"id":"node-5551938425","lat":25.028198,"lon":121.543722,"name":"聖德科斯","decorType":"supermarket"},{"id":"node-5551938427","lat":25.024979,"lon":121.544311,"name":"陳記腸蚵麵線","decorType":"restaurant"},{"id":"node-5551938751","lat":25.024965,"lon":121.545347,"name":"盛味豐貼爐燒餅","decorType":"restaurant"},{"id":"node-5551944273","lat":25.027842,"lon":121.543253,"name":"大埔鐵板燒","decorType":"restaurant"},{"id":"node-5551944276","lat":25.024966,"lon":121.545187,"name":"巧房餡餅蔥油餅","decorType":"restaurant"},{"id":"node-5551950658","lat":25.028524,"lon":121.544092,"name":"麗泰藥局","decorType":"pharmacy"},{"id":"node-5589700022","lat":25.037136,"lon":121.547749,"name":"秦家餅店","decorType":"burger"},{"id":"node-5695162347","lat":25.035223,"lon":121.543974,"name":"燒味堂","decorType":"restaurant"},{"id":"node-5698897064","lat":25.032617,"lon":121.543785,"name":"林居","decorType":"restaurant"},{"id":"node-5699174871","lat":25.028816,"lon":121.540717,"name":"香吧佬","decorType":"restaurant"},{"id":"node-5699174872","lat":25.033987,"lon":121.542676,"name":"台北市召會第十七聚會所","decorType":"shrine"},{"id":"node-5699174873","lat":25.034492,"lon":121.543745,"name":"未命名郵局","decorType":"post_office"},{"id":"node-5699174874","lat":25.028294,"lon":121.542665,"name":"米克斯咖啡","decorType":"cafe"},{"id":"node-5699174877","lat":25.029372,"lon":121.542121,"name":"七里亭瑞安店","decorType":"restaurant"},{"id":"node-5699174878","lat":25.029479,"lon":121.542242,"name":"台北護靈宮","decorType":"shrine"},{"id":"node-5699174879","lat":25.02968,"lon":121.542553,"name":"Munchies Gastropub","decorType":"restaurant"},{"id":"node-5699174881","lat":25.033095,"lon":121.544873,"name":"大安健康人生藥局","decorType":"pharmacy"},{"id":"node-5699174886","lat":25.032859,"lon":121.544608,"name":"元氣家族麵飯館","decorType":"restaurant"},{"id":"node-5699174887","lat":25.032909,"lon":121.54461,"name":"光復牛肉麵","decorType":"restaurant"},{"id":"node-5699174889","lat":25.033187,"lon":121.544237,"name":"未命名郵局","decorType":"post_office"},{"id":"node-5699174893","lat":25.032634,"lon":121.543997,"name":"饞食坊","decorType":"restaurant"},{"id":"node-5699174894","lat":25.027348,"lon":121.543234,"name":"50嵐","decorType":"cafe"},{"id":"node-5699174896","lat":25.02638,"lon":121.543688,"name":"How Sweet","decorType":"bakery"},{"id":"node-5699174897","lat":25.026401,"lon":121.54369,"name":"奇威服飾","decorType":"clothing"},{"id":"node-5699174907","lat":25.029216,"lon":121.544149,"name":"未命名神社","decorType":"shrine"},{"id":"node-5699174910","lat":25.03083,"lon":121.543961,"name":"印加媽媽祕魯餐館","decorType":"restaurant"},{"id":"node-5699174911","lat":25.030863,"lon":121.543935,"name":"老哥水煎包麵線","decorType":"restaurant"},{"id":"node-5699180230","lat":25.031932,"lon":121.54382,"name":"すき家","decorType":"burger"},{"id":"node-5699180231","lat":25.032296,"lon":121.543901,"name":"丰食堂","decorType":"restaurant"},{"id":"node-5699180232","lat":25.032458,"lon":121.543787,"name":"享樂咖啡","decorType":"cafe"},{"id":"node-5699180233","lat":25.032498,"lon":121.543787,"name":"大安站那邊精緻熱炒","decorType":"restaurant"},{"id":"node-5699180234","lat":25.032552,"lon":121.543787,"name":"黑小串燒","decorType":"restaurant"},{"id":"node-5699180235","lat":25.032583,"lon":121.543787,"name":"Nuttea Nut Milk Tea","decorType":"cafe"},{"id":"node-5835453711","lat":25.026588,"lon":121.546936,"name":"7-Eleven","decorType":"convenience"},{"id":"node-5839491736","lat":25.038674,"lon":121.545269,"name":"7-Eleven","decorType":"convenience"},{"id":"node-5839491741","lat":25.038703,"lon":121.546147,"name":"橘毛涮涮鍋","decorType":"restaurant"},{"id":"node-5839491742","lat":25.038708,"lon":121.546242,"name":"台北商旅","decorType":"hotel"},{"id":"node-5839491743","lat":25.038295,"lon":121.54621,"name":"EPL Steakhouse & Lounge","decorType":"restaurant"},{"id":"node-5839638859","lat":25.02442,"lon":121.547329,"name":"Flavor of India \"Tasty Traditional Vegetarian\"","decorType":"restaurant"},{"id":"node-5839763026","lat":25.035675,"lon":121.543407,"name":"La Giara","decorType":"restaurant"},{"id":"node-5839790179","lat":25.02849,"lon":121.544298,"name":"大水缸","decorType":"restaurant"},{"id":"node-5839790180","lat":25.028474,"lon":121.544397,"name":"杏友藥局","decorType":"pharmacy"},{"id":"node-5839792243","lat":25.027555,"lon":121.545925,"name":"大漢堡早餐店","decorType":"restaurant"},{"id":"node-5839797913","lat":25.026737,"lon":121.545965,"name":"博昱連鎖大藥局","decorType":"pharmacy"},{"id":"node-5839808686","lat":25.027447,"lon":121.545913,"name":"綺綺乾洗","decorType":"laundry"},{"id":"node-5839953126","lat":25.03547,"lon":121.543884,"name":"悅華軒酒樓","decorType":"restaurant"},{"id":"node-5839973229","lat":25.025231,"lon":121.543656,"name":"聖瑪麗","decorType":"bakery"},{"id":"node-5842743664","lat":25.025881,"lon":121.546851,"name":"老龍牛肉麵大王","decorType":"restaurant"},{"id":"node-5845066129","lat":25.026262,"lon":121.547353,"name":"Johnson's","decorType":"restaurant"},{"id":"node-5845066130","lat":25.026266,"lon":121.547515,"name":"蘇江川小館","decorType":"restaurant"},{"id":"node-5845066131","lat":25.026264,"lon":121.54712,"name":"蔣記家薌麵","decorType":"restaurant"},{"id":"node-5845071457","lat":25.028286,"lon":121.547418,"name":"赤崁樓","decorType":"restaurant"},{"id":"node-5845287990","lat":25.024853,"lon":121.546982,"name":"三槍宜而爽","decorType":"clothing"},{"id":"node-5845316854","lat":25.024958,"lon":121.545687,"name":"溫州大餛飩阿婆乾麵","decorType":"restaurant"},{"id":"node-5845316855","lat":25.024965,"lon":121.545389,"name":"劉家飯糰","decorType":"restaurant"},{"id":"node-5845316856","lat":25.024895,"lon":121.546231,"name":"土托魚羹","decorType":"restaurant"},{"id":"node-5845316857","lat":25.024961,"lon":121.545631,"name":"辛川屋","decorType":"restaurant"},{"id":"node-5845316859","lat":25.02494,"lon":121.545897,"name":"和美台式自助餐","decorType":"restaurant"},{"id":"node-5845316860","lat":25.024966,"lon":121.54557,"name":"澳客炙燒牛排","decorType":"restaurant"},{"id":"node-5845347535","lat":25.025806,"lon":121.545072,"name":"豆漿燒餅油條","decorType":"burger"},{"id":"node-5853563029","lat":25.027932,"lon":121.543258,"name":"熱翻天生猛海鮮","decorType":"restaurant"},{"id":"node-5853563030","lat":25.027886,"lon":121.543254,"name":"春喜炭火燒肉","decorType":"restaurant"},{"id":"node-5856220174","lat":25.024433,"lon":121.548083,"name":"十三香","decorType":"restaurant"},{"id":"node-5856283860","lat":25.024417,"lon":121.547603,"name":"丹堤咖啡","decorType":"cafe"},{"id":"node-5858751909","lat":25.03278,"lon":121.547961,"name":"奧瑞岡義大利餐廳","decorType":"restaurant"},{"id":"node-5864552975","lat":25.027142,"lon":121.546156,"name":"菜圃","decorType":"supermarket"},{"id":"node-5864552976","lat":25.027146,"lon":121.546114,"name":"易家香Q飯糰","decorType":"burger"},{"id":"node-5864552977","lat":25.027153,"lon":121.546042,"name":"呷尚寶早餐店","decorType":"burger"},{"id":"node-5864569029","lat":25.027147,"lon":121.546078,"name":"雞師父雞排鹽酥雞","decorType":"burger"},{"id":"node-5884543609","lat":25.034067,"lon":121.546077,"name":"摩斯漢堡","decorType":"burger"},{"id":"node-5884543610","lat":25.033692,"lon":121.54608,"name":"櫻的小屋","decorType":"clothing"},{"id":"node-5884543611","lat":25.033664,"lon":121.546083,"name":"鼎旺鴛蛇麻辣鍋","decorType":"restaurant"},{"id":"node-5884543616","lat":25.034811,"lon":121.545889,"name":"馬丁咖啡","decorType":"cafe"},{"id":"node-5925683885","lat":25.032718,"lon":121.539365,"name":"The Whale","decorType":"restaurant"},{"id":"node-5992007285","lat":25.038509,"lon":121.547243,"name":"胡同燒肉","decorType":"restaurant"},{"id":"node-5997594189","lat":25.026326,"lon":121.541697,"name":"曬貓咖啡","decorType":"cafe"},{"id":"node-6055904186","lat":25.036753,"lon":121.543992,"name":"博多拉麵","decorType":"restaurant"},{"id":"node-6149991085","lat":25.036729,"lon":121.54426,"name":"Plants","decorType":"restaurant"},{"id":"node-6153748461","lat":25.034823,"lon":121.544881,"name":"Tuttle Aroma","decorType":"cafe"},{"id":"node-6153748462","lat":25.034645,"lon":121.545746,"name":"永隆乾洗商店","decorType":"laundry"},{"id":"node-6153748464","lat":25.035032,"lon":121.545602,"name":"仁愛長老教會","decorType":"shrine"},{"id":"node-6153748476","lat":25.038471,"lon":121.546497,"name":"東帝士男士理髮名店","decorType":"hair_salon"},{"id":"node-6153748477","lat":25.025843,"lon":121.545075,"name":"寶島扁食","decorType":"restaurant"},{"id":"node-6153989173","lat":25.02973,"lon":121.543264,"name":"一流清粥小菜","decorType":"restaurant"},{"id":"node-6159039441","lat":25.032664,"lon":121.538184,"name":"一路","decorType":"cafe"},{"id":"node-6165716353","lat":25.031977,"lon":121.539369,"name":"來吧Cafe'","decorType":"cafe"},{"id":"node-6165766447","lat":25.033056,"lon":121.543371,"name":"塩°パン 手作麵包本舖","decorType":"bakery"},{"id":"node-6165772973","lat":25.03402,"lon":121.543369,"name":"聖保羅烘焙花園","decorType":"bakery"},{"id":"node-6165778484","lat":25.033585,"lon":121.544273,"name":"相撲涮涮鍋","decorType":"restaurant"},{"id":"node-6165782097","lat":25.032833,"lon":121.545052,"name":"山玖鍋貼水餃","decorType":"restaurant"},{"id":"node-6172401985","lat":25.027009,"lon":121.53809,"name":"棉花田生機園地","decorType":"supermarket"},{"id":"node-6189925709","lat":25.02516,"lon":121.542792,"name":"好安心藥局","decorType":"pharmacy"},{"id":"node-6189925710","lat":25.025239,"lon":121.542228,"name":"195 Fan Aily Cafe","decorType":"cafe"},{"id":"node-6222359586","lat":25.027932,"lon":121.548149,"name":"法式修頌","decorType":"cafe"},{"id":"node-6279619785","lat":25.037569,"lon":121.538969,"name":"忠南飯館","decorType":"restaurant"},{"id":"node-6323456711","lat":25.033633,"lon":121.546361,"name":"咖站","decorType":"cafe"},{"id":"node-6367036687","lat":25.036453,"lon":121.547772,"name":"原點","decorType":"bakery"},{"id":"node-6367049185","lat":25.036567,"lon":121.546987,"name":"卡菲米朗坊精品咖啡","decorType":"cafe"},{"id":"node-6376059483","lat":25.03163,"lon":121.543777,"name":"小樽早餐店","decorType":"restaurant"},{"id":"node-6376059484","lat":25.031658,"lon":121.543777,"name":"Trust Me","decorType":"clothing"},{"id":"node-6376062385","lat":25.031713,"lon":121.543813,"name":"FINE CLothing & Accessories","decorType":"clothing"},{"id":"node-6376062387","lat":25.025263,"lon":121.543653,"name":"Kezza","decorType":"clothing"},{"id":"node-6376062389","lat":25.025194,"lon":121.542553,"name":"真芳","decorType":"burger"},{"id":"node-6454457189","lat":25.035434,"lon":121.543164,"name":"川湘號","decorType":"restaurant"},{"id":"node-6571077021","lat":25.028338,"lon":121.546809,"name":"牛莊園牛肉麵","decorType":"restaurant"},{"id":"node-6585779686","lat":25.032865,"lon":121.541837,"name":"NoName咖哩","decorType":"restaurant"},{"id":"node-6585779785","lat":25.035352,"lon":121.54442,"name":"Moon Baking studio","decorType":"bakery"},{"id":"node-6601666488","lat":25.023661,"lon":121.543581,"name":"胖老爹美式炸雞","decorType":"burger"},{"id":"node-6604262834","lat":25.026602,"lon":121.543178,"name":"復興教會","decorType":"shrine"},{"id":"node-6604320350","lat":25.026887,"lon":121.543221,"name":"金城便當","decorType":"restaurant"},{"id":"node-6604320351","lat":25.026629,"lon":121.543216,"name":"七棧茶","decorType":"cafe"},{"id":"node-6679978785","lat":25.028326,"lon":121.546767,"name":"牛莊園蔬果湯頭牛肉麵","decorType":"restaurant"},{"id":"node-6703646973","lat":25.025227,"lon":121.542653,"name":"麒雲餐廳","decorType":"restaurant"},{"id":"node-6769597890","lat":25.024608,"lon":121.543105,"name":"TCOC 台灣國際基督教會","decorType":"shrine"},{"id":"node-6775539322","lat":25.025673,"lon":121.544658,"name":"Louisa Cafe","decorType":"cafe"},{"id":"node-6775539323","lat":25.025685,"lon":121.543896,"name":"7-Eleven","decorType":"convenience"},{"id":"node-6780734597","lat":25.028454,"lon":121.547969,"name":"神樂屋日式料理","decorType":"restaurant"},{"id":"node-6843933721","lat":25.027211,"lon":121.545526,"name":"j-cut專業剪燙沙龍","decorType":"hair_salon"},{"id":"node-7021849194","lat":25.025324,"lon":121.538505,"name":"伍陸時尚","decorType":"clothing"},{"id":"node-7056032338","lat":25.02388,"lon":121.543572,"name":"樂町屋","decorType":"restaurant"},{"id":"node-7066831585","lat":25.035729,"lon":121.54701,"name":"四知堂TUA攤","decorType":"restaurant"},{"id":"node-7095347114","lat":25.038519,"lon":121.545348,"name":"橘色涮涮屋","decorType":"restaurant"},{"id":"node-7150030202","lat":25.03465,"lon":121.54748,"name":"秋料理","decorType":"restaurant"},{"id":"node-7175334730","lat":25.031216,"lon":121.547945,"name":"展翔早餐吧","decorType":"restaurant"},{"id":"node-7175334735","lat":25.031375,"lon":121.546147,"name":"韓風館","decorType":"restaurant"},{"id":"node-7175334745","lat":25.034262,"lon":121.538699,"name":"家鄉自助餐","decorType":"restaurant"},{"id":"node-7175334750","lat":25.034055,"lon":121.538827,"name":"越蓮料理坊","decorType":"restaurant"},{"id":"node-7175334775","lat":25.028127,"lon":121.54668,"name":"赤牛城","decorType":"restaurant"},{"id":"node-7175334781","lat":25.028137,"lon":121.546598,"name":"滿樂鐵板吐司","decorType":"restaurant"},{"id":"node-7175344500","lat":25.030673,"lon":121.543274,"name":"誇許早午餐","decorType":"restaurant"},{"id":"node-7175344505","lat":25.030391,"lon":121.545829,"name":"大安大安18","decorType":"restaurant"},{"id":"node-7175344517","lat":25.035114,"lon":121.537391,"name":"弍兩日式炭火燒肉","decorType":"restaurant"},{"id":"node-7175344522","lat":25.033809,"lon":121.539012,"name":"范姜川味牛肉麵","decorType":"restaurant"},{"id":"node-7175344527","lat":25.033659,"lon":121.539092,"name":"小勇士德州炸雞","decorType":"burger"},{"id":"node-7175344549","lat":25.027208,"lon":121.545556,"name":"亞果早午廚坊","decorType":"restaurant"},{"id":"node-7175344556","lat":25.028436,"lon":121.546252,"name":"金霸臭臭鍋","decorType":"restaurant"},{"id":"node-7175344562","lat":25.028453,"lon":121.545862,"name":"珍品佳盒餐","decorType":"restaurant"},{"id":"node-7175344569","lat":25.033307,"lon":121.538988,"name":"朱記餡餅粥店","decorType":"restaurant"},{"id":"node-7175344575","lat":25.03066,"lon":121.543324,"name":"山嵐拉麵","decorType":"restaurant"},{"id":"node-7175344582","lat":25.030086,"lon":121.545921,"name":"我家牛排","decorType":"restaurant"},{"id":"node-7175344588","lat":25.027154,"lon":121.546065,"name":"易家香Q飯糰","decorType":"restaurant"},{"id":"node-7175344594","lat":25.035047,"lon":121.53729,"name":"安娜法蘭法式蔬食","decorType":"restaurant"},{"id":"node-7175344626","lat":25.027206,"lon":121.54601,"name":"呷尚寶","decorType":"burger"},{"id":"node-7175344631","lat":25.028301,"lon":121.546909,"name":"木子日青","decorType":"restaurant"},{"id":"node-7175344643","lat":25.028451,"lon":121.545217,"name":"欽豪燒腊盒餐","decorType":"restaurant"},{"id":"node-7175344649","lat":25.032645,"lon":121.539392,"name":"幸福麵食餃子館","decorType":"restaurant"},{"id":"node-7175344655","lat":25.031105,"lon":121.547949,"name":"四維路麵攤","decorType":"restaurant"},{"id":"node-7175344662","lat":25.028732,"lon":121.54609,"name":"瑞麟美而美","decorType":"burger"},{"id":"node-7175344668","lat":25.033996,"lon":121.536051,"name":"真書軒 The Jen Library","decorType":"cafe"},{"id":"node-7175344674","lat":25.034166,"lon":121.538731,"name":"耘華居素食茶葉","decorType":"restaurant"},{"id":"node-7175344707","lat":25.02835,"lon":121.546747,"name":"海福岡日本料理海鮮熱炒","decorType":"restaurant"},{"id":"node-7175344713","lat":25.02851,"lon":121.545984,"name":"角屋關東煮","decorType":"restaurant"},{"id":"node-7175344724","lat":25.032754,"lon":121.539275,"name":"餵我早餐","decorType":"restaurant"},{"id":"node-7175344730","lat":25.031073,"lon":121.547481,"name":"原涮 樂活鍋物 Love Pot","decorType":"restaurant"},{"id":"node-7175344736","lat":25.029823,"lon":121.545903,"name":"麥味登","decorType":"restaurant"},{"id":"node-7175344742","lat":25.034239,"lon":121.537431,"name":"池上木片便當","decorType":"restaurant"},{"id":"node-7175344747","lat":25.034313,"lon":121.538663,"name":"好朋友早餐吧","decorType":"restaurant"},{"id":"node-7175344752","lat":25.033701,"lon":121.538743,"name":"八麵玲瓏","decorType":"restaurant"},{"id":"node-7175344778","lat":25.028124,"lon":121.546723,"name":"四維紅麵線","decorType":"restaurant"},{"id":"node-7175344782","lat":25.02836,"lon":121.546147,"name":"哥萊早餐屋","decorType":"restaurant"},{"id":"node-7175344795","lat":25.033771,"lon":121.539313,"name":"菊乃屋","decorType":"restaurant"},{"id":"node-7200280624","lat":25.026579,"lon":121.547751,"name":"床邊圖書館","decorType":"library"},{"id":"node-7213007938","lat":25.027387,"lon":121.540359,"name":"上海大安理髮廳","decorType":"hair_salon"},{"id":"node-7213007939","lat":25.02697,"lon":121.539546,"name":"韓國時間","decorType":"restaurant"},{"id":"node-7213007941","lat":25.026368,"lon":121.539451,"name":"黑川日本料理","decorType":"restaurant"},{"id":"node-7213007942","lat":25.026397,"lon":121.539466,"name":"嘰嘰喳喳","decorType":"restaurant"},{"id":"node-7213007943","lat":25.026478,"lon":121.539514,"name":"巴薩克咖啡","decorType":"cafe"},{"id":"node-7213007944","lat":25.026336,"lon":121.539217,"name":"上鼎豐小籠湯包","decorType":"restaurant"},{"id":"node-7213007945","lat":25.025955,"lon":121.539169,"name":"越南河粉","decorType":"restaurant"},{"id":"node-7213007947","lat":25.025998,"lon":121.539176,"name":"溫州大混沌","decorType":"restaurant"},{"id":"node-7213007949","lat":25.026042,"lon":121.539087,"name":"吉富早餐","decorType":"restaurant"},{"id":"node-7213007952","lat":25.025288,"lon":121.538752,"name":"山林美食館","decorType":"restaurant"},{"id":"node-7213007982","lat":25.023132,"lon":121.542951,"name":"Barkers","decorType":"restaurant"},{"id":"node-7213007983","lat":25.023177,"lon":121.54295,"name":"118巷自助洗衣","decorType":"laundry"},{"id":"node-7213007984","lat":25.023261,"lon":121.542938,"name":"湄賽雲泰料理","decorType":"restaurant"},{"id":"node-7213037285","lat":25.023935,"lon":121.542929,"name":"魯心麵","decorType":"restaurant"},{"id":"node-7213037286","lat":25.023815,"lon":121.542771,"name":"裸湯拉麵 雞白湯","decorType":"restaurant"},{"id":"node-7213037287","lat":25.024106,"lon":121.542825,"name":"小姊妹麻辣食堂","decorType":"restaurant"},{"id":"node-7384220349","lat":25.033733,"lon":121.536666,"name":"7-Eleven","decorType":"convenience"},{"id":"node-7384458590","lat":25.034207,"lon":121.536012,"name":"全家便利商店","decorType":"convenience"},{"id":"node-7594595992","lat":25.026578,"lon":121.543996,"name":"本山拉麵","decorType":"restaurant"},{"id":"node-7647240944","lat":25.031453,"lon":121.546143,"name":"必勝客","decorType":"restaurant"},{"id":"node-7647240953","lat":25.031611,"lon":121.544528,"name":"饞食堂","decorType":"restaurant"},{"id":"node-7647240954","lat":25.031801,"lon":121.544527,"name":"杯盃","decorType":"cafe"},{"id":"node-7647240955","lat":25.031687,"lon":121.544545,"name":"吉米樂狗 Jimmy's Hotdog Club","decorType":"burger"},{"id":"node-7647240956","lat":25.033021,"lon":121.544721,"name":"素食","decorType":"restaurant"},{"id":"node-7647240957","lat":25.032942,"lon":121.544759,"name":"熊熊吃到飽早餐","decorType":"restaurant"},{"id":"node-7647240958","lat":25.032944,"lon":121.544723,"name":"炒飯","decorType":"restaurant"},{"id":"node-7647240959","lat":25.0329,"lon":121.544721,"name":"Kyoto Koji精肉店","decorType":"restaurant"},{"id":"node-7647240960","lat":25.032956,"lon":121.544597,"name":"飯麵","decorType":"restaurant"},{"id":"node-7695463324","lat":25.026649,"lon":121.541725,"name":"森之豆","decorType":"restaurant"},{"id":"node-7695463325","lat":25.02732,"lon":121.540097,"name":"巧巧香雞排","decorType":"restaurant"},{"id":"node-7695463326","lat":25.026717,"lon":121.539687,"name":"ANTICO FORNO","decorType":"restaurant"},{"id":"node-7695463327","lat":25.028093,"lon":121.53854,"name":"四川蜀渝小吃","decorType":"restaurant"},{"id":"node-7695463328","lat":25.02869,"lon":121.538656,"name":"八方雲集","decorType":"burger"},{"id":"node-7695463329","lat":25.028664,"lon":121.538576,"name":"仁里居","decorType":"restaurant"},{"id":"node-7695463330","lat":25.028665,"lon":121.538626,"name":"壹伍壹麵食館","decorType":"restaurant"},{"id":"node-7695706061","lat":25.038575,"lon":121.546227,"name":"橘色涮涮屋","decorType":"restaurant"},{"id":"node-7695706062","lat":25.038237,"lon":121.546831,"name":"永和豆漿大王","decorType":"restaurant"},{"id":"node-7695706063","lat":25.038248,"lon":121.546965,"name":"九如商號","decorType":"restaurant"},{"id":"node-7695706064","lat":25.038263,"lon":121.547238,"name":"Winona葡萄酒餐廳","decorType":"restaurant"},{"id":"node-7695706065","lat":25.038271,"lon":121.547399,"name":"沾美西餐廳","decorType":"restaurant"},{"id":"node-7695706069","lat":25.03873,"lon":121.54761,"name":"樂軒和牛專門店","decorType":"restaurant"},{"id":"node-7695801660","lat":25.030037,"lon":121.545922,"name":"麻吉迷你鯛魚燒","decorType":"restaurant"},{"id":"node-7695801662","lat":25.03217,"lon":121.545862,"name":"胖老爹美式炸雞","decorType":"burger"},{"id":"node-7695801663","lat":25.032351,"lon":121.546094,"name":"阿嬌海鮮料理","decorType":"restaurant"},{"id":"node-7695801664","lat":25.032376,"lon":121.545888,"name":"小南鄭記","decorType":"restaurant"},{"id":"node-7695801665","lat":25.032583,"lon":121.545865,"name":"圓圓小籠湯包","decorType":"restaurant"},{"id":"node-7695801666","lat":25.032717,"lon":121.545858,"name":"王家刀切麵","decorType":"restaurant"},{"id":"node-7695801667","lat":25.032652,"lon":121.54586,"name":"粥師傅廣東粥","decorType":"restaurant"},{"id":"node-7695801668","lat":25.032776,"lon":121.545851,"name":"江蘇老趙刀切麵","decorType":"restaurant"},{"id":"node-7695801669","lat":25.032834,"lon":121.545848,"name":"老鄒刀切麵","decorType":"restaurant"},{"id":"node-7695801670","lat":25.032894,"lon":121.545842,"name":"小北方美食館","decorType":"restaurant"},{"id":"node-7695801671","lat":25.032978,"lon":121.545833,"name":"東家美食館","decorType":"restaurant"},{"id":"node-7695801672","lat":25.033093,"lon":121.545837,"name":"信維市場米粉湯","decorType":"restaurant"},{"id":"node-7695801673","lat":25.033146,"lon":121.545812,"name":"草菩提素食拉麵","decorType":"restaurant"},{"id":"node-7728028467","lat":25.035937,"lon":121.546093,"name":"東大麵線","decorType":"restaurant"},{"id":"node-7728028469","lat":25.035864,"lon":121.546088,"name":"薇朵","decorType":"clothing"},{"id":"node-7749841906","lat":25.036075,"lon":121.547592,"name":"陸光小吃館","decorType":"restaurant"},{"id":"node-7749841907","lat":25.036099,"lon":121.547499,"name":"黑武士餐坊","decorType":"restaurant"},{"id":"node-7749841908","lat":25.036274,"lon":121.547125,"name":"咪咪小館","decorType":"restaurant"},{"id":"node-7749841909","lat":25.03628,"lon":121.546982,"name":"昭和食堂","decorType":"restaurant"},{"id":"node-7749841910","lat":25.036128,"lon":121.546963,"name":"KIKI 餐廳","decorType":"restaurant"},{"id":"node-7749841911","lat":25.036112,"lon":121.546834,"name":"當心上癮","decorType":"restaurant"},{"id":"node-7749841912","lat":25.036361,"lon":121.546114,"name":"台南周氏冰鎮滷味","decorType":"restaurant"},{"id":"node-7749841913","lat":25.036683,"lon":121.545611,"name":"陳鐵心","decorType":"restaurant"},{"id":"node-7749841914","lat":25.036683,"lon":121.545417,"name":"陳記豬肝湯","decorType":"restaurant"},{"id":"node-7749841915","lat":25.036689,"lon":121.545256,"name":"麥軒早餐店","decorType":"restaurant"},{"id":"node-7749841916","lat":25.036535,"lon":121.545287,"name":"達美樂","decorType":"restaurant"},{"id":"node-7749841918","lat":25.036566,"lon":121.545931,"name":"晴光紅豆餅","decorType":"restaurant"},{"id":"node-7749841919","lat":25.036945,"lon":121.546142,"name":"少小白大安旗艦店","decorType":"restaurant"},{"id":"node-7749841920","lat":25.037139,"lon":121.544302,"name":"手串本舖串燒","decorType":"restaurant"},{"id":"node-7749841921","lat":25.037478,"lon":121.544382,"name":"瑞麟美而美","decorType":"burger"},{"id":"node-7765187600","lat":25.037515,"lon":121.539189,"name":"Hawkeye Taipei","decorType":"restaurant"},{"id":"node-7765187689","lat":25.036005,"lon":121.542529,"name":"成都老么牛肉麵","decorType":"restaurant"},{"id":"node-7765187690","lat":25.037591,"lon":121.539011,"name":"奪愛Dazzle","decorType":"restaurant"},{"id":"node-7765187777","lat":25.03759,"lon":121.538899,"name":"烤蘋果派的方法","decorType":"restaurant"},{"id":"node-7765187791","lat":25.025138,"lon":121.539199,"name":"呂巷仔口麵食館","decorType":"restaurant"},{"id":"node-7765187801","lat":25.036117,"lon":121.535464,"name":"素食","decorType":"restaurant"},{"id":"node-7765187805","lat":25.033983,"lon":121.54294,"name":"品牌空間","decorType":"restaurant"},{"id":"node-7765187811","lat":25.036001,"lon":121.542426,"name":"仁愛魚丸冬粉","decorType":"restaurant"},{"id":"node-7765187901","lat":25.029367,"lon":121.54066,"name":"田中園 (大安店)","decorType":"cafe"},{"id":"node-7765188004","lat":25.024513,"lon":121.541385,"name":"成口香","decorType":"restaurant"},{"id":"node-7765188037","lat":25.035999,"lon":121.542828,"name":"賈糊塗小吃","decorType":"restaurant"},{"id":"node-7765188390","lat":25.036713,"lon":121.535668,"name":"居樂堂甜鋪","decorType":"restaurant"},{"id":"node-7765188437","lat":25.024956,"lon":121.539191,"name":"麵攤","decorType":"restaurant"},{"id":"node-7765188441","lat":25.037576,"lon":121.538841,"name":"幸福麵食餃子館","decorType":"restaurant"},{"id":"node-7765188471","lat":25.029118,"lon":121.54071,"name":"日日香小館","decorType":"restaurant"},{"id":"node-7772769994","lat":25.035538,"lon":121.535465,"name":"金龍餐飲店","decorType":"restaurant"},{"id":"node-7773737838","lat":25.035033,"lon":121.546947,"name":"蘭亭燒肉 和牛極緻料理","decorType":"restaurant"},{"id":"node-7775054467","lat":25.036614,"lon":121.535706,"name":"麥味登","decorType":"restaurant"},{"id":"node-7787593822","lat":25.028684,"lon":121.53816,"name":"男仕理髮","decorType":"hair_salon"},{"id":"node-7787593823","lat":25.028668,"lon":121.538775,"name":"格拉齊義大利麵食館","decorType":"restaurant"},{"id":"node-7787593826","lat":25.028644,"lon":121.539124,"name":"明德素食園","decorType":"restaurant"},{"id":"node-7787593827","lat":25.028648,"lon":121.539208,"name":"濟安國際","decorType":"supermarket"},{"id":"node-7787823099","lat":25.028603,"lon":121.540051,"name":"魚韻日式料理","decorType":"restaurant"},{"id":"node-7787823100","lat":25.028824,"lon":121.540041,"name":"中保無限家","decorType":"cafe"},{"id":"node-7787823102","lat":25.028614,"lon":121.540406,"name":"小林髮廊","decorType":"hair_salon"},{"id":"node-7787823104","lat":25.028576,"lon":121.540617,"name":"杏一藥局","decorType":"pharmacy"},{"id":"node-7791613826","lat":25.028622,"lon":121.540255,"name":"山西御品刀削麵館","decorType":"restaurant"},{"id":"node-7791617593","lat":25.025693,"lon":121.535857,"name":"樂饕","decorType":"restaurant"},{"id":"node-7791617607","lat":25.028499,"lon":121.544628,"name":"杏友藥局","decorType":"pharmacy"},{"id":"node-7791617608","lat":25.028501,"lon":121.544729,"name":"鴻恩老麵饅頭","decorType":"restaurant"},{"id":"node-7817910516","lat":25.032186,"lon":121.544552,"name":"龍華燒臘","decorType":"restaurant"},{"id":"node-7817910517","lat":25.032306,"lon":121.544549,"name":"新康洗衣店","decorType":"laundry"},{"id":"node-7817910518","lat":25.032142,"lon":121.544547,"name":"Big Table","decorType":"restaurant"},{"id":"node-7817910519","lat":25.032253,"lon":121.544551,"name":"貳店虹吸咖啡專門店","decorType":"cafe"},{"id":"node-7817910520","lat":25.031793,"lon":121.544692,"name":"這間咖啡","decorType":"cafe"},{"id":"node-7817910521","lat":25.032033,"lon":121.544709,"name":"在家咖啡手沖咖啡專門店","decorType":"cafe"},{"id":"node-7827965769","lat":25.034958,"lon":121.540422,"name":"未命名餐廳","decorType":"restaurant"},{"id":"node-8118207169","lat":25.030681,"lon":121.545971,"name":"7-Eleven","decorType":"convenience"},{"id":"node-8145497484","lat":25.034087,"lon":121.537421,"name":"幸福七角棧","decorType":"restaurant"},{"id":"node-8145680552","lat":25.032947,"lon":121.540925,"name":"運鈍根湯","decorType":"restaurant"},{"id":"node-8145680553","lat":25.033062,"lon":121.541837,"name":"吉鴙拉麵","decorType":"restaurant"},{"id":"node-8145680554","lat":25.036178,"lon":121.544049,"name":"玖五牛肉麵","decorType":"restaurant"},{"id":"node-8145680555","lat":25.036942,"lon":121.54632,"name":"三牛日本料理","decorType":"restaurant"},{"id":"node-8145680556","lat":25.036954,"lon":121.547031,"name":"廊香Les Champs","decorType":"restaurant"},{"id":"node-8145680557","lat":25.036903,"lon":121.547822,"name":"興美切仔麵","decorType":"restaurant"},{"id":"node-8145680558","lat":25.036922,"lon":121.547929,"name":"芯","decorType":"restaurant"},{"id":"node-8145680559","lat":25.037003,"lon":121.548001,"name":"龍翔園餐廳","decorType":"restaurant"},{"id":"node-8145680560","lat":25.037098,"lon":121.547985,"name":"老饕食堂","decorType":"restaurant"},{"id":"node-8145680561","lat":25.037128,"lon":121.547551,"name":"一期一會","decorType":"restaurant"},{"id":"node-8145680562","lat":25.036546,"lon":121.547168,"name":"十方長私廚料理","decorType":"restaurant"},{"id":"node-8145680563","lat":25.036693,"lon":121.547542,"name":"凱恩斯岩燒餐廳","decorType":"restaurant"},{"id":"node-8145680564","lat":25.036692,"lon":121.547879,"name":"Cafe By Juicy Diary","decorType":"restaurant"},{"id":"node-8145680565","lat":25.036302,"lon":121.548041,"name":"MUME","decorType":"restaurant"},{"id":"node-8145680566","lat":25.036173,"lon":121.548051,"name":"a.Bistro","decorType":"restaurant"},{"id":"node-8145680567","lat":25.035925,"lon":121.546488,"name":"樵","decorType":"restaurant"},{"id":"node-8145680568","lat":25.035939,"lon":121.546913,"name":"HANCHU","decorType":"restaurant"},{"id":"node-8145680569","lat":25.035206,"lon":121.547331,"name":"chinois","decorType":"restaurant"},{"id":"node-8145680570","lat":25.035189,"lon":121.547182,"name":"牡丹 天ぷら","decorType":"restaurant"},{"id":"node-8145680571","lat":25.035024,"lon":121.546776,"name":"木子31咖啡餐飲","decorType":"restaurant"},{"id":"node-8145680572","lat":25.035054,"lon":121.546533,"name":"21料理所","decorType":"restaurant"},{"id":"node-8145680573","lat":25.035026,"lon":121.546308,"name":"老鼎旺","decorType":"restaurant"},{"id":"node-8145680574","lat":25.034609,"lon":121.546144,"name":"茉莉漢堡","decorType":"restaurant"},{"id":"node-8145680575","lat":25.034477,"lon":121.546196,"name":"鼎旺麻辣鍋","decorType":"restaurant"},{"id":"node-8145680576","lat":25.034428,"lon":121.545059,"name":"婷婷咖啡簡餐","decorType":"restaurant"},{"id":"node-8145680577","lat":25.034377,"lon":121.538875,"name":"清粥小菜","decorType":"restaurant"},{"id":"node-8145680578","lat":25.03511,"lon":121.538292,"name":"甜10工作室","decorType":"restaurant"},{"id":"node-8145680579","lat":25.03457,"lon":121.538511,"name":"珍品魯肉飯","decorType":"restaurant"},{"id":"node-8145680580","lat":25.03378,"lon":121.538419,"name":"爭鮮","decorType":"restaurant"},{"id":"node-8237768564","lat":25.038591,"lon":121.54821,"name":"BAPE","decorType":"clothing"},{"id":"node-8280854457","lat":25.035515,"lon":121.54505,"name":"oncepoon","decorType":"restaurant"},{"id":"node-8280854458","lat":25.035946,"lon":121.545506,"name":"脂一の鍋","decorType":"restaurant"},{"id":"node-8378684491","lat":25.035229,"lon":121.544887,"name":"極膳頂級草本鍋","decorType":"restaurant"},{"id":"node-8385313541","lat":25.025728,"lon":121.535711,"name":"八方雲集","decorType":"burger"},{"id":"node-8385313630","lat":25.032171,"lon":121.546103,"name":"八方雲集","decorType":"burger"},{"id":"node-8420400116","lat":25.026058,"lon":121.543645,"name":"捷運科技大樓站","decorType":"bus_stop"},{"id":"node-8421027757","lat":25.026739,"lon":121.543347,"name":"捷運科技大樓站","decorType":"bus_stop"},{"id":"node-8518273543","lat":25.03786,"lon":121.543403,"name":"仁愛復興路口(福華飯店)","decorType":"bus_stop"},{"id":"node-8779146710","lat":25.036359,"lon":121.545451,"name":"迷你咖啡館","decorType":"cafe"},{"id":"node-8973186970","lat":25.025715,"lon":121.545063,"name":"和平食光","decorType":"restaurant"},{"id":"node-9049616158","lat":25.031853,"lon":121.545861,"name":"HWC黑沃咖啡 大安瑞安店","decorType":"cafe"},{"id":"node-9049640646","lat":25.024459,"lon":121.548024,"name":"HWC黑沃咖啡","decorType":"cafe"},{"id":"node-9217530580","lat":25.037612,"lon":121.546217,"name":"福利麵包食品有限公司-仁愛店","decorType":"bakery"},{"id":"node-9362998874","lat":25.02926,"lon":121.542034,"name":"蝦皮店到店","decorType":"convenience"},{"id":"node-9894794483","lat":25.033274,"lon":121.538309,"name":"路易莎咖啡","decorType":"cafe"},{"id":"node-10161168318","lat":25.02348,"lon":121.542928,"name":"唯雞館","decorType":"restaurant"},{"id":"node-10185290573","lat":25.024962,"lon":121.544866,"name":"烏弄原生茶飲","decorType":"cafe"},{"id":"node-10226938268","lat":25.028052,"lon":121.547911,"name":"路易莎咖啡","decorType":"cafe"},{"id":"node-10569191071","lat":25.033292,"lon":121.536139,"name":"未命名車站","decorType":"station"},{"id":"node-10826522735","lat":25.036476,"lon":121.547212,"name":"M17 cafe & lab 中途貓咪咖啡館實驗室","decorType":"cafe"},{"id":"node-10880147216","lat":25.024776,"lon":121.546468,"name":"未命名郵局","decorType":"post_office"},{"id":"node-11035547977","lat":25.035467,"lon":121.548191,"name":"巷子龍家常菜","decorType":"restaurant"},{"id":"node-11207310293","lat":25.028163,"lon":121.546816,"name":"春桂雞肉","decorType":"restaurant"},{"id":"node-11387164680","lat":25.033298,"lon":121.535582,"name":"未命名車站","decorType":"station"},{"id":"node-11898785426","lat":25.033945,"lon":121.540713,"name":"合作社","decorType":"convenience"},{"id":"node-11951580629","lat":25.026631,"lon":121.539381,"name":"拉麵 らぁ麺-魚堺","decorType":"restaurant"},{"id":"node-12064212785","lat":25.025845,"lon":121.546849,"name":"媽媽米亞","decorType":"burger"},{"id":"node-12064212786","lat":25.026274,"lon":121.546911,"name":"成功乾洗","decorType":"laundry"},{"id":"node-12064212787","lat":25.026198,"lon":121.546909,"name":"37號海鮮粥","decorType":"restaurant"},{"id":"node-12198744451","lat":25.03395,"lon":121.5406,"name":"南樓熱食部","decorType":"restaurant"},{"id":"node-12198801992","lat":25.033129,"lon":121.542687,"name":"摩斯漢堡(附中店)","decorType":"burger"},{"id":"node-12235762035","lat":25.023555,"lon":121.542729,"name":"未命名公園","decorType":"park"},{"id":"node-12395478201","lat":25.025571,"lon":121.539943,"name":"拿坡里披薩","decorType":"burger"},{"id":"node-12475356603","lat":25.025501,"lon":121.540563,"name":"早安有喜-大安和平店","decorType":"restaurant"},{"id":"node-12590080872","lat":25.035403,"lon":121.545203,"name":"77opèt","decorType":"restaurant"},{"id":"node-12827757101","lat":25.034113,"lon":121.53523,"name":"Sucré Beans","decorType":"cafe"},{"id":"node-12840260252","lat":25.023514,"lon":121.543212,"name":"大安米粉湯","decorType":"restaurant"},{"id":"node-12848662837","lat":25.037306,"lon":121.5464,"name":"蒝山拉麵","decorType":"restaurant"},{"id":"node-12852320142","lat":25.035213,"lon":121.543408,"name":"全家便利商店","decorType":"convenience"},{"id":"node-12852378830","lat":25.034106,"lon":121.543869,"name":"Bros Coffee","decorType":"cafe"},{"id":"node-12856801179","lat":25.036287,"lon":121.547012,"name":"Chun Ramen Shop","decorType":"restaurant"},{"id":"node-12856801180","lat":25.036859,"lon":121.547131,"name":"Fifteen","decorType":"cafe"},{"id":"node-12860053876","lat":25.035397,"lon":121.546108,"name":"強記港式小館","decorType":"burger"},{"id":"node-12860086003","lat":25.035325,"lon":121.546084,"name":"Our Owl","decorType":"cafe"},{"id":"node-12860086004","lat":25.035655,"lon":121.546103,"name":"Martin Coffee","decorType":"cafe"},{"id":"node-12860417498","lat":25.037145,"lon":121.546149,"name":"杏 一 Medfirst","decorType":"pharmacy"},{"id":"node-12861757712","lat":25.036943,"lon":121.543888,"name":"7-Eleven","decorType":"convenience"},{"id":"node-12882720201","lat":25.023473,"lon":121.541243,"name":"和日一五號","decorType":"restaurant"},{"id":"node-12976937917","lat":25.025009,"lon":121.543788,"name":"路易莎咖啡","decorType":"cafe"},{"id":"node-12976937919","lat":25.028664,"lon":121.543759,"name":"倍邱室咖啡","decorType":"cafe"},{"id":"node-13094471759","lat":25.033592,"lon":121.544673,"name":"榮榮園浙寧餐廳","decorType":"restaurant"},{"id":"node-13108188460","lat":25.025868,"lon":121.543135,"name":"未命名車站","decorType":"station"},{"id":"node-13108188462","lat":25.026418,"lon":121.54318,"name":"東京巴黎甜點","decorType":"sweetshop"},{"id":"node-13108188463","lat":25.032768,"lon":121.543799,"name":"KURE8 - 8酵茶","decorType":"burger"},{"id":"node-13119688701","lat":25.035934,"lon":121.544402,"name":"大未來林舍畫廊","decorType":"art_gallery"},{"id":"node-13149217922","lat":25.032876,"lon":121.544724,"name":"農粹","decorType":"restaurant"},{"id":"node-13149231938","lat":25.033202,"lon":121.542748,"name":"好想見麵 大安信義店","decorType":"restaurant"},{"id":"node-13175236401","lat":25.026273,"lon":121.547405,"name":"Weiyang Coffee","decorType":"cafe"},{"id":"node-13180604827","lat":25.033858,"lon":121.542318,"name":"你好咖啡旅館","decorType":"cafe"},{"id":"node-13183361810","lat":25.024977,"lon":121.544593,"name":"輕燒臘","decorType":"restaurant"},{"id":"node-13344369801","lat":25.036087,"lon":121.547164,"name":"Miznon Taipei","decorType":"restaurant"},{"id":"node-13346947014","lat":25.033544,"lon":121.545665,"name":"未命名服飾店","decorType":"clothing"},{"id":"node-13404055801","lat":25.031633,"lon":121.544545,"name":"識食餐室","decorType":"restaurant"},{"id":"node-13404078401","lat":25.028343,"lon":121.541403,"name":"吃你豆腐","decorType":"restaurant"},{"id":"way-49695698","lat":25.024441,"lon":121.537739,"name":"建國快速道路","decorType":"bridge"},{"id":"way-49695699","lat":25.024452,"lon":121.537566,"name":"建國快速道路","decorType":"bridge"},{"id":"way-55227272","lat":25.023517,"lon":121.542552,"name":"和平公園","decorType":"park"},{"id":"way-55228247","lat":25.02923,"lon":121.542489,"name":"龍陣二號公園","decorType":"park"},{"id":"way-131473137","lat":25.038638,"lon":121.535545,"name":"臺北仁愛路郵局","decorType":"post_office"},{"id":"way-139123645","lat":25.035551,"lon":121.540096,"name":"圖書館","decorType":"library"},{"id":"way-205900064","lat":25.029183,"lon":121.538324,"name":"台北市立圖書館總館","decorType":"library"},{"id":"way-206062024","lat":25.033925,"lon":121.538386,"name":"臺北大安郵局","decorType":"post_office"},{"id":"way-232609548","lat":25.026693,"lon":121.546274,"name":"草地","decorType":"park"},{"id":"way-232610956","lat":25.02613,"lon":121.545843,"name":"未命名公園","decorType":"park"},{"id":"way-232617277","lat":25.026568,"lon":121.546963,"name":"大安教會","decorType":"shrine"},{"id":"way-232628886","lat":25.025386,"lon":121.546552,"name":"群賢公園","decorType":"park"},{"id":"way-232664022","lat":25.027161,"lon":121.546309,"name":"草地","decorType":"park"},{"id":"way-232674052","lat":25.037475,"lon":121.543068,"name":"福華飯店","decorType":"hotel"},{"id":"way-251587734","lat":25.038264,"lon":121.539108,"name":"未命名森林","decorType":"forest"},{"id":"way-251587735","lat":25.037853,"lon":121.539099,"name":"未命名森林","decorType":"forest"},{"id":"way-251587736","lat":25.03823,"lon":121.54102,"name":"未命名森林","decorType":"forest"},{"id":"way-251587737","lat":25.03782,"lon":121.540964,"name":"未命名森林","decorType":"forest"},{"id":"way-251587764","lat":25.038325,"lon":121.535692,"name":"未命名森林","decorType":"forest"},{"id":"way-251587765","lat":25.037922,"lon":121.535687,"name":"未命名森林","decorType":"forest"},{"id":"way-252990945","lat":25.036461,"lon":121.539569,"name":"中庭花園","decorType":"park"},{"id":"way-264726963","lat":25.034545,"lon":121.542742,"name":"安祥公園","decorType":"park"},{"id":"way-270790285","lat":25.034878,"lon":121.540421,"name":"新北池","decorType":"waterside"},{"id":"way-284359015","lat":25.030638,"lon":121.545331,"name":"四維公園","decorType":"park"},{"id":"way-303274379","lat":25.026033,"lon":121.541442,"name":"龍生公園","decorType":"park"},{"id":"way-303275607","lat":25.02765,"lon":121.540127,"name":"新龍公園","decorType":"park"},{"id":"way-303420866","lat":25.027619,"lon":121.542547,"name":"龍陣一號公園","decorType":"park"},{"id":"way-303666711","lat":25.025308,"lon":121.540207,"name":"未命名橋樑","decorType":"bridge"},{"id":"way-303845484","lat":25.030467,"lon":121.541652,"name":"龍圖公園","decorType":"park"},{"id":"way-303852587","lat":25.034861,"lon":121.547776,"name":"德安公園","decorType":"park"},{"id":"way-304566637","lat":25.034542,"lon":121.544508,"name":"和安公園","decorType":"park"},{"id":"way-304566638","lat":25.03582,"lon":121.544873,"name":"東豐公園","decorType":"park"},{"id":"way-313229276","lat":25.024567,"lon":121.544385,"name":"北師美術館","decorType":"art_gallery"},{"id":"way-324901025","lat":25.023458,"lon":121.546335,"name":"學生活動中心","decorType":"university"},{"id":"way-324901026","lat":25.024098,"lon":121.54606,"name":"至善樓","decorType":"university"},{"id":"way-324901027","lat":25.024021,"lon":121.545538,"name":"科學館","decorType":"university"},{"id":"way-324901028","lat":25.023775,"lon":121.545449,"name":"視聽教育館","decorType":"university"},{"id":"way-324901029","lat":25.02409,"lon":121.54496,"name":"行政大樓","decorType":"university"},{"id":"way-324901030","lat":25.02387,"lon":121.544949,"name":"圖書館","decorType":"library"},{"id":"way-324901031","lat":25.02425,"lon":121.544368,"name":"篤行樓","decorType":"university"},{"id":"way-324901092","lat":25.024435,"lon":121.545104,"name":"未命名森林","decorType":"forest"},{"id":"way-330714676","lat":25.026053,"lon":121.541281,"name":"未命名公園","decorType":"park"},{"id":"way-346730239","lat":25.024296,"lon":121.536694,"name":"龍門公園","decorType":"park"},{"id":"way-347411627","lat":25.03665,"lon":121.537039,"name":"福容大飯店台北","decorType":"hotel"},{"id":"way-360333407","lat":25.035507,"lon":121.53566,"name":"民榮公園","decorType":"park"},{"id":"way-368291559","lat":25.028569,"lon":121.542043,"name":"未命名神社","decorType":"shrine"},{"id":"way-370552951","lat":25.026201,"lon":121.539368,"name":"瑞安公園","decorType":"park"},{"id":"way-375707903","lat":25.026016,"lon":121.538136,"name":"大夏館","decorType":"university"},{"id":"way-375707905","lat":25.026016,"lon":121.538137,"name":"中國文化大學推廣教育部建國本部","decorType":"university"},{"id":"way-390780633","lat":25.03102,"lon":121.538455,"name":"台北好好看","decorType":"park"},{"id":"way-390780640","lat":25.024863,"lon":121.535482,"name":"王雲五紀念館","decorType":"art_gallery"},{"id":"way-403554086","lat":25.036625,"lon":121.546259,"name":"仁愛公園","decorType":"park"},{"id":"way-403554087","lat":25.034104,"lon":121.545752,"name":"仁慈公園","decorType":"park"},{"id":"way-403554088","lat":25.028996,"lon":121.544821,"name":"安東公園","decorType":"park"},{"id":"way-403554089","lat":25.036401,"lon":121.542296,"name":"附中公園","decorType":"park"},{"id":"way-426157527","lat":25.02441,"lon":121.543086,"name":"聖約翰坐堂","decorType":"shrine"},{"id":"way-451934172","lat":25.033749,"lon":121.536966,"name":"多郎明哥旅館","decorType":"hotel"},{"id":"way-462169039","lat":25.025451,"lon":121.540283,"name":"未命名橋樑","decorType":"bridge"},{"id":"way-466909919","lat":25.037396,"lon":121.54038,"name":"亞典藝術書店","decorType":"library"},{"id":"way-543896288","lat":25.034548,"lon":121.543122,"name":"台北市客家文化會館","decorType":"art_gallery"},{"id":"way-549570624","lat":25.028929,"lon":121.539209,"name":"未命名公園","decorType":"park"},{"id":"way-549603485","lat":25.037336,"lon":121.53709,"name":"仁愛天主堂","decorType":"shrine"},{"id":"way-551458785","lat":25.027872,"lon":121.537639,"name":"未命名橋樑","decorType":"bridge"},{"id":"way-553819583","lat":25.025864,"lon":121.544176,"name":"聖母聖心堂","decorType":"shrine"},{"id":"way-556941705","lat":25.033132,"lon":121.535329,"name":"未命名水邊","decorType":"waterside"},{"id":"way-587073871","lat":25.035688,"lon":121.543936,"name":"台北豪城大飯店復興店","decorType":"hotel"},{"id":"way-617827983","lat":25.027771,"lon":121.545847,"name":"兒童遊樂場","decorType":"park"},{"id":"way-618387943","lat":25.026203,"lon":121.545918,"name":"兒童遊樂場","decorType":"park"},{"id":"way-618387944","lat":25.02707,"lon":121.544767,"name":"兒童遊樂場","decorType":"park"},{"id":"way-618387945","lat":25.026966,"lon":121.545976,"name":"行人天橋","decorType":"bridge"},{"id":"way-618387946","lat":25.027011,"lon":121.545643,"name":"行人天橋","decorType":"bridge"},{"id":"way-657035012","lat":25.03146,"lon":121.543884,"name":"台北馥敦飯店","decorType":"hotel"},{"id":"way-666411227","lat":25.024384,"lon":121.541502,"name":"大安聖母宮","decorType":"shrine"},{"id":"way-668037878","lat":25.032806,"lon":121.537761,"name":"建國快速道路","decorType":"bridge"},{"id":"way-669261628","lat":25.032873,"lon":121.543646,"name":"捷運大安站","decorType":"station"},{"id":"way-669261830","lat":25.032727,"lon":121.543827,"name":"富濠飯店","decorType":"hotel"},{"id":"way-669262592","lat":25.026152,"lon":121.543513,"name":"捷運科技大樓站","decorType":"station"},{"id":"way-703251970","lat":25.025689,"lon":121.542982,"name":"未命名公園","decorType":"park"},{"id":"way-764187879","lat":25.031332,"lon":121.537716,"name":"建國快速道路","decorType":"bridge"},{"id":"way-764242700","lat":25.036157,"lon":121.546179,"name":"Swiio Hotel Daan","decorType":"hotel"},{"id":"way-771782797","lat":25.031894,"lon":121.54244,"name":"噴水池","decorType":"waterside"},{"id":"way-790260395","lat":25.026154,"lon":121.543414,"name":"未命名公車站","decorType":"bus_stop"},{"id":"way-790260396","lat":25.026153,"lon":121.543526,"name":"未命名公車站","decorType":"bus_stop"},{"id":"way-819389186","lat":25.036123,"lon":121.541814,"name":"chez nous Hotel","decorType":"hotel"},{"id":"way-831109822","lat":25.036226,"lon":121.543426,"name":"台北市農會蔬果舖子","decorType":"supermarket"},{"id":"way-838841980","lat":25.03465,"lon":121.541013,"name":"未命名公園","decorType":"park"},{"id":"way-838841981","lat":25.034687,"lon":121.540356,"name":"未命名公園","decorType":"park"},{"id":"way-838841982","lat":25.03419,"lon":121.540973,"name":"未命名公園","decorType":"park"},{"id":"way-838841983","lat":25.034204,"lon":121.540365,"name":"未命名公園","decorType":"park"},{"id":"way-856343420","lat":25.036433,"lon":121.540392,"name":"未命名公園","decorType":"park"},{"id":"way-877544943","lat":25.032846,"lon":121.543648,"name":"未命名公車站","decorType":"bus_stop"},{"id":"way-877544944","lat":25.032848,"lon":121.543545,"name":"未命名公車站","decorType":"bus_stop"},{"id":"way-1030598379","lat":25.037324,"lon":121.542533,"name":"未命名水邊","decorType":"waterside"},{"id":"way-1053790150","lat":25.035746,"lon":121.539766,"name":"附中運動中心","decorType":"stadium"},{"id":"way-1054526756","lat":25.033377,"lon":121.543079,"name":"未命名公車站","decorType":"bus_stop"},{"id":"way-1061707649","lat":25.037995,"lon":121.54756,"name":"未命名公車站","decorType":"bus_stop"},{"id":"way-1095045189","lat":25.025079,"lon":121.536707,"name":"未命名公園","decorType":"park"},{"id":"way-1133615646","lat":25.033142,"lon":121.535465,"name":"未命名橋樑","decorType":"bridge"},{"id":"way-1133615647","lat":25.033146,"lon":121.535194,"name":"未命名橋樑","decorType":"bridge"},{"id":"way-1227275217","lat":25.027503,"lon":121.535518,"name":"未命名森林","decorType":"forest"},{"id":"way-1227275218","lat":25.026376,"lon":121.536819,"name":"未命名森林","decorType":"forest"},{"id":"way-1227275219","lat":25.027603,"lon":121.536335,"name":"未命名森林","decorType":"forest"},{"id":"way-1227275221","lat":25.027043,"lon":121.536612,"name":"未命名森林","decorType":"forest"},{"id":"way-1227275222","lat":25.027033,"lon":121.535917,"name":"未命名森林","decorType":"forest"},{"id":"way-1227275223","lat":25.026317,"lon":121.535685,"name":"未命名森林","decorType":"forest"},{"id":"way-1227276303","lat":25.029409,"lon":121.535228,"name":"未命名公園","decorType":"park"},{"id":"way-1227276306","lat":25.028797,"lon":121.535864,"name":"未命名森林","decorType":"forest"},{"id":"way-1227276307","lat":25.028989,"lon":121.535683,"name":"未命名森林","decorType":"forest"},{"id":"way-1227276308","lat":25.028965,"lon":121.535512,"name":"未命名森林","decorType":"forest"},{"id":"way-1227276312","lat":25.027118,"lon":121.535281,"name":"未命名森林","decorType":"forest"},{"id":"way-1227276313","lat":25.028098,"lon":121.535814,"name":"未命名森林","decorType":"forest"},{"id":"way-1227276314","lat":25.028491,"lon":121.535285,"name":"未命名森林","decorType":"forest"},{"id":"way-1227277121","lat":25.026857,"lon":121.53708,"name":"未命名森林","decorType":"forest"},{"id":"way-1227277122","lat":25.02681,"lon":121.537247,"name":"未命名森林","decorType":"forest"},{"id":"way-1227277124","lat":25.0262,"lon":121.535785,"name":"未命名森林","decorType":"forest"},{"id":"way-1227277125","lat":25.026062,"lon":121.536764,"name":"未命名森林","decorType":"forest"},{"id":"way-1227277126","lat":25.026206,"lon":121.536734,"name":"未命名森林","decorType":"forest"},{"id":"way-1227277127","lat":25.026177,"lon":121.536043,"name":"未命名森林","decorType":"forest"},{"id":"way-1227277128","lat":25.026297,"lon":121.53601,"name":"未命名森林","decorType":"forest"},{"id":"way-1227277129","lat":25.026358,"lon":121.536017,"name":"未命名森林","decorType":"forest"},{"id":"way-1227277130","lat":25.026396,"lon":121.53609,"name":"未命名森林","decorType":"forest"},{"id":"way-1227277131","lat":25.026284,"lon":121.536188,"name":"未命名森林","decorType":"forest"},{"id":"way-1227277922","lat":25.028321,"lon":121.537076,"name":"未命名森林","decorType":"forest"},{"id":"way-1227277925","lat":25.027889,"lon":121.536531,"name":"未命名森林","decorType":"forest"},{"id":"way-1227282075","lat":25.029682,"lon":121.53536,"name":"未命名森林","decorType":"forest"},{"id":"way-1227282687","lat":25.028382,"lon":121.536941,"name":"未命名森林","decorType":"forest"},{"id":"way-1227282688","lat":25.028371,"lon":121.536722,"name":"未命名森林","decorType":"forest"},{"id":"way-1227282690","lat":25.028348,"lon":121.536225,"name":"未命名森林","decorType":"forest"},{"id":"way-1227282691","lat":25.028735,"lon":121.536487,"name":"未命名森林","decorType":"forest"},{"id":"way-1227282692","lat":25.030188,"lon":121.535606,"name":"未命名公園","decorType":"park"},{"id":"way-1227282693","lat":25.029662,"lon":121.53569,"name":"未命名森林","decorType":"forest"},{"id":"way-1227283576","lat":25.030303,"lon":121.53657,"name":"未命名森林","decorType":"forest"},{"id":"way-1227283577","lat":25.030655,"lon":121.537066,"name":"未命名森林","decorType":"forest"},{"id":"way-1227283579","lat":25.029428,"lon":121.537096,"name":"未命名森林","decorType":"forest"},{"id":"way-1227283582","lat":25.029506,"lon":121.536442,"name":"未命名森林","decorType":"forest"},{"id":"way-1227283583","lat":25.029023,"lon":121.536032,"name":"未命名森林","decorType":"forest"},{"id":"way-1227283736","lat":25.029322,"lon":121.536709,"name":"未命名森林","decorType":"forest"},{"id":"way-1227283737","lat":25.029222,"lon":121.536898,"name":"未命名森林","decorType":"forest"},{"id":"way-1227283738","lat":25.028798,"lon":121.537001,"name":"未命名森林","decorType":"forest"},{"id":"way-1227283739","lat":25.028954,"lon":121.536928,"name":"未命名森林","decorType":"forest"},{"id":"way-1227283740","lat":25.028739,"lon":121.536825,"name":"未命名森林","decorType":"forest"},{"id":"way-1227283741","lat":25.029097,"lon":121.536523,"name":"未命名森林","decorType":"forest"},{"id":"way-1227284839","lat":25.031134,"lon":121.536799,"name":"未命名森林","decorType":"forest"},{"id":"way-1227284840","lat":25.030824,"lon":121.536339,"name":"未命名森林","decorType":"forest"},{"id":"way-1227284841","lat":25.029939,"lon":121.536174,"name":"未命名森林","decorType":"forest"},{"id":"way-1227284842","lat":25.031007,"lon":121.536655,"name":"未命名水邊","decorType":"waterside"},{"id":"way-1227284843","lat":25.030368,"lon":121.535762,"name":"未命名森林","decorType":"forest"},{"id":"way-1227285583","lat":25.031806,"lon":121.537156,"name":"未命名森林","decorType":"forest"},{"id":"way-1227285584","lat":25.030704,"lon":121.53721,"name":"未命名森林","decorType":"forest"},{"id":"way-1227285585","lat":25.029415,"lon":121.537287,"name":"未命名森林","decorType":"forest"},{"id":"way-1227285586","lat":25.028269,"lon":121.537274,"name":"未命名森林","decorType":"forest"},{"id":"way-1227285587","lat":25.030636,"lon":121.536942,"name":"未命名森林","decorType":"forest"},{"id":"way-1227287023","lat":25.032325,"lon":121.536325,"name":"未命名公園","decorType":"park"},{"id":"way-1227287027","lat":25.032613,"lon":121.536424,"name":"未命名森林","decorType":"forest"},{"id":"way-1227287028","lat":25.032424,"lon":121.53663,"name":"未命名森林","decorType":"forest"},{"id":"way-1227287033","lat":25.030781,"lon":121.535529,"name":"未命名森林","decorType":"forest"},{"id":"way-1227287035","lat":25.030409,"lon":121.535422,"name":"未命名森林","decorType":"forest"},{"id":"way-1227287036","lat":25.030418,"lon":121.53539,"name":"未命名森林","decorType":"forest"},{"id":"way-1227287671","lat":25.031004,"lon":121.535925,"name":"未命名森林","decorType":"forest"},{"id":"way-1227287673","lat":25.031371,"lon":121.536102,"name":"未命名森林","decorType":"forest"},{"id":"way-1227517106","lat":25.031043,"lon":121.5353,"name":"未命名水邊","decorType":"waterside"},{"id":"way-1227518209","lat":25.032532,"lon":121.535707,"name":"未命名森林","decorType":"forest"},{"id":"way-1227518215","lat":25.032147,"lon":121.535581,"name":"未命名森林","decorType":"forest"},{"id":"way-1227518217","lat":25.031859,"lon":121.535191,"name":"未命名森林","decorType":"forest"},{"id":"way-1227518218","lat":25.031585,"lon":121.5353,"name":"未命名森林","decorType":"forest"},{"id":"way-1227518222","lat":25.030938,"lon":121.535203,"name":"未命名公園","decorType":"park"},{"id":"way-1227518223","lat":25.030957,"lon":121.535236,"name":"未命名公園","decorType":"park"},{"id":"way-1227519421","lat":25.032188,"lon":121.537037,"name":"未命名公園","decorType":"park"},{"id":"way-1227519422","lat":25.032664,"lon":121.537237,"name":"未命名森林","decorType":"forest"},{"id":"way-1227519426","lat":25.032686,"lon":121.536227,"name":"未命名森林","decorType":"forest"},{"id":"way-1227519427","lat":25.032311,"lon":121.53606,"name":"未命名公園","decorType":"park"},{"id":"way-1227519428","lat":25.031659,"lon":121.535599,"name":"未命名公園","decorType":"park"},{"id":"way-1227519429","lat":25.031622,"lon":121.535603,"name":"未命名公園","decorType":"park"},{"id":"way-1227519430","lat":25.031548,"lon":121.535592,"name":"未命名森林","decorType":"forest"},{"id":"way-1227519431","lat":25.032473,"lon":121.535255,"name":"未命名森林","decorType":"forest"},{"id":"way-1227519432","lat":25.032013,"lon":121.53528,"name":"未命名森林","decorType":"forest"},{"id":"way-1227520609","lat":25.032947,"lon":121.535537,"name":"未命名公園","decorType":"park"},{"id":"way-1227520611","lat":25.03288,"lon":121.535209,"name":"未命名公園","decorType":"park"},{"id":"way-1227520614","lat":25.03281,"lon":121.535336,"name":"未命名水邊","decorType":"waterside"},{"id":"way-1227520616","lat":25.032933,"lon":121.535329,"name":"未命名水邊","decorType":"waterside"},{"id":"way-1227520622","lat":25.032666,"lon":121.536704,"name":"未命名森林","decorType":"forest"},{"id":"way-1227521619","lat":25.032968,"lon":121.535267,"name":"未命名公園","decorType":"park"},{"id":"way-1227521620","lat":25.032973,"lon":121.53529,"name":"未命名公園","decorType":"park"},{"id":"way-1227521621","lat":25.032973,"lon":121.535496,"name":"未命名公園","decorType":"park"},{"id":"way-1227521622","lat":25.032891,"lon":121.535243,"name":"未命名公園","decorType":"park"},{"id":"way-1227521623","lat":25.032924,"lon":121.535219,"name":"未命名公園","decorType":"park"},{"id":"way-1227521624","lat":25.032959,"lon":121.535192,"name":"未命名公園","decorType":"park"},{"id":"way-1227521629","lat":25.032684,"lon":121.535262,"name":"未命名公園","decorType":"park"},{"id":"way-1227521630","lat":25.0327,"lon":121.535501,"name":"未命名森林","decorType":"forest"},{"id":"way-1227521632","lat":25.032689,"lon":121.535227,"name":"未命名公園","decorType":"park"},{"id":"way-1227523049","lat":25.032992,"lon":121.535816,"name":"未命名公園","decorType":"park"},{"id":"way-1227523761","lat":25.033292,"lon":121.535578,"name":"未命名公園","decorType":"park"},{"id":"way-1227523763","lat":25.033319,"lon":121.535336,"name":"未命名公園","decorType":"park"},{"id":"way-1227523764","lat":25.033123,"lon":121.535332,"name":"未命名公園","decorType":"park"},{"id":"way-1227523765","lat":25.033148,"lon":121.535326,"name":"未命名公園","decorType":"park"},{"id":"way-1227523770","lat":25.033284,"lon":121.536495,"name":"未命名公園","decorType":"park"},{"id":"way-1227523772","lat":25.033109,"lon":121.535965,"name":"未命名森林","decorType":"forest"},{"id":"way-1227525686","lat":25.029095,"lon":121.535591,"name":"未命名橋樑","decorType":"bridge"},{"id":"way-1227525692","lat":25.032879,"lon":121.535676,"name":"未命名公園","decorType":"park"},{"id":"way-1227729615","lat":25.033306,"lon":121.536205,"name":"未命名橋樑","decorType":"bridge"},{"id":"way-1227733215","lat":25.029663,"lon":121.535226,"name":"大安森林公園","decorType":"park"},{"id":"way-1227733899","lat":25.031158,"lon":121.535548,"name":"未命名公園","decorType":"park"},{"id":"way-1227733900","lat":25.031106,"lon":121.535444,"name":"未命名公園","decorType":"park"},{"id":"way-1227733901","lat":25.031089,"lon":121.535619,"name":"未命名公園","decorType":"park"},{"id":"way-1227733902","lat":25.031141,"lon":121.535446,"name":"未命名公園","decorType":"park"},{"id":"way-1227733903","lat":25.031034,"lon":121.535711,"name":"未命名公園","decorType":"park"},{"id":"way-1227733904","lat":25.030983,"lon":121.53561,"name":"未命名公園","decorType":"park"},{"id":"way-1227733905","lat":25.03101,"lon":121.535792,"name":"未命名公園","decorType":"park"},{"id":"way-1227733906","lat":25.031039,"lon":121.535751,"name":"未命名公園","decorType":"park"},{"id":"way-1227733907","lat":25.031127,"lon":121.535732,"name":"未命名公園","decorType":"park"},{"id":"way-1227733908","lat":25.030959,"lon":121.535335,"name":"未命名公園","decorType":"park"},{"id":"way-1227733909","lat":25.03096,"lon":121.535609,"name":"未命名公園","decorType":"park"},{"id":"way-1227734548","lat":25.031172,"lon":121.535332,"name":"未命名橋樑","decorType":"bridge"},{"id":"way-1227734549","lat":25.031322,"lon":121.535498,"name":"未命名公園","decorType":"park"},{"id":"way-1227734550","lat":25.031327,"lon":121.535557,"name":"未命名公園","decorType":"park"},{"id":"way-1227734551","lat":25.031167,"lon":121.535489,"name":"未命名公園","decorType":"park"},{"id":"way-1227734552","lat":25.031166,"lon":121.535493,"name":"未命名公園","decorType":"park"},{"id":"way-1227734553","lat":25.031168,"lon":121.535558,"name":"未命名公園","decorType":"park"},{"id":"way-1227950103","lat":25.033273,"lon":121.535336,"name":"未命名公園","decorType":"park"},{"id":"way-1227950111","lat":25.033254,"lon":121.535631,"name":"未命名公園","decorType":"park"},{"id":"way-1227950113","lat":25.03328,"lon":121.535636,"name":"未命名橋樑","decorType":"bridge"},{"id":"way-1227950120","lat":25.030101,"lon":121.535602,"name":"未命名橋樑","decorType":"bridge"},{"id":"way-1227950121","lat":25.031517,"lon":121.536698,"name":"未命名森林","decorType":"forest"},{"id":"way-1227950124","lat":25.02826,"lon":121.536488,"name":"未命名公園","decorType":"park"},{"id":"way-1287930282","lat":25.037039,"lon":121.537202,"name":"未命名公園","decorType":"park"},{"id":"way-1458697058","lat":25.038001,"lon":121.537541,"name":"未命名橋樑","decorType":"bridge"}]}