{"bbox":{"south":25.023125,"north":25.038731,"west":121.470031,"east":121.483062},"pois":[{"id":"way-770953636","lat":25.024461,"lon":121.482324,"name":"華翠大橋","decorType":"bridge"},{"id":"node-1397157182","lat":25.026521,"lon":121.472648,"name":"7-Eleven","decorType":"convenience"},{"id":"node-1397157195","lat":25.024094,"lon":121.471099,"name":"85度C","decorType":"cafe"},{"id":"node-1412407358","lat":25.027683,"lon":121.470377,"name":"麥當勞","decorType":"burger"},{"id":"node-1413143360","lat":25.027749,"lon":121.472894,"name":"海生樓活海產","decorType":"restaurant"},{"id":"node-2473958336","lat":25.027556,"lon":121.478892,"name":"7-Eleven","decorType":"convenience"},{"id":"node-2473958338","lat":25.027405,"lon":121.478998,"name":"全家便利商店","decorType":"convenience"},{"id":"node-2473958340","lat":25.027491,"lon":121.478735,"name":"源旗炭烤","decorType":"restaurant"},{"id":"node-2473958344","lat":25.027722,"lon":121.478608,"name":"晨光豆漿","decorType":"restaurant"},{"id":"node-2473958368","lat":25.028784,"lon":121.480631,"name":"富貴新村","decorType":"bus_stop"},{"id":"node-2473958370","lat":25.02813,"lon":121.478561,"name":"老皮麵線羹","decorType":"restaurant"},{"id":"node-2473958393","lat":25.032034,"lon":121.476158,"name":"未命名餐廳","decorType":"restaurant"},{"id":"node-2473958395","lat":25.032501,"lon":121.475257,"name":"江翠國小","decorType":"bus_stop"},{"id":"node-2473958397","lat":25.028798,"lon":121.480471,"name":"未命名餐廳","decorType":"restaurant"},{"id":"node-2473958398","lat":25.028864,"lon":121.480501,"name":"未命名五金行","decorType":"hardware"},{"id":"node-2473958421","lat":25.028992,"lon":121.480673,"name":"全家便利商店","decorType":"convenience"},{"id":"node-2558221482","lat":25.03071,"lon":121.472104,"name":"笑咪咪三明治","decorType":"restaurant"},{"id":"node-2615789340","lat":25.031047,"lon":121.473506,"name":"捷運江子翠站5號出口","decorType":"station"},{"id":"node-2615807716","lat":25.027309,"lon":121.470575,"name":"新北市議會","decorType":"bus_stop"},{"id":"node-2615814286","lat":25.031114,"lon":121.473115,"name":"捷運江子翠站6號出口","decorType":"station"},{"id":"node-2622985320","lat":25.025905,"lon":121.472379,"name":"文化局","decorType":"bus_stop"},{"id":"node-2622985321","lat":25.026205,"lon":121.47245,"name":"文化局","decorType":"bus_stop"},{"id":"node-2638374591","lat":25.026758,"lon":121.476627,"name":"85度C","decorType":"cafe"},{"id":"node-2638377053","lat":25.02876,"lon":121.473596,"name":"星巴克","decorType":"cafe"},{"id":"node-2638382213","lat":25.029514,"lon":121.472304,"name":"捷運江子翠站3號出口","decorType":"station"},{"id":"node-2651662741","lat":25.029991,"lon":121.470936,"name":"農村福德宮","decorType":"shrine"},{"id":"node-2886968702","lat":25.030474,"lon":121.476275,"name":"台灣魯肉飯","decorType":"restaurant"},{"id":"node-2903618201","lat":25.028559,"lon":121.470852,"name":"7-Eleven","decorType":"convenience"},{"id":"node-3205651518","lat":25.026063,"lon":121.472219,"name":"新北市立圖書館板橋江子翠分館","decorType":"library"},{"id":"node-3236802383","lat":25.0332,"lon":121.474959,"name":"萊爾富","decorType":"convenience"},{"id":"node-3237703128","lat":25.031456,"lon":121.473973,"name":"萊爾富","decorType":"convenience"},{"id":"node-3315216380","lat":25.030454,"lon":121.472548,"name":"捷運江子翠站","decorType":"bus_stop"},{"id":"node-3315216381","lat":25.031255,"lon":121.473831,"name":"捷運江子翠站","decorType":"bus_stop"},{"id":"node-3315216383","lat":25.028108,"lon":121.470755,"name":"江翠國中","decorType":"bus_stop"},{"id":"node-3315216384","lat":25.029054,"lon":121.471732,"name":"江翠國中","decorType":"bus_stop"},{"id":"node-3315216385","lat":25.031756,"lon":121.473697,"name":"江翠國小 (文化路)","decorType":"bus_stop"},{"id":"node-3315216415","lat":25.033823,"lon":121.476062,"name":"華江橋","decorType":"bus_stop"},{"id":"node-3315216416","lat":25.033902,"lon":121.475687,"name":"華江橋","decorType":"bus_stop"},{"id":"node-3336564686","lat":25.024092,"lon":121.478296,"name":"永安公園","decorType":"bus_stop"},{"id":"node-3336564687","lat":25.024442,"lon":121.477516,"name":"永安公園","decorType":"bus_stop"},{"id":"node-3336564690","lat":25.023208,"lon":121.477999,"name":"海山天下社區","decorType":"bus_stop"},{"id":"node-3336566003","lat":25.023432,"lon":121.477727,"name":"雙十路口","decorType":"bus_stop"},{"id":"node-3336566004","lat":25.024309,"lon":121.479502,"name":"雙十路口","decorType":"bus_stop"},{"id":"node-3336566010","lat":25.023297,"lon":121.478148,"name":"7-Eleven","decorType":"convenience"},{"id":"node-3338710817","lat":25.02337,"lon":121.47504,"name":"八德公園","decorType":"bus_stop"},{"id":"node-3338710818","lat":25.02362,"lon":121.474991,"name":"八德公園","decorType":"bus_stop"},{"id":"node-3338710820","lat":25.023562,"lon":121.4736,"name":"勞工大學","decorType":"bus_stop"},{"id":"node-3338710824","lat":25.025192,"lon":121.477938,"name":"雙十路口","decorType":"bus_stop"},{"id":"node-3338710825","lat":25.025444,"lon":121.477711,"name":"雙十路口","decorType":"bus_stop"},{"id":"node-3343597133","lat":25.029075,"lon":121.472997,"name":"全聯福利中心","decorType":"supermarket"},{"id":"node-3343597134","lat":25.030278,"lon":121.471911,"name":"捷運江子翠站1號出口","decorType":"station"},{"id":"node-3343597135","lat":25.029793,"lon":121.471927,"name":"捷運江子翠站2號出口","decorType":"station"},{"id":"node-3343597136","lat":25.029746,"lon":121.47267,"name":"捷運江子翠站4號出口","decorType":"station"},{"id":"node-3343597140","lat":25.026029,"lon":121.476892,"name":"大同街口","decorType":"bus_stop"},{"id":"node-3343597141","lat":25.026788,"lon":121.476225,"name":"大同街口","decorType":"bus_stop"},{"id":"node-3343597142","lat":25.029891,"lon":121.4726,"name":"定食8","decorType":"restaurant"},{"id":"node-3343597146","lat":25.02959,"lon":121.473029,"name":"京賀家壽喜燒·鍋物","decorType":"restaurant"},{"id":"node-3343597310","lat":25.029702,"lon":121.472859,"name":"阿官火鍋專家","decorType":"restaurant"},{"id":"node-3343597311","lat":25.029141,"lon":121.473265,"name":"雙十路","decorType":"bus_stop"},{"id":"node-3343597312","lat":25.02923,"lon":121.473419,"name":"雙十路","decorType":"bus_stop"},{"id":"node-3343597313","lat":25.02956,"lon":121.473065,"name":"鬼椒一番鍋","decorType":"restaurant"},{"id":"node-3443026803","lat":25.031439,"lon":121.475194,"name":"板橋江翠郵局","decorType":"post_office"},{"id":"node-3457792194","lat":25.028399,"lon":121.470191,"name":"翻桌吧！","decorType":"restaurant"},{"id":"node-3457792206","lat":25.029939,"lon":121.471945,"name":"洋朵義式餐廳","decorType":"restaurant"},{"id":"node-3472559544","lat":25.027478,"lon":121.470325,"name":"富康精采旅店","decorType":"hotel"},{"id":"node-3639530950","lat":25.030424,"lon":121.472778,"name":"江子翠","decorType":"station"},{"id":"node-3682801677","lat":25.029767,"lon":121.471846,"name":"怡客咖啡","decorType":"cafe"},{"id":"node-3682855094","lat":25.026342,"lon":121.470145,"name":"海釣族","decorType":"restaurant"},{"id":"node-3754667662","lat":25.030651,"lon":121.470826,"name":"未命名神社","decorType":"shrine"},{"id":"node-3826166967","lat":25.033922,"lon":121.473084,"name":"江子翠","decorType":"bus_stop"},{"id":"node-3826166968","lat":25.033928,"lon":121.473407,"name":"江子翠","decorType":"bus_stop"},{"id":"node-3826166973","lat":25.034385,"lon":121.474679,"name":"華江橋","decorType":"bus_stop"},{"id":"node-3826166974","lat":25.034386,"lon":121.475054,"name":"華江橋","decorType":"bus_stop"},{"id":"node-3826166976","lat":25.032967,"lon":121.470171,"name":"錦輝電纜","decorType":"bus_stop"},{"id":"node-4100749292","lat":25.029616,"lon":121.472988,"name":"肯德基","decorType":"burger"},{"id":"node-4147270451","lat":25.02762,"lon":121.482765,"name":"五福新村","decorType":"bus_stop"},{"id":"node-4147270452","lat":25.030902,"lon":121.478886,"name":"全家便利商店","decorType":"convenience"},{"id":"node-4147270453","lat":25.030509,"lon":121.477293,"name":"全聯福利中心","decorType":"supermarket"},{"id":"node-4147270454","lat":25.029982,"lon":121.479477,"name":"冷凍廠 (懷德)","decorType":"bus_stop"},{"id":"node-4147270455","lat":25.028026,"lon":121.478436,"name":"冷凍廠 (文聖)","decorType":"bus_stop"},{"id":"node-4147270456","lat":25.031345,"lon":121.478547,"name":"懷德街 (懷德)","decorType":"bus_stop"},{"id":"node-4147270457","lat":25.030116,"lon":121.477301,"name":"懷德街 (文聖)","decorType":"bus_stop"},{"id":"node-4147270458","lat":25.032468,"lon":121.476803,"name":"江子翠","decorType":"bus_stop"},{"id":"node-4147270459","lat":25.03207,"lon":121.475666,"name":"江翠國小","decorType":"bus_stop"},{"id":"node-4147270460","lat":25.027093,"lon":121.482173,"name":"港仔嘴福德宮","decorType":"shrine"},{"id":"node-4147271609","lat":25.02632,"lon":121.480601,"name":"音樂公園","decorType":"bus_stop"},{"id":"node-4147271610","lat":25.028973,"lon":121.480546,"name":"7-Eleven","decorType":"convenience"},{"id":"node-4147271611","lat":25.030712,"lon":121.476889,"name":"7-Eleven","decorType":"convenience"},{"id":"node-4147271612","lat":25.031144,"lon":121.478569,"name":"7-Eleven","decorType":"convenience"},{"id":"node-4147271613","lat":25.032684,"lon":121.477299,"name":"7-Eleven","decorType":"convenience"},{"id":"node-4385066801","lat":25.031807,"lon":121.482588,"name":"江翠礫間水岸公園","decorType":"theme_park"},{"id":"node-4433185721","lat":25.031737,"lon":121.471111,"name":"全聯福利中心","decorType":"supermarket"},{"id":"node-4433241060","lat":25.030324,"lon":121.471868,"name":"築間幸福鍋物","decorType":"restaurant"},{"id":"node-4583119789","lat":25.032824,"lon":121.474617,"name":"潮粥府沙鍋粥","decorType":"restaurant"},{"id":"node-4874402922","lat":25.02691,"lon":121.470305,"name":"全家便利商店","decorType":"convenience"},{"id":"node-5116680333","lat":25.030599,"lon":121.476606,"name":"土庫阿木當歸鴨","decorType":"restaurant"},{"id":"node-5137490353","lat":25.029409,"lon":121.473733,"name":"老五鍋貼牛肉麵","decorType":"restaurant"},{"id":"node-5137490356","lat":25.030948,"lon":121.476915,"name":"好煮義 文聖店","decorType":"restaurant"},{"id":"node-5274670563","lat":25.032105,"lon":121.471732,"name":"萊爾富","decorType":"convenience"},{"id":"node-5513030394","lat":25.028287,"lon":121.474339,"name":"來碗辣","decorType":"restaurant"},{"id":"node-5513116116","lat":25.029505,"lon":121.473863,"name":"全國健康素食","decorType":"restaurant"},{"id":"node-5513116117","lat":25.028337,"lon":121.474256,"name":"男髮誌","decorType":"hair_salon"},{"id":"node-6406146588","lat":25.023232,"lon":121.474917,"name":"羽兒咖啡館","decorType":"cafe"},{"id":"node-6460228887","lat":25.032813,"lon":121.479603,"name":"太和豆漿","decorType":"cafe"},{"id":"node-6539580569","lat":25.031458,"lon":121.474146,"name":"85度C","decorType":"cafe"},{"id":"node-6693701081","lat":25.027164,"lon":121.476348,"name":"大潤發便利店","decorType":"convenience"},{"id":"node-6694180170","lat":25.030403,"lon":121.47297,"name":"東野日本料理店","decorType":"restaurant"},{"id":"node-6694180171","lat":25.029916,"lon":121.472583,"name":"爭鮮壽司","decorType":"restaurant"},{"id":"node-6694180172","lat":25.032566,"lon":121.475311,"name":"江翠小館","decorType":"restaurant"},{"id":"node-6694180173","lat":25.028924,"lon":121.473221,"name":"豐華小館","decorType":"restaurant"},{"id":"node-6694180174","lat":25.027998,"lon":121.471572,"name":"灶腳古早味私房菜","decorType":"restaurant"},{"id":"node-6695580311","lat":25.030918,"lon":121.472323,"name":"Yuly brunch&coffee","decorType":"cafe"},{"id":"node-6695580312","lat":25.030453,"lon":121.471937,"name":"孫東寶平價牛排","decorType":"restaurant"},{"id":"node-6917308799","lat":25.023929,"lon":121.474035,"name":"未命名咖啡廳","decorType":"cafe"},{"id":"node-7902835002","lat":25.023307,"lon":121.48177,"name":"全家便利商店","decorType":"convenience"},{"id":"node-7902835004","lat":25.02353,"lon":121.481834,"name":"7-Eleven","decorType":"convenience"},{"id":"node-7981635277","lat":25.030959,"lon":121.472943,"name":"路易莎咖啡","decorType":"cafe"},{"id":"node-7981635278","lat":25.031338,"lon":121.473882,"name":"cama café","decorType":"cafe"},{"id":"node-7981635279","lat":25.032343,"lon":121.476643,"name":"東方美早餐店","decorType":"restaurant"},{"id":"node-8012977279","lat":25.03461,"lon":121.476817,"name":"山尚碳燒羊肉爐","decorType":"restaurant"},{"id":"node-8030198324","lat":25.031367,"lon":121.47318,"name":"蘋果工廠","decorType":"electronics"},{"id":"node-8118272814","lat":25.029685,"lon":121.474242,"name":"全家便利商店","decorType":"convenience"},{"id":"node-8118272815","lat":25.029062,"lon":121.472478,"name":"全家便利商店","decorType":"convenience"},{"id":"node-8118272816","lat":25.029069,"lon":121.47126,"name":"全家便利商店","decorType":"convenience"},{"id":"node-8118272840","lat":25.031599,"lon":121.475266,"name":"全家便利商店","decorType":"convenience"},{"id":"node-8118272841","lat":25.029135,"lon":121.480849,"name":"全家便利商店","decorType":"convenience"},{"id":"node-8118272842","lat":25.031671,"lon":121.479397,"name":"全家便利商店","decorType":"convenience"},{"id":"node-8118272845","lat":25.023988,"lon":121.472912,"name":"全家便利商店","decorType":"convenience"},{"id":"node-8118272846","lat":25.024426,"lon":121.470315,"name":"全家便利商店","decorType":"convenience"},{"id":"node-8118279931","lat":25.02578,"lon":121.47531,"name":"7-Eleven","decorType":"convenience"},{"id":"node-8118279932","lat":25.029141,"lon":121.473771,"name":"7-Eleven","decorType":"convenience"},{"id":"node-8118279943","lat":25.023752,"lon":121.470137,"name":"7-Eleven","decorType":"convenience"},{"id":"node-8118279944","lat":25.024275,"lon":121.471336,"name":"7-Eleven","decorType":"convenience"},{"id":"node-8385313431","lat":25.031588,"lon":121.474859,"name":"八方雲集","decorType":"burger"},{"id":"node-8385313442","lat":25.031844,"lon":121.479126,"name":"八方雲集","decorType":"burger"},{"id":"node-8385313507","lat":25.023582,"lon":121.470922,"name":"八方雲集","decorType":"burger"},{"id":"node-8385313585","lat":25.023467,"lon":121.481309,"name":"八方雲集","decorType":"burger"},{"id":"node-8385313622","lat":25.027099,"lon":121.472801,"name":"八方雲集","decorType":"burger"},{"id":"node-8385313728","lat":25.026701,"lon":121.476945,"name":"八方雲集","decorType":"burger"},{"id":"node-8766621279","lat":25.029748,"lon":121.471774,"name":"家樂福超市","decorType":"supermarket"},{"id":"node-8767269710","lat":25.028666,"lon":121.473746,"name":"摩斯漢堡","decorType":"burger"},{"id":"node-8767296284","lat":25.028999,"lon":121.473254,"name":"屈臣氏","decorType":"pharmacy"},{"id":"node-8767352218","lat":25.029219,"lon":121.473578,"name":"康是美","decorType":"pharmacy"},{"id":"node-8767352219","lat":25.029243,"lon":121.473534,"name":"溫歌勒烘培工房","decorType":"bakery"},{"id":"node-8767352220","lat":25.029262,"lon":121.473505,"name":"Honor","decorType":"clothing"},{"id":"node-8767352221","lat":25.029298,"lon":121.473452,"name":"阿瘦皮鞋","decorType":"clothing"},{"id":"node-8767352222","lat":25.02933,"lon":121.473408,"name":"霸子牛排西餐廳","decorType":"restaurant"},{"id":"node-8767352225","lat":25.02942,"lon":121.473276,"name":"聖德科斯生機食品","decorType":"supermarket"},{"id":"node-8767352227","lat":25.029482,"lon":121.473183,"name":"貝詩沙龍","decorType":"hair_salon"},{"id":"node-8767354202","lat":25.029231,"lon":121.473841,"name":"有間廚房","decorType":"restaurant"},{"id":"node-8767382379","lat":25.028701,"lon":121.474342,"name":"傳奇髮型","decorType":"hair_salon"},{"id":"node-8767382388","lat":25.028866,"lon":121.474059,"name":"鬍鬚張魯肉飯","decorType":"restaurant"},{"id":"node-8767382393","lat":25.028907,"lon":121.473994,"name":"錢都涮涮鍋","decorType":"restaurant"},{"id":"node-8767382402","lat":25.02899,"lon":121.473898,"name":"錢都日式涮涮鍋","decorType":"restaurant"},{"id":"node-8767589426","lat":25.028169,"lon":121.474431,"name":"新銳咖啡","decorType":"cafe"},{"id":"node-8767594758","lat":25.028567,"lon":121.474547,"name":"D&D Salon","decorType":"hair_salon"},{"id":"node-8769284404","lat":25.026311,"lon":121.476827,"name":"四海豆漿","decorType":"restaurant"},{"id":"node-8769298630","lat":25.026436,"lon":121.476812,"name":"全家便利商店","decorType":"convenience"},{"id":"node-8769298631","lat":25.027205,"lon":121.477714,"name":"萊爾富","decorType":"convenience"},{"id":"node-8769298641","lat":25.026806,"lon":121.476764,"name":"甘泉魚麵","decorType":"restaurant"},{"id":"node-8769298661","lat":25.026374,"lon":121.476391,"name":"Samsung","decorType":"electronics"},{"id":"node-8769298674","lat":25.026466,"lon":121.476338,"name":"傑昇通信","decorType":"electronics"},{"id":"node-8769298675","lat":25.026505,"lon":121.47632,"name":"台灣大哥大","decorType":"electronics"},{"id":"node-8769298676","lat":25.026538,"lon":121.476304,"name":"洪爺麻辣鴛鴦鍋","decorType":"restaurant"},{"id":"node-8769298696","lat":25.027373,"lon":121.476159,"name":"貳五八串燒","decorType":"restaurant"},{"id":"node-8769298712","lat":25.027449,"lon":121.476086,"name":"達美樂","decorType":"restaurant"},{"id":"node-8769298715","lat":25.027568,"lon":121.475943,"name":"參堂","decorType":"restaurant"},{"id":"node-8769298716","lat":25.027607,"lon":121.475899,"name":"約瑟芬","decorType":"cosmetics"},{"id":"node-8769298740","lat":25.027648,"lon":121.475848,"name":"麗媽香香鍋","decorType":"restaurant"},{"id":"node-8769298748","lat":25.028389,"lon":121.474774,"name":"A.Salon","decorType":"hair_salon"},{"id":"node-8769298749","lat":25.028362,"lon":121.474834,"name":"日式威廉","decorType":"hair_salon"},{"id":"node-8769298750","lat":25.028331,"lon":121.474868,"name":"婕淨洗衣名店","decorType":"laundry"},{"id":"node-8769298753","lat":25.028256,"lon":121.474977,"name":"weme","decorType":"clothing"},{"id":"node-8769298754","lat":25.028214,"lon":121.475034,"name":"關山便當","decorType":"restaurant"},{"id":"node-8769298755","lat":25.028187,"lon":121.475078,"name":"湯尼老爸燒肉店","decorType":"restaurant"},{"id":"node-8769298757","lat":25.028002,"lon":121.475333,"name":"未命名郵局","decorType":"post_office"},{"id":"node-8769298758","lat":25.028135,"lon":121.475167,"name":"麗嬰房","decorType":"clothing"},{"id":"node-8769298772","lat":25.027763,"lon":121.475705,"name":"全國電子","decorType":"electronics"},{"id":"node-8769350497","lat":25.024916,"lon":121.477581,"name":"黑白泓活海鮮","decorType":"restaurant"},{"id":"node-8769364941","lat":25.025668,"lon":121.477167,"name":"福隆鄉野便當","decorType":"restaurant"},{"id":"node-8769364942","lat":25.025745,"lon":121.477132,"name":"一夫鍋","decorType":"restaurant"},{"id":"node-8769364946","lat":25.025887,"lon":121.477061,"name":"泰王泰式料理","decorType":"restaurant"},{"id":"node-8769364947","lat":25.025925,"lon":121.477038,"name":"杏泰藥師健保藥局","decorType":"pharmacy"},{"id":"node-8772841093","lat":25.024739,"lon":121.480421,"name":"港口通靈宮","decorType":"shrine"},{"id":"node-8772843120","lat":25.024039,"lon":121.480069,"name":"昱利空調","decorType":"electronics"},{"id":"node-8772843156","lat":25.023612,"lon":121.480279,"name":"宅一起早午餐","decorType":"restaurant"},{"id":"node-8772843157","lat":25.023472,"lon":121.48025,"name":"美的堡速食早餐","decorType":"restaurant"},{"id":"node-8772843164","lat":25.023271,"lon":121.480235,"name":"優美乾洗名店","decorType":"laundry"},{"id":"node-8772843171","lat":25.023239,"lon":121.479996,"name":"大福藥局超商","decorType":"pharmacy"},{"id":"node-8772843177","lat":25.023279,"lon":121.479796,"name":"3號鐵板燒","decorType":"restaurant"},{"id":"node-8772843182","lat":25.023206,"lon":121.479392,"name":"俊哥海鮮熱炒","decorType":"restaurant"},{"id":"node-8775634078","lat":25.025089,"lon":121.477903,"name":"舍人宮","decorType":"shrine"},{"id":"node-8775634107","lat":25.025055,"lon":121.478907,"name":"合聖宮","decorType":"shrine"},{"id":"node-9067441779","lat":25.023525,"lon":121.470951,"name":"Q Burger","decorType":"restaurant"},{"id":"node-9067441780","lat":25.023778,"lon":121.47092,"name":"孫東寶","decorType":"restaurant"},{"id":"node-9332225004","lat":25.02493,"lon":121.470071,"name":"謄屋日本料理","decorType":"restaurant"},{"id":"node-9345816155","lat":25.03197,"lon":121.479315,"name":"蝦皮店到店","decorType":"convenience"},{"id":"node-9345816164","lat":25.027085,"lon":121.479247,"name":"蝦皮店到店","decorType":"convenience"},{"id":"node-9354948567","lat":25.030701,"lon":121.472699,"name":"隱居_いざかや-江翠店","decorType":"restaurant"},{"id":"node-9630668953","lat":25.024283,"lon":121.472844,"name":"蝦皮店到店","decorType":"convenience"},{"id":"node-9688150890","lat":25.027127,"lon":121.479214,"name":"茂群乾洗","decorType":"laundry"},{"id":"node-9688150891","lat":25.027174,"lon":121.479178,"name":"華威冷氣行","decorType":"electronics"},{"id":"node-9688150903","lat":25.02728,"lon":121.478263,"name":"Super Hair","decorType":"hair_salon"},{"id":"node-9688184757","lat":25.027054,"lon":121.477784,"name":"新進發大藥局","decorType":"pharmacy"},{"id":"node-9688184763","lat":25.026777,"lon":121.477111,"name":"168平價小吃店","decorType":"restaurant"},{"id":"node-9688184764","lat":25.026809,"lon":121.477187,"name":"大同口海鮮店","decorType":"restaurant"},{"id":"node-9688184766","lat":25.026902,"lon":121.477068,"name":"寶元蔘藥行","decorType":"pharmacy"},{"id":"node-9688184767","lat":25.026126,"lon":121.47725,"name":"麵屋山茶","decorType":"restaurant"},{"id":"node-9688184784","lat":25.0267,"lon":121.477127,"name":"修蛋機咧","decorType":"electronics"},{"id":"node-9688184785","lat":25.026727,"lon":121.477114,"name":"美式早餐屋","decorType":"restaurant"},{"id":"node-9688184812","lat":25.027085,"lon":121.476821,"name":"設髮","decorType":"hair_salon"},{"id":"node-9688211833","lat":25.027238,"lon":121.47778,"name":"老獅開飯","decorType":"restaurant"},{"id":"node-9688211834","lat":25.027166,"lon":121.477639,"name":"經典興姿美容機構","decorType":"cosmetics"},{"id":"node-9691112867","lat":25.025606,"lon":121.477561,"name":"西園理髮廳","decorType":"hair_salon"},{"id":"node-9691112868","lat":25.026064,"lon":121.477659,"name":"板橋天后宮","decorType":"shrine"},{"id":"node-9691369903","lat":25.026589,"lon":121.478244,"name":"崑龍宮","decorType":"shrine"},{"id":"node-9691379527","lat":25.027027,"lon":121.478179,"name":"明新理髮","decorType":"hair_salon"},{"id":"node-9691379552","lat":25.027913,"lon":121.478481,"name":"Q Burger","decorType":"restaurant"},{"id":"node-9691379553","lat":25.027839,"lon":121.478513,"name":"榮恩堂","decorType":"shrine"},{"id":"node-9691379580","lat":25.02765,"lon":121.477558,"name":"美廉社","decorType":"supermarket"},{"id":"node-9691379581","lat":25.027684,"lon":121.477527,"name":"龍宏宮","decorType":"shrine"},{"id":"node-9691386061","lat":25.027893,"lon":121.479041,"name":"拉亞漢堡","decorType":"burger"},{"id":"node-9691386072","lat":25.027103,"lon":121.477946,"name":"百秝洗衣連鎖","decorType":"laundry"},{"id":"node-9691386073","lat":25.027542,"lon":121.477808,"name":"蒂曼妮SPA會館","decorType":"cosmetics"},{"id":"node-9694236170","lat":25.027466,"lon":121.478651,"name":"甜不辣肉圓","decorType":"restaurant"},{"id":"node-9694236171","lat":25.027456,"lon":121.478623,"name":"魷夠讚鹽酥雞","decorType":"restaurant"},{"id":"node-9694236173","lat":25.028167,"lon":121.478309,"name":"未命名自主洗衣店&乾洗店","decorType":"laundry"},{"id":"node-9694236175","lat":25.028018,"lon":121.478405,"name":"全民小站","decorType":"cafe"},{"id":"node-9697092449","lat":25.03319,"lon":121.479426,"name":"7-Eleven","decorType":"convenience"},{"id":"node-9697092450","lat":25.033471,"lon":121.479477,"name":"萊爾富","decorType":"convenience"},{"id":"node-9717449603","lat":25.026772,"lon":121.479263,"name":"麥味登","decorType":"restaurant"},{"id":"node-9725096946","lat":25.030185,"lon":121.477288,"name":"可不可熟成紅茶","decorType":"cafe"},{"id":"node-9725096950","lat":25.032817,"lon":121.475209,"name":"瑪莎拉印度餐廳","decorType":"restaurant"},{"id":"node-9725096955","lat":25.032689,"lon":121.475133,"name":"7-Eleven","decorType":"convenience"},{"id":"node-9726086011","lat":25.024759,"lon":121.477664,"name":"雙園街羊肉炒麵","decorType":"restaurant"},{"id":"node-9726086012","lat":25.024711,"lon":121.477698,"name":"Mr.Lee Hair Salon","decorType":"hair_salon"},{"id":"node-9726443925","lat":25.023292,"lon":121.481217,"name":"蝦皮店到店","decorType":"convenience"},{"id":"node-9742799920","lat":25.033649,"lon":121.477983,"name":"蝦皮店到店","decorType":"convenience"},{"id":"node-9744939046","lat":25.03045,"lon":121.477126,"name":"老牌周高雄燒肉飯","decorType":"restaurant"},{"id":"node-9744939047","lat":25.030491,"lon":121.477107,"name":"開源社","decorType":"restaurant"},{"id":"node-9744939048","lat":25.030527,"lon":121.47708,"name":"豆莊豆漿店","decorType":"restaurant"},{"id":"node-9744939057","lat":25.030654,"lon":121.476778,"name":"大樹藥局","decorType":"pharmacy"},{"id":"node-9744939066","lat":25.030362,"lon":121.477148,"name":"福藝精緻自助餐","decorType":"restaurant"},{"id":"node-9744939079","lat":25.030067,"lon":121.476468,"name":"滿義義式料理工坊","decorType":"restaurant"},{"id":"node-9744939081","lat":25.030155,"lon":121.476424,"name":"蒔漁廚房","decorType":"restaurant"},{"id":"node-9744950723","lat":25.030827,"lon":121.477611,"name":"長虹3C配件","decorType":"electronics"},{"id":"node-9744950730","lat":25.031104,"lon":121.478177,"name":"厚野雞排","decorType":"restaurant"},{"id":"node-9744950731","lat":25.031077,"lon":121.478115,"name":"福星素食","decorType":"restaurant"},{"id":"node-9744950732","lat":25.031152,"lon":121.47827,"name":"蔡家牛排","decorType":"restaurant"},{"id":"node-9744950734","lat":25.031101,"lon":121.478502,"name":"喜芝梅名品","decorType":"clothing"},{"id":"node-9744950735","lat":25.031029,"lon":121.47835,"name":"全家便利商店","decorType":"convenience"},{"id":"node-9744950736","lat":25.031079,"lon":121.478416,"name":"CoCo都可","decorType":"cafe"},{"id":"node-9744950753","lat":25.030899,"lon":121.478094,"name":"康是美","decorType":"pharmacy"},{"id":"node-9744950754","lat":25.030938,"lon":121.478158,"name":"屈臣氏","decorType":"pharmacy"},{"id":"node-9744950755","lat":25.030965,"lon":121.478215,"name":"Comebuy","decorType":"cafe"},{"id":"node-9744950757","lat":25.030813,"lon":121.477913,"name":"珍煮丹","decorType":"cafe"},{"id":"node-9744950758","lat":25.030792,"lon":121.477843,"name":"六扇門時尚湯鍋","decorType":"restaurant"},{"id":"node-9744950767","lat":25.030967,"lon":121.477887,"name":"展弘五金","decorType":"hardware"},{"id":"node-9744950781","lat":25.030936,"lon":121.477827,"name":"清心福全","decorType":"cafe"},{"id":"node-9744950783","lat":25.030852,"lon":121.477666,"name":"真豪越泰美食","decorType":"restaurant"},{"id":"node-9744950790","lat":25.030708,"lon":121.477334,"name":"阿澎手感烘培","decorType":"bakery"},{"id":"node-9744950792","lat":25.030651,"lon":121.477203,"name":"源珍潤餅捲","decorType":"restaurant"},{"id":"node-9744950793","lat":25.030849,"lon":121.476769,"name":"七盞茶","decorType":"cafe"},{"id":"node-9744950806","lat":25.030769,"lon":121.477478,"name":"盛泰圖書文具","decorType":"library"},{"id":"node-9744950811","lat":25.030713,"lon":121.477685,"name":"CQ2快剪","decorType":"hair_salon"},{"id":"node-9938497533","lat":25.024046,"lon":121.480316,"name":"萊爾富","decorType":"convenience"},{"id":"node-9942107813","lat":25.023395,"lon":121.480859,"name":"榛飽早午餐","decorType":"restaurant"},{"id":"node-9942107814","lat":25.023258,"lon":121.481,"name":"振興好吃雞肉飯","decorType":"restaurant"},{"id":"node-9942307340","lat":25.023413,"lon":121.481992,"name":"三民熱炒","decorType":"restaurant"},{"id":"node-9942307350","lat":25.023585,"lon":121.482123,"name":"萬里香早餐店","decorType":"restaurant"},{"id":"node-9942307351","lat":25.023564,"lon":121.482062,"name":"旺麵線甜不辣","decorType":"restaurant"},{"id":"node-9942307352","lat":25.023555,"lon":121.482017,"name":"鴨福當歸鴨","decorType":"restaurant"},{"id":"node-9942307353","lat":25.023544,"lon":121.48196,"name":"小廚房","decorType":"restaurant"},{"id":"node-9942307357","lat":25.023532,"lon":121.481902,"name":"金蘭洲麵館","decorType":"restaurant"},{"id":"node-9942307358","lat":25.02338,"lon":121.481944,"name":"世豐便當","decorType":"restaurant"},{"id":"node-9942307368","lat":25.023348,"lon":121.481683,"name":"茶嗎啡","decorType":"cafe"},{"id":"node-9942307369","lat":25.023494,"lon":121.481645,"name":"香港龍城燒臘","decorType":"restaurant"},{"id":"node-9942307378","lat":25.023483,"lon":121.481496,"name":"聖航宮","decorType":"shrine"},{"id":"node-9944061172","lat":25.02355,"lon":121.482954,"name":"小貓咪","decorType":"restaurant"},{"id":"node-9969480510","lat":25.024031,"lon":121.474682,"name":"孚聖宮","decorType":"shrine"},{"id":"node-9969488527","lat":25.023138,"lon":121.474067,"name":"大峰藥師藥局","decorType":"pharmacy"},{"id":"node-9972779589","lat":25.032875,"lon":121.474661,"name":"拉亞漢堡","decorType":"burger"},{"id":"node-9972835973","lat":25.026966,"lon":121.476461,"name":"欣華洗衣店","decorType":"laundry"},{"id":"node-9972835974","lat":25.027031,"lon":121.476426,"name":"泰晶晶泰式料理","decorType":"restaurant"},{"id":"node-9975466723","lat":25.029053,"lon":121.473172,"name":"德多屋","decorType":"bakery"},{"id":"node-9975466724","lat":25.030149,"lon":121.47217,"name":"金磚鴨莊","decorType":"restaurant"},{"id":"node-9989777336","lat":25.032243,"lon":121.482754,"name":"華江碼頭","decorType":"station"},{"id":"node-10074098709","lat":25.025004,"lon":121.476895,"name":"八德公園的土地公廟","decorType":"shrine"},{"id":"node-10074161962","lat":25.023283,"lon":121.478106,"name":"蕭老先生早午餐（台式飯糰）","decorType":"restaurant"},{"id":"node-10720454615","lat":25.030645,"lon":121.477226,"name":"真大大雞排","decorType":"restaurant"},{"id":"node-10740509374","lat":25.030995,"lon":121.476883,"name":"摩登 Hair Salon","decorType":"hair_salon"},{"id":"node-10740509375","lat":25.030623,"lon":121.476691,"name":"轉角早餐","decorType":"restaurant"},{"id":"node-10740509387","lat":25.030719,"lon":121.476487,"name":"樂錢嘟日式涮涮鍋","decorType":"restaurant"},{"id":"node-11001027782","lat":25.03408,"lon":121.478699,"name":"萊爾富","decorType":"convenience"},{"id":"node-11064512705","lat":25.027646,"lon":121.477654,"name":"美廉社 板橋大同店","decorType":"convenience"},{"id":"node-11140323105","lat":25.029755,"lon":121.479681,"name":"美廉社","decorType":"supermarket"},{"id":"node-11346255675","lat":25.028267,"lon":121.470715,"name":"吉哆火鍋百匯","decorType":"restaurant"},{"id":"node-11473053964","lat":25.030482,"lon":121.471744,"name":"萊爾富","decorType":"convenience"},{"id":"node-11503478663","lat":25.028378,"lon":121.472211,"name":"31 Hair Salon","decorType":"hair_salon"},{"id":"node-11503478666","lat":25.027679,"lon":121.471885,"name":"一隅有貓","decorType":"restaurant"},{"id":"node-11503480986","lat":25.028325,"lon":121.47232,"name":"基隆廟口炒麵炒飯燴飯","decorType":"restaurant"},{"id":"node-11503480987","lat":25.028342,"lon":121.472331,"name":"久癮咖啡 Join Cafe","decorType":"cafe"},{"id":"node-11503480998","lat":25.02829,"lon":121.472295,"name":"21 Brunch","decorType":"restaurant"},{"id":"node-11503481006","lat":25.028927,"lon":121.472561,"name":"MAN 男の造型館","decorType":"hair_salon"},{"id":"node-11510555460","lat":25.029044,"lon":121.47321,"name":"餵我早餐","decorType":"burger"},{"id":"node-11510555461","lat":25.02985,"lon":121.472648,"name":"我就厲害燒烤","decorType":"restaurant"},{"id":"node-11510555462","lat":25.029305,"lon":121.472612,"name":"彭園湘菜館","decorType":"restaurant"},{"id":"node-11510555463","lat":25.029325,"lon":121.472619,"name":"肉次方燒肉放題","decorType":"restaurant"},{"id":"node-11510555464","lat":25.029341,"lon":121.472631,"name":"聚日式鍋物","decorType":"restaurant"},{"id":"node-11510555465","lat":25.028988,"lon":121.472351,"name":"多多早餐店","decorType":"restaurant"},{"id":"node-11510555466","lat":25.028898,"lon":121.47229,"name":"cafe Notte","decorType":"cafe"},{"id":"node-11510559041","lat":25.03077,"lon":121.472758,"name":"二鬼麵鋪","decorType":"restaurant"},{"id":"node-11510559042","lat":25.030729,"lon":121.472738,"name":"湊臭鴨血臭豆腐","decorType":"restaurant"},{"id":"node-11510559043","lat":25.030657,"lon":121.472668,"name":"chao潮肉鍋物","decorType":"restaurant"},{"id":"node-11510559045","lat":25.030547,"lon":121.472572,"name":"新全興木材行","decorType":"hardware"},{"id":"node-11510559046","lat":25.030507,"lon":121.472538,"name":"光澤愛美肌","decorType":"cosmetics"},{"id":"node-11909937669","lat":25.031751,"lon":121.475555,"name":"美廉社","decorType":"convenience"},{"id":"node-11910008569","lat":25.030336,"lon":121.475608,"name":"三顧茅廬板橋松柏店","decorType":"restaurant"},{"id":"node-11910068170","lat":25.027018,"lon":121.471927,"name":"老八風居酒屋","decorType":"restaurant"},{"id":"node-11910071569","lat":25.027824,"lon":121.472486,"name":"就是義麵屋","decorType":"restaurant"},{"id":"node-11910071570","lat":25.027779,"lon":121.472463,"name":"老串角居酒屋","decorType":"restaurant"},{"id":"node-11910071571","lat":25.02634,"lon":121.47268,"name":"全家便利商店","decorType":"convenience"},{"id":"node-11910072169","lat":25.027275,"lon":121.472102,"name":"大村武居酒屋","decorType":"restaurant"},{"id":"node-13327864435","lat":25.036563,"lon":121.47632,"name":"華江三路","decorType":"bus_stop"},{"id":"node-13327864436","lat":25.035354,"lon":121.47477,"name":"華江二路口","decorType":"bus_stop"},{"id":"node-13327864437","lat":25.034769,"lon":121.472771,"name":"稚匯公園","decorType":"bus_stop"},{"id":"node-13327864438","lat":25.034065,"lon":121.470328,"name":"華江六路口","decorType":"bus_stop"},{"id":"node-13327864449","lat":25.035952,"lon":121.477806,"name":"龍一駕訓班","decorType":"bus_stop"},{"id":"node-13327864450","lat":25.035546,"lon":121.480684,"name":"海山拖吊場","decorType":"bus_stop"},{"id":"node-13333596151","lat":25.034614,"lon":121.472511,"name":"7-Eleven","decorType":"convenience"},{"id":"node-13335150230","lat":25.035401,"lon":121.47401,"name":"全家便利商店","decorType":"convenience"},{"id":"node-13423799029","lat":25.031449,"lon":121.47076,"name":"萊爾富","decorType":"convenience"},{"id":"way-111808410","lat":25.025327,"lon":121.478465,"name":"萬板大橋","decorType":"bridge"},{"id":"way-136988445","lat":25.038328,"lon":121.481345,"name":"未命名橋樑","decorType":"bridge"},{"id":"way-136988446","lat":25.038314,"lon":121.480963,"name":"未命名橋樑","decorType":"bridge"},{"id":"way-137116230","lat":25.036923,"lon":121.478444,"name":"未命名橋樑","decorType":"bridge"},{"id":"way-137116241","lat":25.036852,"lon":121.479595,"name":"未命名橋樑","decorType":"bridge"},{"id":"way-215191242","lat":25.027476,"lon":121.480273,"name":"音樂公園","decorType":"park"},{"id":"way-215191243","lat":25.025842,"lon":121.478493,"name":"未命名公園","decorType":"park"},{"id":"way-215191246","lat":25.024609,"lon":121.475911,"name":"八德公園","decorType":"park"},{"id":"way-215191247","lat":25.029968,"lon":121.471078,"name":"農村公園","decorType":"park"},{"id":"way-216932145","lat":25.03843,"lon":121.4746,"name":"未命名水邊","decorType":"waterside"},{"id":"way-217454605","lat":25.02325,"lon":121.473276,"name":"埤墘公園","decorType":"park"},{"id":"way-217454606","lat":25.023287,"lon":121.474584,"name":"埤墘公園","decorType":"park"},{"id":"way-217454607","lat":25.023348,"lon":121.475149,"name":"未命名公園","decorType":"park"},{"id":"way-217454608","lat":25.0236,"lon":121.475725,"name":"未命名公園","decorType":"park"},{"id":"way-217454609","lat":25.024324,"lon":121.477016,"name":"永安公園","decorType":"park"},{"id":"way-239613955","lat":25.027699,"lon":121.481004,"name":"未命名公園","decorType":"park"},{"id":"way-239613963","lat":25.027501,"lon":121.479384,"name":"未命名飯店","decorType":"hotel"},{"id":"way-251880014","lat":25.030442,"lon":121.482621,"name":"未命名橋樑","decorType":"bridge"},{"id":"way-251880143","lat":25.027596,"lon":121.482978,"name":"機車道","decorType":"bridge"},{"id":"way-259697581","lat":25.029784,"lon":121.470789,"name":"農村文物館","decorType":"art_gallery"},{"id":"way-263481460","lat":25.02863,"lon":121.473266,"name":"雙十廣場","decorType":"park"},{"id":"way-263481461","lat":25.028037,"lon":121.472832,"name":"未命名公園","decorType":"park"},{"id":"way-263481462","lat":25.027535,"lon":121.472473,"name":"未命名公園","decorType":"park"},{"id":"way-263481463","lat":25.027044,"lon":121.472117,"name":"未命名公園","decorType":"park"},{"id":"way-263786817","lat":25.02502,"lon":121.472847,"name":"春暉館","decorType":"stadium"},{"id":"way-263786818","lat":25.026048,"lon":121.473557,"name":"風雨操場","decorType":"stadium"},{"id":"way-263786825","lat":25.024759,"lon":121.47325,"name":"植物栽培區","decorType":"park"},{"id":"way-263786826","lat":25.025357,"lon":121.474593,"name":"生態教育園","decorType":"park"},{"id":"way-266521393","lat":25.027278,"lon":121.481632,"name":"萬板大橋","decorType":"bridge"},{"id":"way-266521395","lat":25.027727,"lon":121.482846,"name":"機車道","decorType":"bridge"},{"id":"way-266521397","lat":25.026495,"lon":121.48026,"name":"未命名橋樑","decorType":"bridge"},{"id":"way-266521398","lat":25.026338,"lon":121.480226,"name":"未命名橋樑","decorType":"bridge"},{"id":"way-285000214","lat":25.031643,"lon":121.474208,"name":"翠園","decorType":"park"},{"id":"way-285200759","lat":25.024528,"lon":121.475916,"name":"兒童遊樂區","decorType":"park"},{"id":"way-285200767","lat":25.024635,"lon":121.47648,"name":"未命名神社","decorType":"shrine"},{"id":"way-286704341","lat":25.025034,"lon":121.476903,"name":"未命名公園","decorType":"park"},{"id":"way-286704343","lat":25.024774,"lon":121.476442,"name":"未命名公園","decorType":"park"},{"id":"way-286704344","lat":25.024895,"lon":121.476597,"name":"未命名公園","decorType":"park"},{"id":"way-310849384","lat":25.025397,"lon":121.478376,"name":"萬板大橋","decorType":"bridge"},{"id":"way-310849385","lat":25.027223,"lon":121.481699,"name":"萬板大橋","decorType":"bridge"},{"id":"way-317026665","lat":25.025958,"lon":121.471967,"name":"新北市藝文中心","decorType":"art_gallery"},{"id":"way-317123793","lat":25.034649,"lon":121.476264,"name":"資訊公園","decorType":"park"},{"id":"way-317123796","lat":25.037962,"lon":121.480986,"name":"未命名橋樑","decorType":"bridge"},{"id":"way-317471786","lat":25.025623,"lon":121.481286,"name":"未命名橋樑","decorType":"bridge"},{"id":"way-317471787","lat":25.024777,"lon":121.479862,"name":"未命名橋樑","decorType":"bridge"},{"id":"way-317594678","lat":25.03239,"lon":121.474506,"name":"未命名橋樑","decorType":"bridge"},{"id":"way-317594679","lat":25.032428,"lon":121.47433,"name":"未命名橋樑","decorType":"bridge"},{"id":"way-317594680","lat":25.03229,"lon":121.474629,"name":"未命名橋樑","decorType":"bridge"},{"id":"way-344200574","lat":25.034004,"lon":121.473663,"name":"江子翠河口景觀河濱公園","decorType":"park"},{"id":"way-371921061","lat":25.031439,"lon":121.471012,"name":"廣欣藥局","decorType":"pharmacy"},{"id":"way-374898452","lat":25.035513,"lon":121.481712,"name":"華江橋牽引道","decorType":"bridge"},{"id":"way-382623065","lat":25.035576,"lon":121.481063,"name":"未命名橋樑","decorType":"bridge"},{"id":"way-442156945","lat":25.03518,"lon":121.472399,"name":"稚匯公園","decorType":"park"},{"id":"way-442156946","lat":25.036053,"lon":121.47548,"name":"華江123木頭公園","decorType":"park"},{"id":"way-442156949","lat":25.037098,"lon":121.478447,"name":"時光公園","decorType":"park"},{"id":"way-442161082","lat":25.030793,"lon":121.481222,"name":"懷石公園","decorType":"park"},{"id":"way-445983240","lat":25.03065,"lon":121.470863,"name":"未命名神社","decorType":"shrine"},{"id":"way-493157927","lat":25.032713,"lon":121.481744,"name":"未命名橋樑","decorType":"bridge"},{"id":"way-543500244","lat":25.036751,"lon":121.480086,"name":"時光公園","decorType":"park"},{"id":"way-544515397","lat":25.035649,"lon":121.470424,"name":"未命名水邊","decorType":"waterside"},{"id":"way-544515398","lat":25.035587,"lon":121.47022,"name":"未命名水邊","decorType":"waterside"},{"id":"way-685138191","lat":25.037937,"lon":121.480971,"name":"未命名橋樑","decorType":"bridge"},{"id":"way-767906993","lat":25.023305,"lon":121.471425,"name":"埤墘福德宮","decorType":"shrine"},{"id":"way-793334462","lat":25.035615,"lon":121.481403,"name":"未命名橋樑","decorType":"bridge"},{"id":"way-894507289","lat":25.0356,"lon":121.481427,"name":"未命名橋樑","decorType":"bridge"},{"id":"way-894507290","lat":25.035648,"lon":121.481292,"name":"未命名橋樑","decorType":"bridge"},{"id":"way-1011177169","lat":25.036398,"lon":121.470413,"name":"大漢溪右岸自行車道","decorType":"bridge"},{"id":"way-1011177176","lat":25.036972,"lon":121.472788,"name":"未命名橋樑","decorType":"bridge"},{"id":"way-1011177177","lat":25.036945,"lon":121.472796,"name":"未命名橋樑","decorType":"bridge"},{"id":"way-1011177178","lat":25.036948,"lon":121.472737,"name":"未命名橋樑","decorType":"bridge"},{"id":"way-1011177180","lat":25.036882,"lon":121.479174,"name":"未命名公園","decorType":"park"},{"id":"way-1011688316","lat":25.036071,"lon":121.480987,"name":"未命名橋樑","decorType":"bridge"},{"id":"way-1090653660","lat":25.032192,"lon":121.48267,"name":"未命名橋樑","decorType":"bridge"},{"id":"way-1228832752","lat":25.030007,"lon":121.47241,"name":"未命名公車站","decorType":"bus_stop"},{"id":"way-1282846073","lat":25.03603,"lon":121.480683,"name":"未命名橋樑","decorType":"bridge"},{"id":"way-1282846074","lat":25.035635,"lon":121.481501,"name":"未命名橋樑","decorType":"bridge"},{"id":"way-1282846075","lat":25.036044,"lon":121.480127,"name":"未命名橋樑","decorType":"bridge"}]}