{"bbox":{"south":25.023125,"north":25.038731249999998,"west":121.52215625,"east":121.53518749999999},"pois":[{"id":"way-229855268","lat":25.0231579,"lon":121.5282804,"name":"未命名公園","decorType":"park"},{"id":"node-663571409","lat":25.02738,"lon":121.5224465,"name":"Mia C'bon","decorType":"supermarket"},{"id":"node-663571412","lat":25.02561,"lon":121.5228096,"name":"7-Eleven","decorType":"convenience"},{"id":"node-663578254","lat":25.0267892,"lon":121.522691,"name":"捷運古亭站(羅斯福)","decorType":"bus_stop"},{"id":"node-663578255","lat":25.0243409,"lon":121.5244207,"name":"羅斯福金門街口","decorType":"bus_stop"},{"id":"node-663578256","lat":25.0238144,"lon":121.5226588,"name":"八隻大象青年之家","decorType":"hotel"},{"id":"node-663578258","lat":25.0237464,"lon":121.5227447,"name":"Dreaming Dragon Hostel","decorType":"hotel"},{"id":"node-1446842517","lat":25.038632,"lon":121.5345587,"name":"7-Eleven","decorType":"convenience"},{"id":"node-1823560106","lat":25.0368978,"lon":121.5233043,"name":"7-Eleven","decorType":"convenience"},{"id":"node-1850962941","lat":25.0265112,"lon":121.5322572,"name":"春天素食","decorType":"restaurant"},{"id":"node-1929979425","lat":25.0377627,"lon":121.5247803,"name":"郵局","decorType":"post_office"},{"id":"node-1940469232","lat":25.0338425,"lon":121.5292584,"name":"東門","decorType":"station"},{"id":"node-1993682446","lat":25.0253928,"lon":121.5312565,"name":"找點心","decorType":"cafe"},{"id":"node-2025959763","lat":25.0369918,"lon":121.5322694,"name":"正宗香港鴻運港式燒臘","decorType":"restaurant"},{"id":"node-2063258338","lat":25.0385301,"lon":121.5326856,"name":"仁愛新生路口","decorType":"bus_stop"},{"id":"node-2063258342","lat":25.0338844,"lon":121.5325716,"name":"信義新生路口","decorType":"bus_stop"},{"id":"node-2063258374","lat":25.0263602,"lon":121.5347979,"name":"和平新生路口","decorType":"bus_stop"},{"id":"node-2063258471","lat":25.0307609,"lon":121.5335151,"name":"金華新生路口","decorType":"bus_stop"},{"id":"node-2063258489","lat":25.0246533,"lon":121.534542,"name":"龍安國小(公務人力發展學院)","decorType":"bus_stop"},{"id":"node-2079533594","lat":25.0259008,"lon":121.5285247,"name":"師大","decorType":"bus_stop"},{"id":"node-2079533599","lat":25.0263365,"lon":121.529865,"name":"師大綜合大樓","decorType":"bus_stop"},{"id":"node-2079533629","lat":25.0261212,"lon":121.5329799,"name":"溫州街口","decorType":"bus_stop"},{"id":"node-2084597622","lat":25.0288948,"lon":121.5257852,"name":"鮮堡漢堡","decorType":"burger"},{"id":"node-2085444960","lat":25.0264861,"lon":121.5248751,"name":"Dulu Coffee Shop","decorType":"cafe"},{"id":"node-2094662039","lat":25.0346616,"lon":121.5265127,"name":"雀客快捷台北永康","decorType":"hotel"},{"id":"node-2094829585","lat":25.025895,"lon":121.5235049,"name":"出口 3 (古亭市場)","decorType":"station"},{"id":"node-2094931371","lat":25.034118,"lon":121.526528,"name":"石二鍋","decorType":"restaurant"},{"id":"node-2094936617","lat":25.0335715,"lon":121.5273779,"name":"吉野家","decorType":"burger"},{"id":"node-2094938655","lat":25.0343658,"lon":121.5271422,"name":"coco 都可茶飲","decorType":"cafe"},{"id":"node-2094941419","lat":25.034461,"lon":121.527142,"name":"緑逗薏人","decorType":"cafe"},{"id":"node-2122373338","lat":25.0260311,"lon":121.5282721,"name":"臺北師大郵局","decorType":"post_office"},{"id":"node-2122373456","lat":25.0261288,"lon":121.5282721,"name":"全家便利商店","decorType":"convenience"},{"id":"node-2122387112","lat":25.026509,"lon":121.5277577,"name":"師大","decorType":"bus_stop"},{"id":"node-2160836810","lat":25.0256488,"lon":121.528082,"name":"師大便利書店 (自動借還書機)","decorType":"library"},{"id":"node-2160836812","lat":25.0275803,"lon":121.5294231,"name":"校本部","decorType":"bus_stop"},{"id":"node-2183238681","lat":25.0333279,"lon":121.5323268,"name":"東品洋行","decorType":"clothing"},{"id":"node-2183238686","lat":25.0333544,"lon":121.5321932,"name":"NOUVEAU","decorType":"restaurant"},{"id":"node-2183238694","lat":25.0333741,"lon":121.5319321,"name":"L'Occitane","decorType":"clothing"},{"id":"node-2183243059","lat":25.0330127,"lon":121.5303076,"name":"全家便利商店","decorType":"convenience"},{"id":"node-2183243060","lat":25.0330545,"lon":121.530538,"name":"全聯福利中心","decorType":"supermarket"},{"id":"node-2191945183","lat":25.0246599,"lon":121.524502,"name":"全家便利商店","decorType":"convenience"},{"id":"node-2193828907","lat":25.0236976,"lon":121.5252449,"name":"7-Eleven","decorType":"convenience"},{"id":"node-2278521194","lat":25.0245993,"lon":121.5286816,"name":"燈籠滷味","decorType":"restaurant"},{"id":"node-2278521765","lat":25.0242012,"lon":121.5286403,"name":"一之軒","decorType":"bakery"},{"id":"node-2278523999","lat":25.0282242,"lon":121.5261103,"name":"金山潮州街口","decorType":"bus_stop"},{"id":"node-2278524000","lat":25.0287388,"lon":121.5263916,"name":"金山潮州街口","decorType":"bus_stop"},{"id":"node-2310591202","lat":25.0332637,"lon":121.5270279,"name":"捷運東門站(金山)","decorType":"bus_stop"},{"id":"node-2310591215","lat":25.0303683,"lon":121.5329893,"name":"金華國中","decorType":"bus_stop"},{"id":"node-2310591224","lat":25.0298555,"lon":121.5304696,"name":"OK超商","decorType":"convenience"},{"id":"node-2310591231","lat":25.0297875,"lon":121.5289669,"name":"金華大廈","decorType":"bus_stop"},{"id":"node-2310591236","lat":25.0300888,"lon":121.5268672,"name":"公企中心","decorType":"bus_stop"},{"id":"node-2310591239","lat":25.0331513,"lon":121.5269104,"name":"鬍鬚張","decorType":"restaurant"},{"id":"node-2311690628","lat":25.0237422,"lon":121.5314764,"name":"糊塗麵","decorType":"restaurant"},{"id":"node-2312678141","lat":25.0239546,"lon":121.5247928,"name":"羅斯福金門街口","decorType":"bus_stop"},{"id":"node-2315944925","lat":25.0251602,"lon":121.5348894,"name":"龍安國小(公務人力發展學院)","decorType":"bus_stop"},{"id":"node-2318382198","lat":25.0267975,"lon":121.5229484,"name":"星巴克","decorType":"cafe"},{"id":"node-2318382782","lat":25.0265962,"lon":121.5230316,"name":"爭鮮迴轉壽司","decorType":"restaurant"},{"id":"node-2318383283","lat":25.0264034,"lon":121.5231879,"name":"吉野家","decorType":"burger"},{"id":"node-2318385495","lat":25.0268373,"lon":121.5222396,"name":"寶雅生活館","decorType":"pharmacy"},{"id":"node-2318386198","lat":25.027172,"lon":121.523152,"name":"捷運古亭站(和平)","decorType":"bus_stop"},{"id":"node-2341953899","lat":25.0271483,"lon":121.5245662,"name":"全聯福利中心","decorType":"supermarket"},{"id":"node-2341954017","lat":25.0271065,"lon":121.5248797,"name":"樂田麵包屋","decorType":"restaurant"},{"id":"node-2341954685","lat":25.0272517,"lon":121.5228528,"name":"五桐號","decorType":"cafe"},{"id":"node-2365905451","lat":25.0285737,"lon":121.5293565,"name":"龍安民眾閱覽室","decorType":"library"},{"id":"node-2383980635","lat":25.0231894,"lon":121.5285649,"name":"7-Eleven","decorType":"convenience"},{"id":"node-2383980640","lat":25.0233656,"lon":121.5285569,"name":"全家便利商店","decorType":"convenience"},{"id":"node-2393782858","lat":25.0302393,"lon":121.5268135,"name":"摩斯漢堡","decorType":"burger"},{"id":"node-2393783453","lat":25.0315274,"lon":121.5286731,"name":"老張牛肉麵","decorType":"restaurant"},{"id":"node-2407137780","lat":25.0267558,"lon":121.5246838,"name":"捷運古亭站(和平)","decorType":"bus_stop"},{"id":"node-2421453621","lat":25.0274447,"lon":121.5223939,"name":"麥當勞","decorType":"burger"},{"id":"node-2422620743","lat":25.0267381,"lon":121.5277135,"name":"師大","decorType":"bus_stop"},{"id":"node-2422620745","lat":25.0270373,"lon":121.5244649,"name":"捷運古亭站(和平)","decorType":"bus_stop"},{"id":"node-2422620753","lat":25.0263548,"lon":121.5326939,"name":"溫州街口","decorType":"bus_stop"},{"id":"node-2422620754","lat":25.0265913,"lon":121.529945,"name":"師大綜合大樓","decorType":"bus_stop"},{"id":"node-2426176904","lat":25.0335186,"lon":121.5301015,"name":"鼎泰豐","decorType":"restaurant"},{"id":"node-2426954479","lat":25.034141,"lon":121.5269283,"name":"捷運東門站","decorType":"bus_stop"},{"id":"node-2426954484","lat":25.0335809,"lon":121.532286,"name":"信義新生路口","decorType":"bus_stop"},{"id":"node-2426954486","lat":25.035604,"lon":121.5240214,"name":"信義杭州路口","decorType":"bus_stop"},{"id":"node-2426954496","lat":25.0337259,"lon":121.5297608,"name":"信義永康街口 (捷運東門站)","decorType":"bus_stop"},{"id":"node-2426954497","lat":25.0353589,"lon":121.5246195,"name":"信義杭州路口","decorType":"bus_stop"},{"id":"node-2426954498","lat":25.0337266,"lon":121.5302535,"name":"信義永康街口 (捷運東門站)","decorType":"bus_stop"},{"id":"node-2426954502","lat":25.0336391,"lon":121.5331281,"name":"信義新生路口","decorType":"bus_stop"},{"id":"node-2426954503","lat":25.0340747,"lon":121.527611,"name":"捷運東門站","decorType":"bus_stop"},{"id":"node-2426976629","lat":25.0332843,"lon":121.5328567,"name":"信義新生路口","decorType":"bus_stop"},{"id":"node-2426976630","lat":25.0378395,"lon":121.5328902,"name":"仁愛新生路口","decorType":"bus_stop"},{"id":"node-2426976631","lat":25.0305176,"lon":121.5338578,"name":"金華新生路口","decorType":"bus_stop"},{"id":"node-2429872622","lat":25.0304045,"lon":121.526792,"name":"OK超商","decorType":"convenience"},{"id":"node-2435590491","lat":25.0380391,"lon":121.5345395,"name":"幸安國小","decorType":"bus_stop"},{"id":"node-2435590492","lat":25.0382602,"lon":121.5346657,"name":"幸安國小","decorType":"bus_stop"},{"id":"node-2435590494","lat":25.038411,"lon":121.5338329,"name":"新生南路口","decorType":"bus_stop"},{"id":"node-2435590497","lat":25.0382965,"lon":121.5295509,"name":"仁愛臨沂街口","decorType":"bus_stop"},{"id":"node-2435590498","lat":25.0381882,"lon":121.5280617,"name":"仁愛臨沂街口","decorType":"bus_stop"},{"id":"node-2435590499","lat":25.0381144,"lon":121.5324102,"name":"仁愛新生路口","decorType":"bus_stop"},{"id":"node-2435592632","lat":25.0383714,"lon":121.5254062,"name":"仁愛杭州路口","decorType":"bus_stop"},{"id":"node-2435592634","lat":25.03843,"lon":121.5237601,"name":"仁愛紹興街口","decorType":"bus_stop"},{"id":"node-2455453861","lat":25.0350719,"lon":121.527581,"name":"棉花田","decorType":"supermarket"},{"id":"node-2455453883","lat":25.0343671,"lon":121.5275226,"name":"東門鵝肉攤","decorType":"restaurant"},{"id":"node-2455453899","lat":25.030512,"lon":121.5265207,"name":"公企中心","decorType":"bus_stop"},{"id":"node-2459036542","lat":25.0268457,"lon":121.5233446,"name":"捷運古亭站(和平)","decorType":"bus_stop"},{"id":"node-2459039756","lat":25.0306774,"lon":121.5267797,"name":"公企中心","decorType":"bus_stop"},{"id":"node-2459039757","lat":25.0367211,"lon":121.5277569,"name":"仁愛路二段","decorType":"bus_stop"},{"id":"node-2459039758","lat":25.0332885,"lon":121.527254,"name":"捷運東門站(金山)","decorType":"bus_stop"},{"id":"node-2459039763","lat":25.0375547,"lon":121.5282236,"name":"仁愛路二段","decorType":"bus_stop"},{"id":"node-2460009696","lat":25.0342835,"lon":121.5330279,"name":"全家便利商店","decorType":"convenience"},{"id":"node-2460009740","lat":25.0343976,"lon":121.533032,"name":"大安森林食堂","decorType":"restaurant"},{"id":"node-2460009792","lat":25.0345041,"lon":121.5330313,"name":"摩斯漢堡","decorType":"burger"},{"id":"node-2486816961","lat":25.0264637,"lon":121.5231721,"name":"欣和旅店","decorType":"hotel"},{"id":"node-2526023591","lat":25.0318197,"lon":121.5246123,"name":"台北金南郵局","decorType":"post_office"},{"id":"node-2535958442","lat":25.0245609,"lon":121.5254627,"name":"秘氏咖啡","decorType":"cafe"},{"id":"node-2544407630","lat":25.034658,"lon":121.5262829,"name":"未命名郵局","decorType":"post_office"},{"id":"node-2558214795","lat":25.0238609,"lon":121.5343595,"name":"莫宰羊","decorType":"restaurant"},{"id":"node-2558223809","lat":25.0256706,"lon":121.5301629,"name":"成都麵店","decorType":"restaurant"},{"id":"node-2563078204","lat":25.0300339,"lon":121.5221853,"name":"潮州街口","decorType":"bus_stop"},{"id":"node-2597965495","lat":25.0330983,"lon":121.5299396,"name":"7-Eleven","decorType":"convenience"},{"id":"node-2597965505","lat":25.0330407,"lon":121.5299324,"name":"康是美","decorType":"pharmacy"},{"id":"node-2597965506","lat":25.0330756,"lon":121.5301638,"name":"大來小館永康旗艦店","decorType":"restaurant"},{"id":"node-2597965510","lat":25.033089,"lon":121.5300833,"name":"巧克哈客","decorType":"restaurant"},{"id":"node-2597965511","lat":25.0335068,"lon":121.5301577,"name":"冉冉生活","decorType":"cafe"},{"id":"node-2601117060","lat":25.0377198,"lon":121.5324716,"name":"無老鍋","decorType":"restaurant"},{"id":"node-2601117061","lat":25.0379716,"lon":121.5323394,"name":"貳樓餐廳","decorType":"restaurant"},{"id":"node-2608996131","lat":25.0370811,"lon":121.5324977,"name":"7-Eleven","decorType":"convenience"},{"id":"node-2624816667","lat":25.0272376,"lon":121.5258268,"name":"四海豆漿","decorType":"restaurant"},{"id":"node-2653879920","lat":25.0320651,"lon":121.5292751,"name":"Rice Cafe杓文字","decorType":"restaurant"},{"id":"node-2653879921","lat":25.0320277,"lon":121.5294447,"name":"樂麵屋","decorType":"restaurant"},{"id":"node-2657773501","lat":25.0341227,"lon":121.531035,"name":"奇福扁食","decorType":"restaurant"},{"id":"node-2676809065","lat":25.0296979,"lon":121.5294509,"name":"路易莎","decorType":"cafe"},{"id":"node-2698212021","lat":25.0257388,"lon":121.5280792,"name":"文薈廳","decorType":"cafe"},{"id":"node-2760112868","lat":25.0351154,"lon":121.5345873,"name":"義光教會","decorType":"shrine"},{"id":"node-2923728376","lat":25.0256891,"lon":121.5226636,"name":"泓得素食店","decorType":"restaurant"},{"id":"node-2952382793","lat":25.0384809,"lon":121.5286079,"name":"7-Eleven","decorType":"convenience"},{"id":"node-2952428754","lat":25.0383912,"lon":121.5305186,"name":"未命名郵局","decorType":"post_office"},{"id":"node-2952479190","lat":25.0332718,"lon":121.5297467,"name":"星巴克","decorType":"cafe"},{"id":"node-2969057137","lat":25.038714,"lon":121.5254377,"name":"德忞牛肉麵","decorType":"restaurant"},{"id":"node-2969057246","lat":25.0386715,"lon":121.5254235,"name":"KC Cafe","decorType":"cafe"},{"id":"node-3027219943","lat":25.0306475,"lon":121.5294528,"name":"好公道的店","decorType":"restaurant"},{"id":"node-3050253395","lat":25.0246819,"lon":121.5280157,"name":"水準書局","decorType":"library"},{"id":"node-3075089498","lat":25.0255561,"lon":121.5233462,"name":"出口 2 (同安街)","decorType":"station"},{"id":"node-3075092733","lat":25.026091,"lon":121.5229477,"name":"出口 1 (同安街)","decorType":"station"},{"id":"node-3078276697","lat":25.0264865,"lon":121.5325019,"name":"7-Eleven","decorType":"convenience"},{"id":"node-3098549371","lat":25.0267516,"lon":121.5229819,"name":"達芙妮","decorType":"clothing"},{"id":"node-3113981811","lat":25.0366966,"lon":121.5324193,"name":"自助餐","decorType":"restaurant"},{"id":"node-3113986361","lat":25.0348547,"lon":121.5346433,"name":"雙連魯肉飯","decorType":"restaurant"},{"id":"node-3113986362","lat":25.0351548,"lon":121.5347258,"name":"美客超商","decorType":"supermarket"},{"id":"node-3138467539","lat":25.0367764,"lon":121.5248209,"name":"仁愛杭州路口","decorType":"bus_stop"},{"id":"node-3138467542","lat":25.030083,"lon":121.5273869,"name":"公企中心","decorType":"bus_stop"},{"id":"node-3138467543","lat":25.03276,"lon":121.522887,"name":"愛國東路口","decorType":"bus_stop"},{"id":"node-3138467544","lat":25.0323081,"lon":121.5232604,"name":"南門中繼市場","decorType":"bus_stop"},{"id":"node-3138467557","lat":25.0349405,"lon":121.5241375,"name":"金甌女中","decorType":"bus_stop"},{"id":"node-3138467558","lat":25.0301087,"lon":121.5317375,"name":"金華國中","decorType":"bus_stop"},{"id":"node-3138467559","lat":25.0298805,"lon":121.5288819,"name":"金華大廈","decorType":"bus_stop"},{"id":"node-3145881246","lat":25.0265937,"lon":121.5229806,"name":"出口 4 (師範大學)","decorType":"station"},{"id":"node-3145881251","lat":25.0271985,"lon":121.5227523,"name":"出口 5 (和平東路一段)","decorType":"station"},{"id":"node-3145881252","lat":25.0274781,"lon":121.5223004,"name":"出口 6 (杭州南路)","decorType":"station"},{"id":"node-3145881255","lat":25.0268528,"lon":121.5223598,"name":"出口 9 (大都市國際中心)","decorType":"station"},{"id":"node-3181634511","lat":25.0293799,"lon":121.5295704,"name":"波士頓理髮廳","decorType":"hair_salon"},{"id":"node-3181867689","lat":25.0297118,"lon":121.5294255,"name":"zakka zoo","decorType":"clothing"},{"id":"node-3181867692","lat":25.0298426,"lon":121.5293242,"name":"可喜漢堡","decorType":"restaurant"},{"id":"node-3181917425","lat":25.0298456,"lon":121.5292867,"name":"品悅糖","decorType":"restaurant"},{"id":"node-3181917429","lat":25.0298071,"lon":121.5283598,"name":"7-Eleven","decorType":"convenience"},{"id":"node-3181917431","lat":25.0300184,"lon":121.5282803,"name":"韓記老虎麵食館","decorType":"restaurant"},{"id":"node-3182310123","lat":25.0302328,"lon":121.5258079,"name":"全安藥房","decorType":"pharmacy"},{"id":"node-3201621179","lat":25.0241951,"lon":121.5296806,"name":"牙買加倉庫","decorType":"restaurant"},{"id":"node-3216076614","lat":25.035488,"lon":121.5273028,"name":"7-Eleven","decorType":"convenience"},{"id":"node-3216077263","lat":25.0374114,"lon":121.5257996,"name":"臺灣聖公會友誼之家","decorType":"shrine"},{"id":"node-3216077265","lat":25.0361265,"lon":121.5275145,"name":"金山鵝肉","decorType":"restaurant"},{"id":"node-3216077271","lat":25.0341986,"lon":121.5275395,"name":"未命名車站","decorType":"station"},{"id":"node-3216077273","lat":25.033248,"lon":121.5269276,"name":"7-Eleven","decorType":"convenience"},{"id":"node-3216077275","lat":25.0305291,"lon":121.5284234,"name":"花俊簡餐咖啡","decorType":"restaurant"},{"id":"node-3216077286","lat":25.032767,"lon":121.5291437,"name":"雲鼎阿二麻辣食堂","decorType":"restaurant"},{"id":"node-3216077385","lat":25.0337368,"lon":121.5278344,"name":"未命名車站","decorType":"station"},{"id":"node-3216077386","lat":25.0305188,"lon":121.5285253,"name":"六品小館","decorType":"restaurant"},{"id":"node-3216077397","lat":25.0324204,"lon":121.5290558,"name":"豐盛食堂","decorType":"restaurant"},{"id":"node-3216077726","lat":25.0325966,"lon":121.5290899,"name":"永業書店","decorType":"library"},{"id":"node-3216077727","lat":25.0315099,"lon":121.5282409,"name":"教庭外郵筒","decorType":"post_office"},{"id":"node-3216077742","lat":25.0310407,"lon":121.5288208,"name":"吳留手串燒","decorType":"restaurant"},{"id":"node-3216077747","lat":25.0316963,"lon":121.5285951,"name":"眉公河畔東南亞餐廳","decorType":"restaurant"},{"id":"node-3216077748","lat":25.0321057,"lon":121.5290076,"name":"古典玫瑰園台北永康店","decorType":"restaurant"},{"id":"node-3233059785","lat":25.024505,"lon":121.5297219,"name":"米克諾斯","decorType":"restaurant"},{"id":"node-3263378505","lat":25.0319553,"lon":121.5259232,"name":"愛國金山路口","decorType":"bus_stop"},{"id":"node-3270306166","lat":25.0341729,"lon":121.528946,"name":"謙商旅Chain Hotel","decorType":"hotel"},{"id":"node-3270311362","lat":25.0337372,"lon":121.5289043,"name":"未命名郵局","decorType":"post_office"},{"id":"node-3270311562","lat":25.0320547,"lon":121.529594,"name":"府城台南美食旗艦店","decorType":"restaurant"},{"id":"node-3270311563","lat":25.034073,"lon":121.5289623,"name":"未命名車站","decorType":"station"},{"id":"node-3270313561","lat":25.0338826,"lon":121.5298345,"name":"未命名車站","decorType":"station"},{"id":"node-3270313562","lat":25.0317833,"lon":121.5295194,"name":"麵黑平","decorType":"restaurant"},{"id":"node-3270313661","lat":25.0328905,"lon":121.528985,"name":"家味陳媽媽便當美食坊","decorType":"restaurant"},{"id":"node-3270313762","lat":25.0316882,"lon":121.5294981,"name":"一品山西刀削麵之家","decorType":"restaurant"},{"id":"node-3270313763","lat":25.0336524,"lon":121.5294852,"name":"未命名車站","decorType":"station"},{"id":"node-3270313764","lat":25.0339103,"lon":121.529635,"name":"未命名車站","decorType":"station"},{"id":"node-3270313861","lat":25.0315268,"lon":121.5294748,"name":"7-Eleven","decorType":"convenience"},{"id":"node-3270313863","lat":25.0340748,"lon":121.5289257,"name":"東門郵局","decorType":"post_office"},{"id":"node-3270313864","lat":25.0337404,"lon":121.5288682,"name":"未命名車站","decorType":"station"},{"id":"node-3270313865","lat":25.0341346,"lon":121.5279288,"name":"未命名車站","decorType":"station"},{"id":"node-3270343269","lat":25.0331792,"lon":121.5350866,"name":"未命名車站","decorType":"station"},{"id":"node-3270343682","lat":25.0337828,"lon":121.5344443,"name":"大安森林公園站1號出口","decorType":"station"},{"id":"node-3270346882","lat":25.0333092,"lon":121.5345205,"name":"未命名車站","decorType":"station"},{"id":"node-3273648711","lat":25.0339891,"lon":121.5289202,"name":"未命名郵局","decorType":"post_office"},{"id":"node-3307942127","lat":25.0345377,"lon":121.5277772,"name":"7-Eleven","decorType":"convenience"},{"id":"node-3336757877","lat":25.038273,"lon":121.5330816,"name":"仁愛新生路口","decorType":"bus_stop"},{"id":"node-3391166511","lat":25.0338434,"lon":121.5238553,"name":"盛園絲瓜小籠湯包","decorType":"restaurant"},{"id":"node-3445858803","lat":25.0280318,"lon":121.5299257,"name":"Boîte de bijou","decorType":"bakery"},{"id":"node-3506510794","lat":25.0339473,"lon":121.5298022,"name":"日藥本舖","decorType":"pharmacy"},{"id":"node-3506510894","lat":25.0335251,"lon":121.5298204,"name":"聖瑪麗","decorType":"bakery"},{"id":"node-3506511095","lat":25.0335922,"lon":121.5293926,"name":"NET","decorType":"clothing"},{"id":"node-3510205293","lat":25.0377823,"lon":121.5292133,"name":"誇張古懂咖啡店","decorType":"cafe"},{"id":"node-3521852853","lat":25.0273418,"lon":121.5224758,"name":"MOMA","decorType":"clothing"},{"id":"node-3579689537","lat":25.0262894,"lon":121.529825,"name":"八方雲集","decorType":"burger"},{"id":"node-3579803901","lat":25.024457,"lon":121.5255991,"name":"阿婆早餐","decorType":"restaurant"},{"id":"node-3596859027","lat":25.037998,"lon":121.5313667,"name":"山海樓","decorType":"restaurant"},{"id":"node-3602726593","lat":25.0338492,"lon":121.5323442,"name":"元組","decorType":"bakery"},{"id":"node-3649178927","lat":25.0349972,"lon":121.5287731,"name":"正德宮","decorType":"shrine"},{"id":"node-3653616887","lat":25.0352351,"lon":121.5253036,"name":"7-Eleven","decorType":"convenience"},{"id":"node-3656220547","lat":25.0311434,"lon":121.5288113,"name":"小茅屋四川店","decorType":"restaurant"},{"id":"node-3656220549","lat":25.0314628,"lon":121.5288921,"name":"基督徒聚會所","decorType":"shrine"},{"id":"node-3656220730","lat":25.0328775,"lon":121.5282668,"name":"油花迴轉吧!燒肉!永康駅","decorType":"restaurant"},{"id":"node-3656220731","lat":25.0329201,"lon":121.5280834,"name":"永康牛肉麵","decorType":"restaurant"},{"id":"node-3656221033","lat":25.0312273,"lon":121.5288267,"name":"吳留手串燒麗水二店","decorType":"restaurant"},{"id":"node-3656221034","lat":25.0315464,"lon":121.5284968,"name":"左爺爺的港式茶餐廳","decorType":"restaurant"},{"id":"node-3656221035","lat":25.0328397,"lon":121.528697,"name":"東門餃子館","decorType":"restaurant"},{"id":"node-3656268829","lat":25.0292578,"lon":121.5235073,"name":"金華麵店","decorType":"restaurant"},{"id":"node-3656268925","lat":25.0294268,"lon":121.5233535,"name":"街旅 Street Travel","decorType":"cafe"},{"id":"node-3656268926","lat":25.0294469,"lon":121.5232299,"name":"廣東汕頭新鮮豆漿店","decorType":"restaurant"},{"id":"node-3656419728","lat":25.0279751,"lon":121.5248418,"name":"台電勵進餐廳","decorType":"restaurant"},{"id":"node-3665497326","lat":25.0308687,"lon":121.5296003,"name":"龍城燒臘","decorType":"restaurant"},{"id":"node-3665497327","lat":25.0310663,"lon":121.529452,"name":"angel cafe","decorType":"cafe"},{"id":"node-3665504925","lat":25.0308225,"lon":121.5296097,"name":"燒鳥處","decorType":"restaurant"},{"id":"node-3665505025","lat":25.0309816,"lon":121.5294491,"name":"丹堤咖啡","decorType":"cafe"},{"id":"node-3665505125","lat":25.0310107,"lon":121.5295556,"name":"銀咖哩","decorType":"restaurant"},{"id":"node-3687762584","lat":25.0332524,"lon":121.5294,"name":"NextDoor鄰居家","decorType":"cafe"},{"id":"node-3687762585","lat":25.03314,"lon":121.5295472,"name":"世中欣健保藥局","decorType":"pharmacy"},{"id":"node-3687762586","lat":25.0330088,"lon":121.5293017,"name":"佳客多家常麵.湯餃","decorType":"restaurant"},{"id":"node-3687762587","lat":25.0332447,"lon":121.5295839,"name":"卡瓦利義式咖啡館","decorType":"restaurant"},{"id":"node-3687762588","lat":25.0331486,"lon":121.5290074,"name":"巧味海鮮","decorType":"restaurant"},{"id":"node-3687762589","lat":25.0331665,"lon":121.5293748,"name":"家家客家菜","decorType":"restaurant"},{"id":"node-3687762590","lat":25.0303064,"lon":121.5254054,"name":"廖家牛肉麵","decorType":"restaurant"},{"id":"node-3687762595","lat":25.029331,"lon":121.524114,"name":"未命名郵局","decorType":"post_office"},{"id":"node-3687767353","lat":25.033024,"lon":121.5289971,"name":"老郭川菜","decorType":"restaurant"},{"id":"node-3693598197","lat":25.0235995,"lon":121.5281878,"name":"星巴克","decorType":"cafe"},{"id":"node-3694094091","lat":25.0244187,"lon":121.5268238,"name":"路燈咖啡師大店","decorType":"cafe"},{"id":"node-3708879436","lat":25.0289556,"lon":121.5295866,"name":"鑫華茶餐廳","decorType":"restaurant"},{"id":"node-3732187929","lat":25.0256044,"lon":121.5295747,"name":"極簡咖啡","decorType":"cafe"},{"id":"node-3785976829","lat":25.0334765,"lon":121.5303061,"name":"吐司利亞","decorType":"restaurant"},{"id":"node-3785976830","lat":25.0302484,"lon":121.5294771,"name":"50嵐","decorType":"cafe"},{"id":"node-3785980602","lat":25.0322895,"lon":121.5298573,"name":"8度c冰淇淋","decorType":"cafe"},{"id":"node-3812564396","lat":25.0264102,"lon":121.5229533,"name":"古亭","decorType":"station"},{"id":"node-3815225762","lat":25.034498,"lon":121.5267685,"name":"71恩典藥局","decorType":"pharmacy"},{"id":"node-3821098476","lat":25.0241875,"lon":121.5344337,"name":"翠園越南餐廳","decorType":"restaurant"},{"id":"node-3826876966","lat":25.0256009,"lon":121.5345469,"name":"家樂福超市","decorType":"supermarket"},{"id":"node-3870721774","lat":25.0241913,"lon":121.5295942,"name":"雲泰小鎮","decorType":"restaurant"},{"id":"node-3870722787","lat":25.0248559,"lon":121.5318526,"name":"亞米廚房","decorType":"restaurant"},{"id":"node-3891435494","lat":25.0252813,"lon":121.5350099,"name":"SOMA","decorType":"hair_salon"},{"id":"node-3907542449","lat":25.0297946,"lon":121.5284464,"name":"大來小館","decorType":"restaurant"},{"id":"node-3939157974","lat":25.0333757,"lon":121.5318223,"name":"Arond Palmer","decorType":"clothing"},{"id":"node-3939157980","lat":25.0238934,"lon":121.5290262,"name":"Pasta Paradise","decorType":"restaurant"},{"id":"node-3939157988","lat":25.0333153,"lon":121.5324415,"name":"iRoo","decorType":"clothing"},{"id":"node-3939158011","lat":25.0262658,"lon":121.530116,"name":"九龍畫苑","decorType":"art_gallery"},{"id":"node-3939158012","lat":25.0338405,"lon":121.5322495,"name":"君悅排骨","decorType":"restaurant"},{"id":"node-3939158013","lat":25.0262636,"lon":121.5300628,"name":"國泰美術社","decorType":"art_gallery"},{"id":"node-3939158024","lat":25.0234749,"lon":121.5269159,"name":"小炮洗衣店","decorType":"laundry"},{"id":"node-3939158025","lat":25.0272138,"lon":121.5232371,"name":"屈臣氏","decorType":"pharmacy"},{"id":"node-3939158027","lat":25.033821,"lon":121.533256,"name":"市民大道涮涮鍋","decorType":"restaurant"},{"id":"node-3939158028","lat":25.0261788,"lon":121.5311671,"name":"廣聯西點烘培坊","decorType":"bakery"},{"id":"node-3939158030","lat":25.0259545,"lon":121.5341092,"name":"摩斯漢堡","decorType":"burger"},{"id":"node-3939158037","lat":25.0262617,"lon":121.5301726,"name":"春風堂藝術中心","decorType":"art_gallery"},{"id":"node-3939158049","lat":25.0320434,"lon":121.5293332,"name":"永康刀削麵","decorType":"restaurant"},{"id":"node-3939158055","lat":25.0262451,"lon":121.5303589,"name":"温州街蘿蔔絲餅達人","decorType":"ramen"},{"id":"node-3939158263","lat":25.0330725,"lon":121.5304593,"name":"秀蘭小館","decorType":"restaurant"},{"id":"node-3939158279","lat":25.0237248,"lon":121.5246893,"name":"未命名郵局","decorType":"post_office"},{"id":"node-3939158305","lat":25.0265166,"lon":121.531105,"name":"未命名郵局","decorType":"post_office"},{"id":"node-3939158322","lat":25.027072,"lon":121.5260798,"name":"未命名郵局","decorType":"post_office"},{"id":"node-3939158346","lat":25.0333977,"lon":121.5319838,"name":"未命名郵局","decorType":"post_office"},{"id":"node-3939158489","lat":25.0262769,"lon":121.5296578,"name":"素食天地","decorType":"restaurant"},{"id":"node-3939158504","lat":25.026147,"lon":121.531502,"name":"雅笛鞋品","decorType":"clothing"},{"id":"node-3939158505","lat":25.023675,"lon":121.526907,"name":"雲禾小火鍋","decorType":"restaurant"},{"id":"node-3939158507","lat":25.0266396,"lon":121.5306842,"name":"家樂福超市","decorType":"supermarket"},{"id":"node-3939158515","lat":25.0259793,"lon":121.5337008,"name":"7-Eleven","decorType":"convenience"},{"id":"node-4018208844","lat":25.0241613,"lon":121.5340295,"name":"伊聖詩私房書櫃","decorType":"cafe"},{"id":"node-4102210689","lat":25.0332149,"lon":121.5324967,"name":"Under Armour","decorType":"clothing"},{"id":"node-4114512904","lat":25.0247227,"lon":121.528675,"name":"阿諾碟子","decorType":"restaurant"},{"id":"node-4149587180","lat":25.0236002,"lon":121.5246534,"name":"臺北古亭郵局","decorType":"post_office"},{"id":"node-4149587181","lat":25.0257078,"lon":121.523706,"name":"古亭健康人生藥局","decorType":"pharmacy"},{"id":"node-4149587182","lat":25.0245506,"lon":121.5245881,"name":"星巴克","decorType":"cafe"},{"id":"node-4149587187","lat":25.0272313,"lon":121.5229926,"name":"CAFE!N","decorType":"cafe"},{"id":"node-4149591690","lat":25.0243592,"lon":121.5250354,"name":"浸信會義美堂","decorType":"shrine"},{"id":"node-4149591691","lat":25.0233439,"lon":121.5287067,"name":"白鹿洞書坊","decorType":"library"},{"id":"node-4149591701","lat":25.0268668,"lon":121.5234686,"name":"未命名郵局","decorType":"post_office"},{"id":"node-4149591703","lat":25.0239906,"lon":121.5293582,"name":"7-Eleven","decorType":"convenience"},{"id":"node-4193132794","lat":25.0340317,"lon":121.5291607,"name":"矢場味噌豬排","decorType":"restaurant"},{"id":"node-4198316050","lat":25.0289928,"lon":121.5323242,"name":"學校咖啡","decorType":"cafe"},{"id":"node-4201921589","lat":25.0340787,"lon":121.5237494,"name":"杭州小籠湯包","decorType":"restaurant"},{"id":"node-4236823693","lat":25.0289971,"lon":121.5282399,"name":"FT CafexShop","decorType":"cafe"},{"id":"node-4236823706","lat":25.0232839,"lon":121.5292737,"name":"伊洛瓦底雲泰餐館","decorType":"restaurant"},{"id":"node-4236823717","lat":25.0301336,"lon":121.5286385,"name":"大來小館","decorType":"restaurant"},{"id":"node-4236823723","lat":25.0324742,"lon":121.529066,"name":"巨林美而美","decorType":"burger"},{"id":"node-4236823727","lat":25.0332752,"lon":121.529233,"name":"常春藤","decorType":"restaurant"},{"id":"node-4236823734","lat":25.0295774,"lon":121.5284179,"name":"摩賽卡法式茶館","decorType":"restaurant"},{"id":"node-4236823748","lat":25.0243713,"lon":121.5294642,"name":"珍品味泰式炭烤","decorType":"restaurant"},{"id":"node-4236824121","lat":25.0243107,"lon":121.5293683,"name":"未命名服飾店","decorType":"clothing"},{"id":"node-4236824122","lat":25.0243432,"lon":121.5293733,"name":"未命名服飾店","decorType":"clothing"},{"id":"node-4236824158","lat":25.0234496,"lon":121.5293916,"name":"飯館兒","decorType":"restaurant"},{"id":"node-4236824160","lat":25.0322744,"lon":121.5290348,"name":"麗樺藥局","decorType":"pharmacy"},{"id":"node-4236824161","lat":25.0269117,"lon":121.5277612,"name":"麗水38","decorType":"art_gallery"},{"id":"node-4243661189","lat":25.0321595,"lon":121.5300192,"name":"Hui Liu Tea & Tea Arts","decorType":"cafe"},{"id":"node-4258490789","lat":25.0354801,"lon":121.5280661,"name":"果匠正庵烘焙專職店","decorType":"bakery"},{"id":"node-4298897604","lat":25.0318455,"lon":121.5328566,"name":"八仙炭烤","decorType":"restaurant"},{"id":"node-4298897636","lat":25.0307153,"lon":121.5304315,"name":"築地壽司","decorType":"restaurant"},{"id":"node-4298897637","lat":25.0302966,"lon":121.5294033,"name":"築地市場","decorType":"restaurant"},{"id":"node-4301521295","lat":25.0301448,"lon":121.5222854,"name":"一心麵店","decorType":"restaurant"},{"id":"node-4307625974","lat":25.0272774,"lon":121.5258344,"name":"Subway","decorType":"burger"},{"id":"node-4307626648","lat":25.0333056,"lon":121.526932,"name":"銀翼餐廳","decorType":"restaurant"},{"id":"node-4325693402","lat":25.0335545,"lon":121.5296384,"name":"Giordano","decorType":"clothing"},{"id":"node-4325693407","lat":25.0335281,"lon":121.5300069,"name":"LORANZO","decorType":"clothing"},{"id":"node-4325693410","lat":25.033646,"lon":121.528983,"name":"QB HOUSE","decorType":"hair_salon"},{"id":"node-4325693413","lat":25.0335804,"lon":121.5294804,"name":"The North Face","decorType":"clothing"},{"id":"node-4325693416","lat":25.0319188,"lon":121.5328272,"name":"一代佳人炭烤","decorType":"restaurant"},{"id":"node-4325693471","lat":25.0336312,"lon":121.529119,"name":"天仁茗茶","decorType":"cafe"},{"id":"node-4325693932","lat":25.0338365,"lon":121.5321871,"name":"泰讚泰式精緻料理","decorType":"restaurant"},{"id":"node-4330538196","lat":25.0250596,"lon":121.5306778,"name":"第二青年客棧","decorType":"hotel"},{"id":"node-4344472251","lat":25.0385562,"lon":121.5342967,"name":"歐洲名品特賣會","decorType":"clothing"},{"id":"node-4352014791","lat":25.0310063,"lon":121.5302851,"name":"小珍珠烘焙坊","decorType":"bakery"},{"id":"node-4366039696","lat":25.0250389,"lon":121.5234422,"name":"Ooh Cha Cha自然食","decorType":"restaurant"},{"id":"node-4384257950","lat":25.0246005,"lon":121.526996,"name":"Bambi Bambi Brunch","decorType":"restaurant"},{"id":"node-4384258994","lat":25.0245745,"lon":121.528671,"name":"屈臣氏","decorType":"pharmacy"},{"id":"node-4384259023","lat":25.0244486,"lon":121.5269652,"name":"瑪丘墨式餅舖","decorType":"restaurant"},{"id":"node-4400610791","lat":25.0363842,"lon":121.5259335,"name":"未命名咖啡廳","decorType":"cafe"},{"id":"node-4400862237","lat":25.0245413,"lon":121.5292377,"name":"燈籠滷味","decorType":"restaurant"},{"id":"node-4427420460","lat":25.0242732,"lon":121.5254606,"name":"阿文牛肉麵","decorType":"restaurant"},{"id":"node-4427422114","lat":25.0244795,"lon":121.5271216,"name":"囍咖啡","decorType":"restaurant"},{"id":"node-4430883491","lat":25.0298636,"lon":121.529136,"name":"和茗甘味處","decorType":"cafe"},{"id":"node-4445027430","lat":25.0279736,"lon":121.522691,"name":"民風樂府","decorType":"ramen"},{"id":"node-4447987309","lat":25.0270149,"lon":121.5257247,"name":"7-Eleven","decorType":"convenience"},{"id":"node-4489773693","lat":25.0348071,"lon":121.5275437,"name":"小南門傻瓜乾麵","decorType":"restaurant"},{"id":"node-4524863570","lat":25.0272765,"lon":121.5226068,"name":"天仁茗茶","decorType":"cafe"},{"id":"node-4524863643","lat":25.023703,"lon":121.5344625,"name":"未命名郵局","decorType":"post_office"},{"id":"node-4524864045","lat":25.0265057,"lon":121.5231022,"name":"萊爾富","decorType":"convenience"},{"id":"node-4524864046","lat":25.0266158,"lon":121.5309129,"name":"谷墨商旅","decorType":"hotel"},{"id":"node-4545809189","lat":25.0362676,"lon":121.5247258,"name":"青島豆漿店","decorType":"restaurant"},{"id":"node-4572251390","lat":25.0297337,"lon":121.5296188,"name":"Noodles with soup","decorType":"burger"},{"id":"node-4572252790","lat":25.0298995,"lon":121.5294888,"name":"Braised pork lunchbox","decorType":"burger"},{"id":"node-4572253189","lat":25.0306982,"lon":121.5294519,"name":"Steam pau with filling","decorType":"burger"},{"id":"node-4602106491","lat":25.03319,"lon":121.5272941,"name":"蜜密牛軋餅","decorType":"bakery"},{"id":"node-4622661490","lat":25.0282591,"lon":121.5304359,"name":"手天品社區食坊","decorType":"bakery"},{"id":"node-4627640537","lat":25.0375927,"lon":121.5259144,"name":"老張牛肉麵","decorType":"restaurant"},{"id":"node-4685231693","lat":25.0343897,"lon":121.5239296,"name":"Panos","decorType":"burger"},{"id":"node-4692145490","lat":25.0351936,"lon":121.5268835,"name":"小市場","decorType":"supermarket"},{"id":"node-4727092984","lat":25.0262752,"lon":121.5232823,"name":"舒果新米蘭蔬食","decorType":"restaurant"},{"id":"node-4787216822","lat":25.034954,"lon":121.5280445,"name":"未命名餐廳","decorType":"restaurant"},{"id":"node-4787245124","lat":25.0347087,"lon":121.5289664,"name":"未命名服飾店","decorType":"clothing"},{"id":"node-4787245126","lat":25.034858,"lon":121.5280654,"name":"未命名超市","decorType":"supermarket"},{"id":"node-4787249421","lat":25.0347226,"lon":121.5289255,"name":"未命名超市","decorType":"supermarket"},{"id":"node-4787249521","lat":25.0350547,"lon":121.5279581,"name":"未命名超市","decorType":"supermarket"},{"id":"node-4794445022","lat":25.0344081,"lon":121.5277485,"name":"未命名超市","decorType":"supermarket"},{"id":"node-4794445023","lat":25.0346722,"lon":121.5279512,"name":"未命名超市","decorType":"supermarket"},{"id":"node-4794445024","lat":25.0347416,"lon":121.5278407,"name":"未命名超市","decorType":"supermarket"},{"id":"node-4794445025","lat":25.0347319,"lon":121.5279654,"name":"未命名超市","decorType":"supermarket"},{"id":"node-4796495422","lat":25.0321283,"lon":121.5295864,"name":"Air Space","decorType":"clothing"},{"id":"node-4801848623","lat":25.0343256,"lon":121.5301181,"name":"7-Eleven","decorType":"convenience"},{"id":"node-4801848624","lat":25.0345884,"lon":121.5300879,"name":"未命名超市","decorType":"supermarket"},{"id":"node-4801848625","lat":25.0345194,"lon":121.5299852,"name":"Board Rich Pharmacy Stores","decorType":"pharmacy"},{"id":"node-4809325621","lat":25.0341494,"lon":121.5237805,"name":"財團法人基督教台灣信義會","decorType":"shrine"},{"id":"node-4811002026","lat":25.0271719,"lon":121.5249983,"name":"未命名美髮院","decorType":"hair_salon"},{"id":"node-4811002027","lat":25.0270954,"lon":121.5246147,"name":"未命名美髮院","decorType":"hair_salon"},{"id":"node-4824570521","lat":25.0289371,"lon":121.5303718,"name":"Matcha One","decorType":"restaurant"},{"id":"node-4836631357","lat":25.0333662,"lon":121.5320747,"name":"寶雅","decorType":"pharmacy"},{"id":"node-4836631358","lat":25.0278332,"lon":121.5236609,"name":"地府陰公廟","decorType":"shrine"},{"id":"node-4836631379","lat":25.0234836,"lon":121.5268983,"name":"小炮洗衣店","decorType":"laundry"},{"id":"node-4836631380","lat":25.0244635,"lon":121.5282187,"name":"職人鐵板燒","decorType":"restaurant"},{"id":"node-4836631393","lat":25.0267925,"lon":121.5233782,"name":"清真銳記國際牛肉麵","decorType":"restaurant"},{"id":"node-4836631397","lat":25.031379,"lon":121.5291697,"name":"徐羅伐韓國料理","decorType":"restaurant"},{"id":"node-4836631398","lat":25.0338385,"lon":121.5313617,"name":"全國電子","decorType":"electronics"},{"id":"node-4836631399","lat":25.0338583,"lon":121.5312768,"name":"倍適得","decorType":"electronics"},{"id":"node-4836631400","lat":25.0333991,"lon":121.5315386,"name":"一之軒","decorType":"bakery"},{"id":"node-4836631401","lat":25.0333173,"lon":121.5320522,"name":"bon voyace","decorType":"clothing"},{"id":"node-4836631403","lat":25.033221,"lon":121.5297675,"name":"kila kila","decorType":"clothing"},{"id":"node-4836631404","lat":25.0333218,"lon":121.5298182,"name":"屈臣氏","decorType":"pharmacy"},{"id":"node-4837986383","lat":25.0385794,"lon":121.5248105,"name":"百花商務飯店","decorType":"hotel"},{"id":"node-4867845221","lat":25.033531,"lon":121.5234366,"name":"小南門福州傻瓜乾麵","decorType":"restaurant"},{"id":"node-4888000022","lat":25.0326521,"lon":121.5296873,"name":"天津葱抓餅","decorType":"restaurant"},{"id":"node-4911177348","lat":25.0268333,"lon":121.5290535,"name":"薩莉亞","decorType":"restaurant"},{"id":"node-4911177349","lat":25.0268,"lon":121.5293509,"name":"7-Eleven","decorType":"convenience"},{"id":"node-4911177351","lat":25.0268274,"lon":121.5291593,"name":"紀咖啡","decorType":"cafe"},{"id":"node-4913299917","lat":25.0312114,"lon":121.5302548,"name":"永康階","decorType":"cafe"},{"id":"node-4913299918","lat":25.0305625,"lon":121.5304533,"name":"烘培者咖啡","decorType":"cafe"},{"id":"node-4913299919","lat":25.0304531,"lon":121.5305874,"name":"鴉埠咖啡","decorType":"cafe"},{"id":"node-4913299920","lat":25.0300947,"lon":121.5306303,"name":"咖啡小自由","decorType":"cafe"},{"id":"node-4972407539","lat":25.0295682,"lon":121.5261769,"name":"樂學書局","decorType":"library"},{"id":"node-4972417386","lat":25.0313778,"lon":121.5294638,"name":"呂桑食堂","decorType":"restaurant"},{"id":"node-5102929624","lat":25.0313244,"lon":121.5300053,"name":"味覺の感動","decorType":"bakery"},{"id":"node-5108661222","lat":25.0260365,"lon":121.5339132,"name":"未命名郵局","decorType":"post_office"},{"id":"node-5108661226","lat":25.0265247,"lon":121.5318143,"name":"7-Eleven","decorType":"convenience"},{"id":"node-5109347753","lat":25.0242308,"lon":121.527863,"name":"小南風Cafe","decorType":"cafe"},{"id":"node-5109347761","lat":25.025093,"lon":121.5293686,"name":"大腸麵線","decorType":"restaurant"},{"id":"node-5109347762","lat":25.0247886,"lon":121.5293726,"name":"牛魔王牛排館","decorType":"restaurant"},{"id":"node-5109347765","lat":25.0250174,"lon":121.5293602,"name":"Banana Crep","decorType":"sweetshop"},{"id":"node-5109347766","lat":25.0250545,"lon":121.5294777,"name":"正宗馬來西亞咖哩雞 肉骨茶","decorType":"restaurant"},{"id":"node-5109347767","lat":25.0258199,"lon":121.5294079,"name":"In House Residential","decorType":"restaurant"},{"id":"node-5109347768","lat":25.0259463,"lon":121.5314552,"name":"初魚料亭","decorType":"restaurant"},{"id":"node-5109347769","lat":25.0259995,"lon":121.5313883,"name":"愛閱二手書坊","decorType":"library"},{"id":"node-5109347771","lat":25.0248502,"lon":121.5317804,"name":"永茂自助餐","decorType":"restaurant"},{"id":"node-5109347772","lat":25.0246114,"lon":121.5326217,"name":"未命名郵局","decorType":"post_office"},{"id":"node-5109347815","lat":25.023421,"lon":121.5321299,"name":"耶和華見證人王國聚會所舊址","decorType":"shrine"},{"id":"node-5109347817","lat":25.0251095,"lon":121.5315547,"name":"7-Eleven","decorType":"convenience"},{"id":"node-5109347818","lat":25.025314,"lon":121.5313841,"name":"老虎醬溫州大餛飩","decorType":"restaurant"},{"id":"node-5110242803","lat":25.0299841,"lon":121.5294864,"name":"九品溫州大餛飩","decorType":"restaurant"},{"id":"node-5110242804","lat":25.0300307,"lon":121.5294845,"name":"厝內咖哩特餐","decorType":"restaurant"},{"id":"node-5110242805","lat":25.0305369,"lon":121.5297336,"name":"小米酒咖啡館","decorType":"cafe"},{"id":"node-5110242806","lat":25.0304386,"lon":121.5294688,"name":"小虎咖啡","decorType":"cafe"},{"id":"node-5110242808","lat":25.0332483,"lon":121.5295214,"name":"豆豆里","decorType":"restaurant"},{"id":"node-5110245034","lat":25.0323838,"lon":121.5292013,"name":"府岸","decorType":"restaurant"},{"id":"node-5110245035","lat":25.0323656,"lon":121.5296404,"name":"鴻興餃子館","decorType":"restaurant"},{"id":"node-5110245036","lat":25.0321898,"lon":121.5295962,"name":"阿原","decorType":"pharmacy"},{"id":"node-5110245037","lat":25.0321779,"lon":121.5300319,"name":"AIR SPACE","decorType":"clothing"},{"id":"node-5110245038","lat":25.0309854,"lon":121.5300902,"name":"瑪町尼茲咖啡","decorType":"cafe"},{"id":"node-5110245039","lat":25.0317496,"lon":121.530091,"name":"8% Cafe","decorType":"cafe"},{"id":"node-5110245040","lat":25.032369,"lon":121.529334,"name":"契飯食堂","decorType":"restaurant"},{"id":"node-5110245042","lat":25.0282372,"lon":121.5222042,"name":"家園小館","decorType":"restaurant"},{"id":"node-5110245049","lat":25.0272897,"lon":121.5225216,"name":"爭鮮gogo","decorType":"restaurant"},{"id":"node-5110245051","lat":25.0266418,"lon":121.5230734,"name":"康華禮拜堂","decorType":"shrine"},{"id":"node-5110245052","lat":25.0247737,"lon":121.5242968,"name":"未命名郵局","decorType":"post_office"},{"id":"node-5110245054","lat":25.0259287,"lon":121.5229727,"name":"全家便利商店","decorType":"convenience"},{"id":"node-5110245062","lat":25.0333037,"lon":121.5290702,"name":"江浙點心","decorType":"restaurant"},{"id":"node-5110245064","lat":25.0338364,"lon":121.5314764,"name":"方舟旅店","decorType":"hotel"},{"id":"node-5110245065","lat":25.0338423,"lon":121.53143,"name":"學吧","decorType":"cafe"},{"id":"node-5110245067","lat":25.0337703,"lon":121.5341899,"name":"二馬食飲","decorType":"restaurant"},{"id":"node-5110245068","lat":25.0345339,"lon":121.5346337,"name":"元氣生活","decorType":"pharmacy"},{"id":"node-5110245071","lat":25.0340785,"lon":121.5343962,"name":"小林食堂","decorType":"restaurant"},{"id":"node-5110245072","lat":25.0339453,"lon":121.5343843,"name":"微笑藥師藥局","decorType":"pharmacy"},{"id":"node-5110245073","lat":25.0337858,"lon":121.5343316,"name":"cama café","decorType":"cafe"},{"id":"node-5110245074","lat":25.0337851,"lon":121.5343655,"name":"Subway","decorType":"burger"},{"id":"node-5110245076","lat":25.0345634,"lon":121.5332251,"name":"湛廬咖啡","decorType":"cafe"},{"id":"node-5110245077","lat":25.0272685,"lon":121.5226722,"name":"日立家電","decorType":"electronics"},{"id":"node-5132423623","lat":25.0336511,"lon":121.5270153,"name":"八方雲集","decorType":"burger"},{"id":"node-5160010421","lat":25.0333064,"lon":121.5279795,"name":"綺美髮式美容","decorType":"hair_salon"},{"id":"node-5274513723","lat":25.029468,"lon":121.526609,"name":"員林商店","decorType":"burger"},{"id":"node-5274513725","lat":25.0309558,"lon":121.529453,"name":"好公道 江浙上海點心","decorType":"restaurant"},{"id":"node-5274522821","lat":25.0246072,"lon":121.5287019,"name":"活力飯","decorType":"burger"},{"id":"node-5293433761","lat":25.0233438,"lon":121.5242544,"name":"翁師傅私房牛肉麵","decorType":"restaurant"},{"id":"node-5334987521","lat":25.0306751,"lon":121.5294518,"name":"薑心比心","decorType":"cosmetics"},{"id":"node-5334987523","lat":25.0271209,"lon":121.5331213,"name":"未命名咖啡廳","decorType":"cafe"},{"id":"node-5334987524","lat":25.0245694,"lon":121.529084,"name":"許記生煎包","decorType":"restaurant"},{"id":"node-5334987622","lat":25.0254014,"lon":121.52945,"name":"小慢","decorType":"cafe"},{"id":"node-5334987623","lat":25.0275234,"lon":121.53093,"name":"青田茶館","decorType":"cafe"},{"id":"node-5334987624","lat":25.0315954,"lon":121.53012,"name":"未命名咖啡廳","decorType":"cafe"},{"id":"node-5334987625","lat":25.0341987,"lon":121.5301512,"name":"未命名餐廳","decorType":"restaurant"},{"id":"node-5342386622","lat":25.0332625,"lon":121.5302539,"name":"老鄧","decorType":"restaurant"},{"id":"node-5342423539","lat":25.0236424,"lon":121.5224435,"name":"葉嘉美食小館","decorType":"restaurant"},{"id":"node-5534946923","lat":25.0245531,"lon":121.5291992,"name":"Sassy","decorType":"clothing"},{"id":"node-5551776121","lat":25.0263829,"lon":121.5231909,"name":"西堤牛排","decorType":"restaurant"},{"id":"node-5551857321","lat":25.0261763,"lon":121.5227978,"name":"米哥烘焙坊","decorType":"cafe"},{"id":"node-5551859421","lat":25.0260658,"lon":121.5229059,"name":"米哥烘培坊","decorType":"restaurant"},{"id":"node-5551870926","lat":25.0237687,"lon":121.5251754,"name":"小銅板牛排","decorType":"restaurant"},{"id":"node-5551876724","lat":25.0231824,"lon":121.5247335,"name":"溫丼飯·定食","decorType":"restaurant"},{"id":"node-5551885221","lat":25.0237226,"lon":121.525212,"name":"福岡日式簡餐","decorType":"restaurant"},{"id":"node-5551891023","lat":25.0231888,"lon":121.5249069,"name":"加里曼丹娘惹美食","decorType":"restaurant"},{"id":"node-5551919122","lat":25.0232526,"lon":121.5281501,"name":"vino","decorType":"restaurant"},{"id":"node-5551922165","lat":25.0337989,"lon":121.5346168,"name":"7-Eleven","decorType":"convenience"},{"id":"node-5551922328","lat":25.0237186,"lon":121.5282012,"name":"may姐","decorType":"restaurant"},{"id":"node-5551931023","lat":25.0234944,"lon":121.5292223,"name":"品客經典咖啡","decorType":"cafe"},{"id":"node-5551946521","lat":25.023652,"lon":121.5290656,"name":"麗江南洋麵食館","decorType":"restaurant"},{"id":"node-5556141252","lat":25.0372579,"lon":121.525003,"name":"吉恩日輕食","decorType":"restaurant"},{"id":"node-5678641621","lat":25.0325615,"lon":121.5300982,"name":"珍珠水果特調","decorType":"cafe"},{"id":"node-5717534177","lat":25.03037,"lon":121.5294708,"name":"德宇蔘藥行","decorType":"pharmacy"},{"id":"node-5717534182","lat":25.03009,"lon":121.5294814,"name":"豐賀大飯店","decorType":"restaurant"},{"id":"node-5717534183","lat":25.0304386,"lon":121.5295796,"name":"7-Eleven","decorType":"convenience"},{"id":"node-5717534184","lat":25.0306097,"lon":121.5294512,"name":"志明紅麵線","decorType":"restaurant"},{"id":"node-5717534186","lat":25.0302035,"lon":121.5295832,"name":"小雅男士理髮","decorType":"hair_salon"},{"id":"node-5717534187","lat":25.0300907,"lon":121.5295964,"name":"Hazza","decorType":"clothing"},{"id":"node-5717980238","lat":25.030454,"lon":121.5292914,"name":"鴉埠咖啡","decorType":"cafe"},{"id":"node-5757688853","lat":25.031969,"lon":121.5287988,"name":"思慕昔二館","decorType":"restaurant"},{"id":"node-5815865467","lat":25.03255,"lon":121.5295709,"name":"芃麥鍋皇","decorType":"restaurant"},{"id":"node-5831389760","lat":25.023487,"lon":121.5227277,"name":"自助洗衣 DIY","decorType":"laundry"},{"id":"node-5867101926","lat":25.0272282,"lon":121.5256298,"name":"Sugar Man Cafe","decorType":"cafe"},{"id":"node-5867166126","lat":25.024596,"lon":121.5222657,"name":"Coffee Run Cafe","decorType":"cafe"},{"id":"node-5883210785","lat":25.0318781,"lon":121.5295347,"name":"沁園","decorType":"restaurant"},{"id":"node-5923303485","lat":25.0307403,"lon":121.5296511,"name":"成真咖啡","decorType":"cafe"},{"id":"node-5951203876","lat":25.0355967,"lon":121.5245316,"name":"星巴克","decorType":"cafe"},{"id":"node-5951203877","lat":25.0356726,"lon":121.5245394,"name":"康是美","decorType":"pharmacy"},{"id":"node-6037206729","lat":25.023371,"lon":121.5304881,"name":"微光咖啡","decorType":"cafe"},{"id":"node-6068468713","lat":25.0252765,"lon":121.5293463,"name":"19咖啡輕食廚房","decorType":"restaurant"},{"id":"node-6068468714","lat":25.025142,"lon":121.529362,"name":"軒軒滷味","decorType":"restaurant"},{"id":"node-6068468866","lat":25.0252101,"lon":121.5293491,"name":"蛋幾ㄌㄟ","decorType":"restaurant"},{"id":"node-6068469001","lat":25.0252433,"lon":121.5293446,"name":"麻辣臭豆腐","decorType":"restaurant"},{"id":"node-6084183550","lat":25.0317065,"lon":121.5288949,"name":"I O U Cafe with love","decorType":"cafe"},{"id":"node-6140771049","lat":25.0237034,"lon":121.5270254,"name":"café à la mode","decorType":"cafe"},{"id":"node-6153674639","lat":25.0381035,"lon":121.5273258,"name":"未命名郵局","decorType":"post_office"},{"id":"node-6153674648","lat":25.0374765,"lon":121.5278274,"name":"台北市召會ㄧ會所","decorType":"shrine"},{"id":"node-6190476411","lat":25.023358,"lon":121.5311967,"name":"洋芋屋","decorType":"restaurant"},{"id":"node-6190476413","lat":25.0235493,"lon":121.531241,"name":"上鼎小館","decorType":"restaurant"},{"id":"node-6190476414","lat":25.0237034,"lon":121.5314278,"name":"鼎記燒臘","decorType":"restaurant"},{"id":"node-6190476415","lat":25.0253519,"lon":121.531516,"name":"泰順街大樹下甜品攤","decorType":"restaurant"},{"id":"node-6218758342","lat":25.0350102,"lon":121.534658,"name":"未命名郵局","decorType":"post_office"},{"id":"node-6312882489","lat":25.0334002,"lon":121.5284334,"name":"19臻味茶苑","decorType":"art_gallery"},{"id":"node-6357749103","lat":25.0242144,"lon":121.5240998,"name":"喜美男士理髮","decorType":"hair_salon"},{"id":"node-6357749104","lat":25.0242356,"lon":121.5240756,"name":"清心福全","decorType":"cafe"},{"id":"node-6357749107","lat":25.0247478,"lon":121.5223637,"name":"康是美","decorType":"pharmacy"},{"id":"node-6361856986","lat":25.0275719,"lon":121.5306225,"name":"黑潮","decorType":"cafe"},{"id":"node-6418121438","lat":25.024418,"lon":121.5246972,"name":"愛妮雅化妝品","decorType":"cosmetics"},{"id":"node-6418121450","lat":25.0250603,"lon":121.5223596,"name":"Firewood Café","decorType":"cafe"},{"id":"node-6549014564","lat":25.027883,"lon":121.5225542,"name":"福園簡餐","decorType":"restaurant"},{"id":"node-6549014567","lat":25.03019,"lon":121.5270918,"name":"三進自助餐","decorType":"restaurant"},{"id":"node-6549014568","lat":25.0301985,"lon":121.5270019,"name":"里仁","decorType":"supermarket"},{"id":"node-6553170166","lat":25.02511,"lon":121.5345208,"name":"Mamaway","decorType":"clothing"},{"id":"node-6579380103","lat":25.0236685,"lon":121.5239099,"name":"Vegluu","decorType":"burger"},{"id":"node-6579380107","lat":25.0315721,"lon":121.5297649,"name":"未命名公園","decorType":"park"},{"id":"node-6579380117","lat":25.0239049,"lon":121.5240331,"name":"Café de minuit","decorType":"cafe"},{"id":"node-6579380122","lat":25.0320158,"lon":121.5296773,"name":"未命名郵局","decorType":"post_office"},{"id":"node-6579380124","lat":25.023469,"lon":121.5241122,"name":"未命名漢堡店","decorType":"burger"},{"id":"node-6700210230","lat":25.0315395,"lon":121.5285851,"name":"清邁城泰國料理","decorType":"restaurant"},{"id":"node-6700210232","lat":25.0334205,"lon":121.5312861,"name":"永唐四面佛","decorType":"shrine"},{"id":"node-6700210233","lat":25.0339013,"lon":121.5333776,"name":"六廚川客料理","decorType":"restaurant"},{"id":"node-6715198560","lat":25.0300448,"lon":121.5267237,"name":"尚大麵食館","decorType":"restaurant"},{"id":"node-6720843991","lat":25.0231795,"lon":121.5248958,"name":"Time Point","decorType":"cafe"},{"id":"node-6723076762","lat":25.0317339,"lon":121.5272467,"name":"好菜在嘉","decorType":"restaurant"},{"id":"node-6835396513","lat":25.0343561,"lon":121.5297626,"name":"有緣","decorType":"restaurant"},{"id":"node-6853430899","lat":25.029297,"lon":121.531038,"name":"歐牛排法餐廳","decorType":"restaurant"},{"id":"node-6909123832","lat":25.0311057,"lon":121.5294461,"name":"顧氏剌繡藝術","decorType":"art_gallery"},{"id":"node-6917308800","lat":25.0244594,"lon":121.5272481,"name":"未命名餐廳","decorType":"restaurant"},{"id":"node-6924514555","lat":25.0361835,"lon":121.5273946,"name":"手工水餃","decorType":"restaurant"},{"id":"node-6924514559","lat":25.03845,"lon":121.5293519,"name":"Soleil Gallery","decorType":"art_gallery"},{"id":"node-6924514566","lat":25.0363726,"lon":121.5279444,"name":"胖老爹美式炸雞","decorType":"burger"},{"id":"node-6924514573","lat":25.0361426,"lon":121.5270414,"name":"莉園商行","decorType":"cafe"},{"id":"node-6924514576","lat":25.0376168,"lon":121.527923,"name":"臺灣福春書店","decorType":"library"},{"id":"node-6924533485","lat":25.0380353,"lon":121.5285912,"name":"名山藝術","decorType":"art_gallery"},{"id":"node-6924533494","lat":25.0350638,"lon":121.5270819,"name":"樹咖啡","decorType":"cafe"},{"id":"node-6924533496","lat":25.0385177,"lon":121.5254104,"name":"Black & White","decorType":"clothing"},{"id":"node-6924533497","lat":25.0380872,"lon":121.529235,"name":"未命名郵局","decorType":"post_office"},{"id":"node-6924533500","lat":25.0360432,"lon":121.5274112,"name":"Good Bo","decorType":"cafe"},{"id":"node-6924533508","lat":25.0362353,"lon":121.5278989,"name":"首爾炸雞","decorType":"burger"},{"id":"node-6924533509","lat":25.0359916,"lon":121.5282027,"name":"美容spa工作室","decorType":"cosmetics"},{"id":"node-6924533511","lat":25.0360963,"lon":121.5272459,"name":"The Breakfast Shop","decorType":"cafe"},{"id":"node-6924533512","lat":25.0354662,"lon":121.5281722,"name":"未命名漢堡店","decorType":"burger"},{"id":"node-6936432802","lat":25.0333744,"lon":121.5273372,"name":"著咖啡","decorType":"cafe"},{"id":"node-6936432803","lat":25.0270586,"lon":121.5253851,"name":"路易莎咖啡","decorType":"cafe"},{"id":"node-6936432806","lat":25.0350804,"lon":121.5272229,"name":"未命名漢堡店","decorType":"burger"},{"id":"node-6936432811","lat":25.035563,"lon":121.5270171,"name":"金雞母","decorType":"restaurant"},{"id":"node-6936432814","lat":25.0356264,"lon":121.5272304,"name":"小美好牛肉麵","decorType":"restaurant"},{"id":"node-6936432816","lat":25.0360655,"lon":121.527365,"name":"東門讚義麵房","decorType":"restaurant"},{"id":"node-6936432817","lat":25.0380503,"lon":121.5280595,"name":"皇膳餐廳","decorType":"restaurant"},{"id":"node-6936432818","lat":25.0276614,"lon":121.5258812,"name":"Bobonono","decorType":"sweetshop"},{"id":"node-6936432820","lat":25.0352123,"lon":121.5272448,"name":"未命名服飾店","decorType":"clothing"},{"id":"node-6984299298","lat":25.0239149,"lon":121.528936,"name":"Mela Fashion","decorType":"clothing"},{"id":"node-7014013585","lat":25.0245169,"lon":121.5293544,"name":"龍泉街寶島牛肉麵","decorType":"restaurant"},{"id":"node-7023985582","lat":25.0244331,"lon":121.5286515,"name":"Devil Case","decorType":"electronics"},{"id":"node-7023985584","lat":25.0243502,"lon":121.5286414,"name":"迷客夏","decorType":"cafe"},{"id":"node-7023988886","lat":25.0240558,"lon":121.5286284,"name":"雲鼎阿二","decorType":"restaurant"},{"id":"node-7023988888","lat":25.0238808,"lon":121.5286032,"name":"友町冰品","decorType":"restaurant"},{"id":"node-7023988894","lat":25.0265281,"lon":121.5318929,"name":"亞訊通信行","decorType":"electronics"},{"id":"node-7023988906","lat":25.0262079,"lon":121.5308026,"name":"九和畫廊","decorType":"art_gallery"},{"id":"node-7023988907","lat":25.0262055,"lon":121.5309099,"name":"新陸豐","decorType":"art_gallery"},{"id":"node-7023988912","lat":25.0261772,"lon":121.5312039,"name":"喬麗名品","decorType":"clothing"},{"id":"node-7024678202","lat":25.031234,"lon":121.5294532,"name":"50嵐","decorType":"cafe"},{"id":"node-7037337585","lat":25.0350366,"lon":121.5270223,"name":"魚バカ","decorType":"restaurant"},{"id":"node-7037337586","lat":25.035028,"lon":121.5268573,"name":"東門關東煮","decorType":"restaurant"},{"id":"node-7037337587","lat":25.0350744,"lon":121.526844,"name":"飛達香","decorType":"restaurant"},{"id":"node-7037337588","lat":25.0351337,"lon":121.5268715,"name":"東門御園坊","decorType":"restaurant"},{"id":"node-7037337589","lat":25.0352489,"lon":121.5268763,"name":"利隆餅店","decorType":"restaurant"},{"id":"node-7037337590","lat":25.0352119,"lon":121.5270754,"name":"富富の正","decorType":"restaurant"},{"id":"node-7037337591","lat":25.0350641,"lon":121.5272158,"name":"東門興記","decorType":"restaurant"},{"id":"node-7037337592","lat":25.0347222,"lon":121.5271228,"name":"東門鴨莊","decorType":"restaurant"},{"id":"node-7037337593","lat":25.0346955,"lon":121.5269531,"name":"羅媽媽米粉湯","decorType":"restaurant"},{"id":"node-7037337594","lat":25.0346345,"lon":121.5270195,"name":"東門餛飩豬腳","decorType":"restaurant"},{"id":"node-7037337595","lat":25.0345366,"lon":121.526807,"name":"東門城滷肉飯","decorType":"restaurant"},{"id":"node-7037337596","lat":25.0351011,"lon":121.5256264,"name":"郭老師","decorType":"restaurant"},{"id":"node-7037337597","lat":25.0351647,"lon":121.5254974,"name":"潮州包子","decorType":"restaurant"},{"id":"node-7037337598","lat":25.0353777,"lon":121.5251447,"name":"61-HealthAider","decorType":"restaurant"},{"id":"node-7071606829","lat":25.0349088,"lon":121.5287827,"name":"未命名公園","decorType":"park"},{"id":"node-7080016490","lat":25.0251719,"lon":121.5345282,"name":"春花微笑","decorType":"restaurant"},{"id":"node-7089441302","lat":25.0254077,"lon":121.534551,"name":"跳舞山羊咖啡","decorType":"cafe"},{"id":"node-7089441303","lat":25.025257,"lon":121.5345363,"name":"伊品園烘培坊","decorType":"bakery"},{"id":"node-7089441304","lat":25.025144,"lon":121.5345262,"name":"歐渥","decorType":"clothing"},{"id":"node-7105971475","lat":25.029741,"lon":121.5307416,"name":"未命名郵局","decorType":"post_office"},{"id":"node-7106811998","lat":25.0245595,"lon":121.5291517,"name":"艾莉兒の店","decorType":"clothing"},{"id":"node-7106812000","lat":25.0245243,"lon":121.529322,"name":"金甌滷味","decorType":"restaurant"},{"id":"node-7112817688","lat":25.0232821,"lon":121.5332221,"name":"欒樹下書房 / 咖啡廳","decorType":"cafe"},{"id":"node-7112865690","lat":25.0257831,"lon":121.5336467,"name":"TERRA 土然巧克力專門店","decorType":"sweetshop"},{"id":"node-7112871485","lat":25.0255979,"lon":121.5336369,"name":"淞美自助餐","decorType":"restaurant"},{"id":"node-7112871585","lat":25.0258056,"lon":121.5335094,"name":"鎖行","decorType":"hardware"},{"id":"node-7119108785","lat":25.0333985,"lon":121.53218,"name":"Brook's","decorType":"clothing"},{"id":"node-7175334741","lat":25.0339109,"lon":121.5344327,"name":"心耕101美食","decorType":"restaurant"},{"id":"node-7175334777","lat":25.0325739,"lon":121.5294772,"name":"誠記越南麵食館","decorType":"restaurant"},{"id":"node-7175344489","lat":25.0312673,"lon":121.5273101,"name":"CopokaPIZZA 家庭式手工窯烤披薩","decorType":"restaurant"},{"id":"node-7175344495","lat":25.0306406,"lon":121.5268255,"name":"梁社漢排骨","decorType":"restaurant"},{"id":"node-7175344511","lat":25.0337799,"lon":121.5347822,"name":"元香沙茶火鍋店","decorType":"restaurant"},{"id":"node-7175344538","lat":25.0293137,"lon":121.5266281,"name":"大師兄牛肉麵","decorType":"restaurant"},{"id":"node-7175344545","lat":25.0318786,"lon":121.5329285,"name":"阿嬤G排","decorType":"restaurant"},{"id":"node-7175344551","lat":25.0333947,"lon":121.5304461,"name":"歐萊德","decorType":"cosmetics"},{"id":"node-7175344571","lat":25.0305869,"lon":121.5271589,"name":"Muko Brunch","decorType":"restaurant"},{"id":"node-7175344614","lat":25.0283896,"lon":121.5318831,"name":"青田藝集","decorType":"restaurant"},{"id":"node-7175344621","lat":25.0263729,"lon":121.5336641,"name":"池上傳統便當","decorType":"restaurant"},{"id":"node-7175344638","lat":25.0313383,"lon":121.5273271,"name":"禾欣素食","decorType":"restaurant"},{"id":"node-7175344645","lat":25.0312531,"lon":121.5272754,"name":"犬犬家","decorType":"restaurant"},{"id":"node-7175344690","lat":25.0300684,"lon":121.526725,"name":"金華素食滷味素食麵","decorType":"restaurant"},{"id":"node-7175344696","lat":25.026766,"lon":121.534117,"name":"陳記營養早餐店","decorType":"restaurant"},{"id":"node-7175344720","lat":25.0311199,"lon":121.5269131,"name":"名辰牛肉麵","decorType":"restaurant"},{"id":"node-7175344726","lat":25.0302236,"lon":121.5268944,"name":"吃肉 EatMeat 韓式烤肉 永康店","decorType":"restaurant"},{"id":"node-7175344761","lat":25.0300158,"lon":121.5269482,"name":"全國健康素食自助餐","decorType":"restaurant"},{"id":"node-7175344766","lat":25.0266204,"lon":121.5320654,"name":"元亭海鮮麵疙瘩","decorType":"restaurant"},{"id":"node-7175344779","lat":25.0326015,"lon":121.5293741,"name":"朱記餡餅粥店","decorType":"restaurant"},{"id":"node-7175344790","lat":25.0312374,"lon":121.527349,"name":"當家小食堂","decorType":"restaurant"},{"id":"node-7282087888","lat":25.0352811,"lon":121.5276149,"name":"小美好牛肉麵","decorType":"restaurant"},{"id":"node-7594596224","lat":25.0298468,"lon":121.5293536,"name":"餃子樂","decorType":"restaurant"},{"id":"node-7695463323","lat":25.0259149,"lon":121.5340673,"name":"佰樂健","decorType":"restaurant"},{"id":"node-7695463331","lat":25.03457,"lon":121.5336384,"name":"Picker輕食館","decorType":"restaurant"},{"id":"node-7726663785","lat":25.0338424,"lon":121.5320635,"name":"鼎泰豐","decorType":"restaurant"},{"id":"node-7734563456","lat":25.0358819,"lon":121.5246154,"name":"路易莎咖啡","decorType":"cafe"},{"id":"node-7734563457","lat":25.0360676,"lon":121.5246818,"name":"龍泰創意烘焙坊","decorType":"bakery"},{"id":"node-7734563459","lat":25.0362535,"lon":121.5248562,"name":"開嗑早午餐","decorType":"restaurant"},{"id":"node-7734563460","lat":25.036361,"lon":121.5247395,"name":"龍坊上海點心店","decorType":"restaurant"},{"id":"node-7734563461","lat":25.0364175,"lon":121.5247583,"name":"長高高早餐店","decorType":"restaurant"},{"id":"node-7734563462","lat":25.0364965,"lon":121.5247852,"name":"福州乾麵店","decorType":"restaurant"},{"id":"node-7734563463","lat":25.0365591,"lon":121.5248213,"name":"美星麵食館","decorType":"restaurant"},{"id":"node-7734563464","lat":25.0370958,"lon":121.5250027,"name":"布朗雞脆皮雞排","decorType":"restaurant"},{"id":"node-7734563465","lat":25.0380344,"lon":121.5257516,"name":"樂波波咖啡","decorType":"cafe"},{"id":"node-7734563466","lat":25.0379871,"lon":121.5271209,"name":"紅爐牛排館","decorType":"restaurant"},{"id":"node-7759801702","lat":25.0246012,"lon":121.5287162,"name":"阿諾可麗餅","decorType":"restaurant"},{"id":"node-7759803934","lat":25.0246792,"lon":121.5290391,"name":"師大夜市生炒花枝羹","decorType":"restaurant"},{"id":"node-7759805786","lat":25.0246043,"lon":121.52897,"name":"許記生煎包","decorType":"restaurant"},{"id":"node-7759809491","lat":25.0246536,"lon":121.5291871,"name":"北港豆花","decorType":"restaurant"},{"id":"node-7759810794","lat":25.0246695,"lon":121.5291151,"name":"師大鹹酥雞","decorType":"restaurant"},{"id":"node-7759815667","lat":25.0246755,"lon":121.528929,"name":"老天天愛玉粉圓","decorType":"restaurant"},{"id":"node-7765178668","lat":25.0355017,"lon":121.5324871,"name":"呷尚宝","decorType":"restaurant"},{"id":"node-7765178674","lat":25.0326608,"lon":121.530682,"name":"petit doux 微兜 Café Bistro","decorType":"restaurant"},{"id":"node-7765187632","lat":25.0283509,"lon":121.5294663,"name":"旬彩四季料理","decorType":"restaurant"},{"id":"node-7765187633","lat":25.0293434,"lon":121.5239799,"name":"團圓包","decorType":"restaurant"},{"id":"node-7765187634","lat":25.0285559,"lon":121.5289613,"name":"Bea’s BISTRO 美式餐館","decorType":"restaurant"},{"id":"node-7765187656","lat":25.0283249,"lon":121.5295226,"name":"旬彩居酒屋(琲味美珈)","decorType":"restaurant"},{"id":"node-7765187672","lat":25.0284093,"lon":121.5297781,"name":"耍性子","decorType":"restaurant"},{"id":"node-7765187678","lat":25.035382,"lon":121.5330296,"name":"金瑪麗義大利麵","decorType":"restaurant"},{"id":"node-7765187713","lat":25.0285164,"lon":121.5290284,"name":"Nom Nom","decorType":"restaurant"},{"id":"node-7765187714","lat":25.0360335,"lon":121.528433,"name":"馬家燒餅","decorType":"restaurant"},{"id":"node-7765187725","lat":25.0300209,"lon":121.5311487,"name":"太來生活館","decorType":"restaurant"},{"id":"node-7765187745","lat":25.028282,"lon":121.5270503,"name":"魔法灶咖","decorType":"restaurant"},{"id":"node-7765187758","lat":25.0283804,"lon":121.5238317,"name":"林記燈籠牛肉麵","decorType":"restaurant"},{"id":"node-7765187803","lat":25.0363177,"lon":121.5302179,"name":"王者桌遊","decorType":"restaurant"},{"id":"node-7765187810","lat":25.027842,"lon":121.5304164,"name":"鐵支涮火鍋","decorType":"restaurant"},{"id":"node-7765187814","lat":25.0272421,"lon":121.5251913,"name":"九日風","decorType":"restaurant"},{"id":"node-7765187820","lat":25.030287,"lon":121.5249733,"name":"金錦町","decorType":"restaurant"},{"id":"node-7765187821","lat":25.0290828,"lon":121.5244721,"name":"老王紅燒牛肉麵","decorType":"restaurant"},{"id":"node-7765187826","lat":25.0282832,"lon":121.5299524,"name":"出爐中的小巴黎","decorType":"restaurant"},{"id":"node-7765187845","lat":25.0270664,"lon":121.5251482,"name":"老虎醬 溫州大餛飩","decorType":"restaurant"},{"id":"node-7765187853","lat":25.0355001,"lon":121.5347899,"name":"都都麵食館","decorType":"restaurant"},{"id":"node-7765187858","lat":25.0294539,"lon":121.5266204,"name":"不一樣饅頭店","decorType":"restaurant"},{"id":"node-7765187866","lat":25.028213,"lon":121.5303635,"name":"A.B HOUSE 義式私房料理","decorType":"restaurant"},{"id":"node-7765187887","lat":25.0291308,"lon":121.5242314,"name":"貳房苑","decorType":"restaurant"},{"id":"node-7765187954","lat":25.0348626,"lon":121.5285972,"name":"客家蘿蔔糕","decorType":"restaurant"},{"id":"node-7765187955","lat":25.0369611,"lon":121.5281272,"name":"下酒菜 串燒","decorType":"restaurant"},{"id":"node-7765187965","lat":25.0276315,"lon":121.5344615,"name":"ROYAL / INDONESIAN FOOD ( Halal )","decorType":"restaurant"},{"id":"node-7765187967","lat":25.0271434,"lon":121.5240852,"name":"佳味蘿蔔絲餅","decorType":"restaurant"},{"id":"node-7765187969","lat":25.0280246,"lon":121.5325236,"name":"青田七六","decorType":"restaurant"},{"id":"node-7765187990","lat":25.0361901,"lon":121.5323,"name":"微笑老蕭拉麵","decorType":"restaurant"},{"id":"node-7765188000","lat":25.0275471,"lon":121.530635,"name":"葵．豚酒館","decorType":"restaurant"},{"id":"node-7765188013","lat":25.0275137,"lon":121.5312117,"name":"和合青田","decorType":"restaurant"},{"id":"node-7765188024","lat":25.0385194,"lon":121.5286576,"name":"四平手工包子","decorType":"restaurant"},{"id":"node-7765188027","lat":25.0277722,"lon":121.524047,"name":"餵Way!","decorType":"restaurant"},{"id":"node-7765188393","lat":25.0282805,"lon":121.5298639,"name":"以馬忤斯Emmaus美味關係","decorType":"restaurant"},{"id":"node-7765188400","lat":25.028889,"lon":121.5258072,"name":"鮮堡漢堡師大店","decorType":"restaurant"},{"id":"node-7765188402","lat":25.0292055,"lon":121.5307135,"name":"Les Piccola","decorType":"restaurant"},{"id":"node-7765188405","lat":25.0288926,"lon":121.5256402,"name":"台北月見ル君想フ","decorType":"restaurant"},{"id":"node-7765188416","lat":25.0302098,"lon":121.5230568,"name":"無二會所","decorType":"restaurant"},{"id":"node-7765188419","lat":25.0288713,"lon":121.5269322,"name":"光合箱子 東門店","decorType":"restaurant"},{"id":"node-7765188440","lat":25.0270893,"lon":121.5255345,"name":"燕媽媽廚房","decorType":"restaurant"},{"id":"node-7765188466","lat":25.0274101,"lon":121.5252104,"name":"早餐達人","decorType":"restaurant"},{"id":"node-7765188483","lat":25.0287823,"lon":121.5274837,"name":"Uncle Q 創意蔬食","decorType":"restaurant"},{"id":"node-7772741776","lat":25.0384769,"lon":121.5269457,"name":"和德快餐店","decorType":"restaurant"},{"id":"node-7783377296","lat":25.034641,"lon":121.5277952,"name":"東門赤肉羹","decorType":"restaurant"},{"id":"node-7783377297","lat":25.0355658,"lon":121.5277255,"name":"利美水果","decorType":"supermarket"},{"id":"node-7800498001","lat":25.0283603,"lon":121.5292101,"name":"麥味登","decorType":"restaurant"},{"id":"node-7819959606","lat":25.026074,"lon":121.5322682,"name":"茉莉二手書店","decorType":"library"},{"id":"node-7845315802","lat":25.0244338,"lon":121.5313192,"name":"竹軒二手書店","decorType":"library"},{"id":"node-7984625783","lat":25.0337815,"lon":121.5280298,"name":"路易莎咖啡","decorType":"cafe"},{"id":"node-8012977283","lat":25.0249457,"lon":121.5231893,"name":"牛雜","decorType":"restaurant"},{"id":"node-8012977284","lat":25.0248864,"lon":121.5232566,"name":"鴉片粉圓","decorType":"restaurant"},{"id":"node-8013003385","lat":25.0250303,"lon":121.5230923,"name":"勇伯好吃土雞肉專賣店","decorType":"restaurant"},{"id":"node-8013003386","lat":25.0257166,"lon":121.522605,"name":"國都甜不辣","decorType":"restaurant"},{"id":"node-8013003387","lat":25.0248847,"lon":121.5237516,"name":"鹹粥","decorType":"restaurant"},{"id":"node-8013003388","lat":25.0247076,"lon":121.5239185,"name":"客來源素坊","decorType":"restaurant"},{"id":"node-8013003389","lat":25.0236432,"lon":121.5225387,"name":"吃吐趣","decorType":"restaurant"},{"id":"node-8013003390","lat":25.0235205,"lon":121.5226655,"name":"夯啥哇櫃","decorType":"restaurant"},{"id":"node-8013003391","lat":25.0233759,"lon":121.5229525,"name":"豪家美而美","decorType":"restaurant"},{"id":"node-8118207171","lat":25.0365606,"lon":121.522634,"name":"萊爾富","decorType":"convenience"},{"id":"node-8118207172","lat":25.0364758,"lon":121.5233334,"name":"7-Eleven","decorType":"convenience"},{"id":"node-8118207173","lat":25.034174,"lon":121.5312601,"name":"7-Eleven","decorType":"convenience"},{"id":"node-8132903118","lat":25.0344445,"lon":121.5278898,"name":"吉利豆干","decorType":"burger"},{"id":"node-8145680544","lat":25.0282736,"lon":121.5307548,"name":"五方食藏","decorType":"restaurant"},{"id":"node-8145680545","lat":25.0300557,"lon":121.5281849,"name":"游壽司","decorType":"restaurant"},{"id":"node-8145680546","lat":25.0302611,"lon":121.5282342,"name":"金華街咖哩屋","decorType":"restaurant"},{"id":"node-8145680548","lat":25.0320753,"lon":121.5292101,"name":"樂麵屋","decorType":"restaurant"},{"id":"node-8145680549","lat":25.0318919,"lon":121.529483,"name":"人从众","decorType":"restaurant"},{"id":"node-8145680550","lat":25.0332431,"lon":121.5285315,"name":"Nabiya韓式","decorType":"restaurant"},{"id":"node-8145680551","lat":25.0336465,"lon":121.5289861,"name":"齊民市集","decorType":"restaurant"},{"id":"node-8327954256","lat":25.0348282,"lon":121.5251163,"name":"恬野書","decorType":"library"},{"id":"node-8378684481","lat":25.030979,"lon":121.5289025,"name":"希臘左巴","decorType":"restaurant"},{"id":"node-8432380477","lat":25.0317688,"lon":121.5252871,"name":"愛國金山路口","decorType":"bus_stop"},{"id":"node-8467317966","lat":25.0319128,"lon":121.5294163,"name":"龍涎居","decorType":"restaurant"},{"id":"node-8467317972","lat":25.0315842,"lon":121.5294723,"name":"Coco","decorType":"cafe"},{"id":"node-8467317973","lat":25.0314914,"lon":121.5294678,"name":"viga wang","decorType":"clothing"},{"id":"node-8467317978","lat":25.0332624,"lon":121.529771,"name":"HPW Time","decorType":"clothing"},{"id":"node-8467317979","lat":25.0332479,"lon":121.5297687,"name":"The Ladywore","decorType":"clothing"},{"id":"node-8467317980","lat":25.0332381,"lon":121.5296486,"name":"小原田日本料理","decorType":"restaurant"},{"id":"node-8467317982","lat":25.0329968,"lon":121.5297477,"name":"Kirna","decorType":"clothing"},{"id":"node-8467317983","lat":25.0329685,"lon":121.5297361,"name":"Clark","decorType":"clothing"},{"id":"node-8467318003","lat":25.0320316,"lon":121.5295507,"name":"天仁茗茶","decorType":"cafe"},{"id":"node-8476141606","lat":25.0307259,"lon":121.5300029,"name":"羊毛與花 ‧ 永康","decorType":"cafe"},{"id":"node-8476141607","lat":25.0307242,"lon":121.5301257,"name":"草原風蒙古火鍋","decorType":"restaurant"},{"id":"node-8524769282","lat":25.0331585,"lon":121.5292219,"name":"7-Eleven","decorType":"convenience"},{"id":"node-8524769285","lat":25.0333322,"lon":121.5292413,"name":"Saibaba Ethnique","decorType":"clothing"},{"id":"node-8524769292","lat":25.0327059,"lon":121.5297239,"name":"誠記越南麵食館","decorType":"restaurant"},{"id":"node-8524769294","lat":25.033807,"lon":121.5274653,"name":"全家便利商店","decorType":"convenience"},{"id":"node-8524769296","lat":25.0336451,"lon":121.5273879,"name":"北平西來順","decorType":"restaurant"},{"id":"node-8524769297","lat":25.0336232,"lon":121.5273816,"name":"能量小姐","decorType":"restaurant"},{"id":"node-8524769301","lat":25.0359162,"lon":121.5246608,"name":"小地方","decorType":"cafe"},{"id":"node-8524769302","lat":25.0359436,"lon":121.5246224,"name":"全家便利商店","decorType":"convenience"},{"id":"node-8732974903","lat":25.0258816,"lon":121.5223782,"name":"蘋果203","decorType":"restaurant"},{"id":"node-8749058835","lat":25.0261551,"lon":121.5233978,"name":"蒐機王","decorType":"electronics"},{"id":"node-9000354674","lat":25.027507,"lon":121.5224,"name":"和牛涮","decorType":"restaurant"},{"id":"node-9002022588","lat":25.0267823,"lon":121.5226744,"name":"捷運古亭站(羅斯福)","decorType":"bus_stop"},{"id":"node-9049638493","lat":25.0251967,"lon":121.5240928,"name":"黑沃咖啡","decorType":"cafe"},{"id":"node-9550871037","lat":25.0267894,"lon":121.5294175,"name":"三商巧福","decorType":"restaurant"},{"id":"node-9550879014","lat":25.0267863,"lon":121.5294423,"name":"福勝亭","decorType":"restaurant"},{"id":"node-9550892943","lat":25.0268206,"lon":121.5291964,"name":"星巴克","decorType":"cafe"},{"id":"node-9599444388","lat":25.0238035,"lon":121.533787,"name":"恬園餐廳","decorType":"restaurant"},{"id":"node-9681818521","lat":25.0291543,"lon":121.5296113,"name":"一票人票畫空間","decorType":"art_gallery"},{"id":"node-9681818522","lat":25.0289441,"lon":121.5300726,"name":"安德昇藝術拍賣","decorType":"art_gallery"},{"id":"node-9681818523","lat":25.0289776,"lon":121.5301548,"name":"GEORGE HOUSE 世界精品咖啡專賣","decorType":"cafe"},{"id":"node-9717369813","lat":25.0257203,"lon":121.5334956,"name":"蝦皮店到店","decorType":"convenience"},{"id":"node-9756938130","lat":25.0267366,"lon":121.524375,"name":"千藝畫廊","decorType":"art_gallery"},{"id":"node-9756938132","lat":25.0267379,"lon":121.524294,"name":"龍瑞宣紙","decorType":"art_gallery"},{"id":"node-9756938133","lat":25.0267379,"lon":121.5242542,"name":"長春堂蔘藥行","decorType":"pharmacy"},{"id":"node-9756938134","lat":25.026772,"lon":121.5239581,"name":"文逸軒畫苑","decorType":"art_gallery"},{"id":"node-9756938135","lat":25.0270896,"lon":121.5247682,"name":"文明軒畫廊","decorType":"art_gallery"},{"id":"node-9756938136","lat":25.0270947,"lon":121.5247324,"name":"嘉仁藥房","decorType":"pharmacy"},{"id":"node-9965180057","lat":25.0273917,"lon":121.5224941,"name":"金石堂書店","decorType":"library"},{"id":"node-9965180058","lat":25.0276534,"lon":121.5223087,"name":"房角石教會","decorType":"shrine"},{"id":"node-10095009370","lat":25.025572,"lon":121.5334173,"name":"活菌豬","decorType":"restaurant"},{"id":"node-10106184284","lat":25.0273071,"lon":121.5221983,"name":"捷運古亭站(羅斯福)","decorType":"bus_stop"},{"id":"node-10106184285","lat":25.0273154,"lon":121.5222167,"name":"捷運古亭站(羅斯福)","decorType":"bus_stop"},{"id":"node-10569226120","lat":25.0303076,"lon":121.52638,"name":"Simple Kaffa","decorType":"cafe"},{"id":"node-10773009428","lat":25.0239284,"lon":121.5288037,"name":"NENE CHICKEN","decorType":"restaurant"},{"id":"node-10773009429","lat":25.0239278,"lon":121.5288387,"name":"雞肉飯專賣店","decorType":"restaurant"},{"id":"node-10773009430","lat":25.0239215,"lon":121.5288977,"name":"WAVE SHARE","decorType":"clothing"},{"id":"node-10773009431","lat":25.024013,"lon":121.5287442,"name":"TEMA 服飾","decorType":"clothing"},{"id":"node-10773009432","lat":25.0240231,"lon":121.5288498,"name":"M&D 服飾","decorType":"clothing"},{"id":"node-10775195521","lat":25.0239045,"lon":121.5244659,"name":"百八魚場","decorType":"restaurant"},{"id":"node-10775195522","lat":25.0239501,"lon":121.5244049,"name":"聚日本鍋物","decorType":"restaurant"},{"id":"node-10775195527","lat":25.0240017,"lon":121.5243579,"name":"7-Eleven","decorType":"convenience"},{"id":"node-10873367252","lat":25.0242616,"lon":121.5248041,"name":"精西卡精品","decorType":"clothing"},{"id":"node-10970149156","lat":25.0239744,"lon":121.5250125,"name":"未命名麵包店","decorType":"bakery"},{"id":"node-11034268576","lat":25.0267721,"lon":121.5236309,"name":"越南美食","decorType":"restaurant"},{"id":"node-11271702532","lat":25.025665,"lon":121.5237476,"name":"路易莎咖啡","decorType":"cafe"},{"id":"node-11294014326","lat":25.0338108,"lon":121.5277278,"name":"Two Shots","decorType":"cafe"},{"id":"node-11294029207","lat":25.0337761,"lon":121.527701,"name":"Dongmen 3","decorType":"hotel"},{"id":"node-11294039990","lat":25.0334106,"lon":121.5305855,"name":"Dreamers","decorType":"cafe"},{"id":"node-11294041163","lat":25.0337969,"lon":121.527672,"name":"Peter Better","decorType":"cafe"},{"id":"node-11387164678","lat":25.0333089,"lon":121.5350895,"name":"未命名車站","decorType":"station"},{"id":"node-11629425601","lat":25.0355985,"lon":121.5329989,"name":"陶陶居","decorType":"restaurant"},{"id":"node-11629425602","lat":25.0355092,"lon":121.5330076,"name":"泰味閣","decorType":"restaurant"},{"id":"node-11870972560","lat":25.0234233,"lon":121.5292852,"name":"初憶豆花","decorType":"restaurant"},{"id":"node-11870972561","lat":25.030317,"lon":121.5312539,"name":"月半咖啡","decorType":"cafe"},{"id":"node-11911395342","lat":25.0337205,"lon":121.5282103,"name":"健康製作所","decorType":"restaurant"},{"id":"node-11964074796","lat":25.0330731,"lon":121.5324688,"name":"全聯福利中心","decorType":"supermarket"},{"id":"node-12030508379","lat":25.0277387,"lon":121.5313851,"name":"蒙藏文化中心","decorType":"art_gallery"},{"id":"node-12060449339","lat":25.0275833,"lon":121.5223335,"name":"唐緹","decorType":"sweetshop"},{"id":"node-12070112060","lat":25.0267292,"lon":121.5299827,"name":"Subway","decorType":"burger"},{"id":"node-12070739255","lat":25.0255767,"lon":121.528254,"name":"太醫藥局","decorType":"pharmacy"},{"id":"node-12070739256","lat":25.0256272,"lon":121.5285469,"name":"cama café","decorType":"cafe"},{"id":"node-12088965190","lat":25.0235491,"lon":121.5252893,"name":"Pizza rock","decorType":"restaurant"},{"id":"node-12088965192","lat":25.0272226,"lon":121.5231194,"name":"凱樂烘焙坊","decorType":"bakery"},{"id":"node-12176262524","lat":25.0318334,"lon":121.5327031,"name":"聲色","decorType":"cafe"},{"id":"node-12438377365","lat":25.026039,"lon":121.5225162,"name":"明洞食堂","decorType":"restaurant"},{"id":"node-12441137721","lat":25.0363262,"lon":121.5247262,"name":"麥迪兒","decorType":"restaurant"},{"id":"node-12441137731","lat":25.0377733,"lon":121.5252066,"name":"The Platypus Café","decorType":"cafe"},{"id":"node-12466521473","lat":25.0336465,"lon":121.526683,"name":"伊是曼寧","decorType":"cafe"},{"id":"node-12466521475","lat":25.0338355,"lon":121.5263967,"name":"瑞麟美而美","decorType":"burger"},{"id":"node-12466735856","lat":25.023222,"lon":121.525063,"name":"米澤製麵","decorType":"restaurant"},{"id":"node-12473132250","lat":25.0362073,"lon":121.5231627,"name":"未命名郵局","decorType":"post_office"},{"id":"node-12473162720","lat":25.0375312,"lon":121.524877,"name":"未命名郵局","decorType":"post_office"},{"id":"node-12541886676","lat":25.0302393,"lon":121.5223141,"name":"泰和樓","decorType":"restaurant"},{"id":"node-12545885501","lat":25.0259798,"lon":121.5234911,"name":"芝生食堂 台北古亭店","decorType":"restaurant"},{"id":"node-12748026349","lat":25.0250968,"lon":121.5234742,"name":"勉強中 日式海鮮手作料理","decorType":"restaurant"},{"id":"node-12765045705","lat":25.0243798,"lon":121.5281676,"name":"未命名圖書館／書店","decorType":"library"},{"id":"node-12765045706","lat":25.0244642,"lon":121.5281272,"name":"東大門韓國特色料理","decorType":"restaurant"},{"id":"node-12765045707","lat":25.0243809,"lon":121.527925,"name":"印度風情料理店","decorType":"restaurant"},{"id":"node-12765738843","lat":25.0245225,"lon":121.5282337,"name":"咖哩戰線","decorType":"restaurant"},{"id":"node-12765774339","lat":25.0245144,"lon":121.528232,"name":"丼口飯食","decorType":"restaurant"},{"id":"node-12765774340","lat":25.0245563,"lon":121.5272814,"name":"銀兔湯咖哩","decorType":"restaurant"},{"id":"node-12894669424","lat":25.027265,"lon":121.5227377,"name":"摩斯漢堡","decorType":"burger"},{"id":"node-12894669425","lat":25.0272649,"lon":121.5227763,"name":"Oh My Girl","decorType":"clothing"},{"id":"node-12894669426","lat":25.0272172,"lon":121.5232906,"name":"九怡堂畫廊","decorType":"art_gallery"},{"id":"node-12894669427","lat":25.027223,"lon":121.5232051,"name":"先喝道","decorType":"cafe"},{"id":"node-12894669428","lat":25.0272336,"lon":121.523075,"name":"友生昌筆墨專家","decorType":"art_gallery"},{"id":"node-12894669429","lat":25.0272431,"lon":121.5229694,"name":"德正","decorType":"cafe"},{"id":"node-12894669430","lat":25.0272497,"lon":121.5229298,"name":"十盛","decorType":"cafe"},{"id":"node-12894669431","lat":25.0272516,"lon":121.5228946,"name":"bread n Butter outlet","decorType":"clothing"},{"id":"node-12894669437","lat":25.0267554,"lon":121.5233569,"name":"宏臨美而美","decorType":"burger"},{"id":"node-12894669439","lat":25.0268344,"lon":121.5232601,"name":"國泰棉紙","decorType":"art_gallery"},{"id":"node-12894669441","lat":25.0268709,"lon":121.5234817,"name":"未命名郵局","decorType":"post_office"},{"id":"node-12894669442","lat":25.0267849,"lon":121.5235206,"name":"雪球咖啡","decorType":"cafe"},{"id":"node-12894669447","lat":25.0272212,"lon":121.5233241,"name":"Mo-Bo","decorType":"clothing"},{"id":"node-12894669449","lat":25.0267691,"lon":121.5240238,"name":"溫莉美顏生活館","decorType":"art_gallery"},{"id":"node-13079901567","lat":25.0249083,"lon":121.5222722,"name":"戰鬥雞","decorType":"restaurant"},{"id":"node-13121398530","lat":25.024739,"lon":121.5273214,"name":"就諦書屋","decorType":"library"},{"id":"node-13161173141","lat":25.0278999,"lon":121.5306182,"name":"咖啡黑潮","decorType":"cafe"},{"id":"node-13175236301","lat":25.0300021,"lon":121.5283703,"name":"Out Of Office Coffee Roastery","decorType":"cafe"},{"id":"node-13337714413","lat":25.0304958,"lon":121.5275465,"name":"AKA Hotel","decorType":"hotel"},{"id":"node-13337714414","lat":25.0301602,"lon":121.5278014,"name":"全家便利商店","decorType":"convenience"},{"id":"node-13337714415","lat":25.0305225,"lon":121.5278875,"name":"Sui","decorType":"restaurant"},{"id":"node-13413775729","lat":25.0341686,"lon":121.5255859,"name":"萊爾富","decorType":"convenience"},{"id":"node-13428008801","lat":25.0306594,"lon":121.5248509,"name":"Check-in café","decorType":"cafe"},{"id":"way-55259184","lat":25.0317664,"lon":121.5298045,"name":"永康公園","decorType":"park"},{"id":"way-105822432","lat":25.0315066,"lon":121.5347871,"name":"未命名森林","decorType":"forest"},{"id":"way-106335658","lat":25.0280093,"lon":121.5279808,"name":"錦安公園","decorType":"park"},{"id":"way-138840350","lat":25.0296453,"lon":121.5311786,"name":"金華公園","decorType":"park"},{"id":"way-138996582","lat":25.0310258,"lon":121.5284702,"name":"淡江大學城區部","decorType":"university"},{"id":"way-171301286","lat":25.0373445,"lon":121.5235911,"name":"綜合活動中心","decorType":"stadium"},{"id":"way-197909811","lat":25.0295923,"lon":121.5295917,"name":"錦華綠地","decorType":"park"},{"id":"way-202251421","lat":25.0251492,"lon":121.526274,"name":"游泳館","decorType":"university"},{"id":"way-202262785","lat":25.0249707,"lon":121.5270373,"name":"勤大樓","decorType":"university"},{"id":"way-202262786","lat":25.0252272,"lon":121.5270388,"name":"樸大樓","decorType":"university"},{"id":"way-202262787","lat":25.0256903,"lon":121.5280765,"name":"文薈廳","decorType":"university"},{"id":"way-202262793","lat":25.0256538,"lon":121.5274649,"name":"普通大樓","decorType":"university"},{"id":"way-202262794","lat":25.0261038,"lon":121.5281877,"name":"樂智樓","decorType":"university"},{"id":"way-202262796","lat":25.0263002,"lon":121.5267778,"name":"禮堂","decorType":"university"},{"id":"way-202262800","lat":25.025414,"lon":121.5281827,"name":"樂群樓","decorType":"university"},{"id":"way-206087135","lat":25.0258704,"lon":121.5272228,"name":"未命名森林","decorType":"forest"},{"id":"way-206087138","lat":25.0258152,"lon":121.5277972,"name":"維也納森林","decorType":"forest"},{"id":"way-206087139","lat":25.0263467,"lon":121.527233,"name":"未命名森林","decorType":"forest"},{"id":"way-206087143","lat":25.025173,"lon":121.5278401,"name":"正大樓","decorType":"university"},{"id":"way-206087144","lat":25.0249208,"lon":121.5278324,"name":"誠大樓","decorType":"university"},{"id":"way-232563663","lat":25.0383477,"lon":121.5226316,"name":"台北好好看系列二","decorType":"park"},{"id":"way-232564424","lat":25.0380323,"lon":121.5222575,"name":"未命名神社","decorType":"shrine"},{"id":"way-238572687","lat":25.0237201,"lon":121.5338781,"name":"福華文教會館","decorType":"hotel"},{"id":"way-249164428","lat":25.0262401,"lon":121.5275515,"name":"水平方","decorType":"waterside"},{"id":"way-261638492","lat":25.0352599,"lon":121.5317932,"name":"連雲公園","decorType":"park"},{"id":"way-271054036","lat":25.0351524,"lon":121.53506,"name":"民榮公園","decorType":"park"},{"id":"way-304599944","lat":25.0246252,"lon":121.5316428,"name":"泰順公園","decorType":"park"},{"id":"way-306235115","lat":25.03778,"lon":121.533524,"name":"松哖酒店","decorType":"hotel"},{"id":"way-306275224","lat":25.0356975,"lon":121.5314879,"name":"未命名公園","decorType":"park"},{"id":"way-309515231","lat":25.0257719,"lon":121.5350222,"name":"未命名橋樑","decorType":"bridge"},{"id":"way-312673212","lat":25.0238165,"lon":121.5278765,"name":"梁實秋故居","decorType":"art_gallery"},{"id":"way-324041282","lat":25.034467,"lon":121.5277506,"name":"東門旅店","decorType":"hotel"},{"id":"way-345683923","lat":25.0320252,"lon":121.5327769,"name":"基督復臨安息日會台北教會","decorType":"shrine"},{"id":"way-353678877","lat":25.0264651,"lon":121.5226355,"name":"古亭地府陰公廟","decorType":"shrine"},{"id":"way-358494667","lat":25.0313071,"lon":121.5278265,"name":"台灣台北聖殿","decorType":"shrine"},{"id":"way-358649612","lat":25.0289004,"lon":121.5336066,"name":"天主教聖家堂","decorType":"shrine"},{"id":"way-358649616","lat":25.0311674,"lon":121.5285068,"name":"未命名大學&學院","decorType":"university"},{"id":"way-358649618","lat":25.0308509,"lon":121.5284484,"name":"未命名大學&學院","decorType":"university"},{"id":"way-360117687","lat":25.0246258,"lon":121.5342481,"name":"紫藤廬","decorType":"restaurant"},{"id":"way-360364153","lat":25.0349384,"lon":121.5287674,"name":"信愛公園","decorType":"park"},{"id":"way-360834287","lat":25.0364518,"lon":121.5275415,"name":"星辰大飯店","decorType":"hotel"},{"id":"way-361124409","lat":25.028852,"lon":121.5233892,"name":"未命名公園","decorType":"park"},{"id":"way-361124412","lat":25.0286657,"lon":121.5253389,"name":"泰安宮","decorType":"shrine"},{"id":"way-364730022","lat":25.0291719,"lon":121.5236429,"name":"圓通學苑","decorType":"shrine"},{"id":"way-377573368","lat":25.0268482,"lon":121.5307559,"name":"台北市教會第三聚會所","decorType":"shrine"},{"id":"way-378143703","lat":25.0372556,"lon":121.528287,"name":"金來商旅","decorType":"hotel"},{"id":"way-389641570","lat":25.0268487,"lon":121.5287053,"name":"警衛室","decorType":"university"},{"id":"way-419000217","lat":25.0267141,"lon":121.5311499,"name":"臺北青田郵局","decorType":"post_office"},{"id":"way-425265877","lat":25.0386619,"lon":121.5250348,"name":"未命名公園","decorType":"park"},{"id":"way-456394945","lat":25.0338947,"lon":121.534658,"name":"丹迪旅店","decorType":"hotel"},{"id":"way-494806129","lat":25.0338637,"lon":121.5337567,"name":"麗都飯店","decorType":"hotel"},{"id":"way-502776623","lat":25.0250844,"lon":121.5287462,"name":"管理學院","decorType":"university"},{"id":"way-546630856","lat":25.0274083,"lon":121.5332059,"name":"和平長老教會","decorType":"shrine"},{"id":"way-558025310","lat":25.0341248,"lon":121.5330766,"name":"高記上海料理","decorType":"restaurant"},{"id":"way-588985660","lat":25.0311266,"lon":121.5272334,"name":"耶穌基督後期聖徒教會副殿","decorType":"shrine"},{"id":"way-591021419","lat":25.026255,"lon":121.5266017,"name":"未命名大學&學院","decorType":"university"},{"id":"way-591021425","lat":25.025032,"lon":121.5280732,"name":"未命名大學&學院","decorType":"university"},{"id":"way-591021426","lat":25.0250405,"lon":121.5278967,"name":"誠正中庭","decorType":"university"},{"id":"way-591021427","lat":25.0250686,"lon":121.5275209,"name":"未命名大學&學院","decorType":"university"},{"id":"way-591021428","lat":25.0250747,"lon":121.5273872,"name":"勤樸中庭","decorType":"university"},{"id":"way-591021432","lat":25.0250989,"lon":121.5269782,"name":"未命名大學&學院","decorType":"university"},{"id":"way-591021433","lat":25.0251137,"lon":121.5267853,"name":"未命名大學&學院","decorType":"university"},{"id":"way-591194141","lat":25.026088,"lon":121.5278339,"name":"未命名森林","decorType":"forest"},{"id":"way-591194142","lat":25.0261363,"lon":121.5272286,"name":"未命名森林","decorType":"forest"},{"id":"way-591330759","lat":25.0366853,"lon":121.52507,"name":"救恩堂","decorType":"shrine"},{"id":"way-592056953","lat":25.0264484,"lon":121.5272,"name":"未命名森林","decorType":"forest"},{"id":"way-592116795","lat":25.0254204,"lon":121.5277166,"name":"未命名森林","decorType":"forest"},{"id":"way-592116796","lat":25.0254643,"lon":121.527196,"name":"未命名森林","decorType":"forest"},{"id":"way-592116797","lat":25.025532,"lon":121.5263863,"name":"未命名森林","decorType":"forest"},{"id":"way-592116804","lat":25.0262291,"lon":121.5275447,"name":"未命名公園","decorType":"park"},{"id":"way-592159163","lat":25.023946,"lon":121.528735,"name":"基督教迦南會大專團契","decorType":"shrine"},{"id":"way-592159235","lat":25.024023,"lon":121.5288695,"name":"麻辣天后","decorType":"restaurant"},{"id":"way-592227591","lat":25.0273501,"lon":121.5293501,"name":"羅馬廣場","decorType":"park"},{"id":"way-592227595","lat":25.0273156,"lon":121.5295328,"name":"未命名公園","decorType":"park"},{"id":"way-592227609","lat":25.0273807,"lon":121.5291649,"name":"未命名大學&學院","decorType":"university"},{"id":"way-592227625","lat":25.0273699,"lon":121.5292182,"name":"未命名大學&學院","decorType":"university"},{"id":"way-592227626","lat":25.0273721,"lon":121.5292374,"name":"未命名大學&學院","decorType":"university"},{"id":"way-592227627","lat":25.0273263,"lon":121.529514,"name":"未命名大學&學院","decorType":"university"},{"id":"way-592227628","lat":25.0273296,"lon":121.5294957,"name":"未命名大學&學院","decorType":"university"},{"id":"way-597403675","lat":25.0245149,"lon":121.5240339,"name":"未命名公園","decorType":"park"},{"id":"way-602111056","lat":25.0270157,"lon":121.528424,"name":"師大圖書館","decorType":"university"},{"id":"way-602127543","lat":25.0277437,"lon":121.5294381,"name":"教育學院大樓","decorType":"university"},{"id":"way-602127552","lat":25.0274758,"lon":121.5285242,"name":"博愛大樓","decorType":"university"},{"id":"way-602157709","lat":25.0271698,"lon":121.5298479,"name":"未命名大學&學院","decorType":"university"},{"id":"way-602157711","lat":25.0269466,"lon":121.5299995,"name":"機械工程大樓","decorType":"university"},{"id":"way-602157712","lat":25.0271037,"lon":121.5298575,"name":"未命名大學&學院","decorType":"university"},{"id":"way-602157713","lat":25.0267296,"lon":121.5301209,"name":"產學館","decorType":"university"},{"id":"way-602157714","lat":25.026889,"lon":121.5292813,"name":"綜合大樓","decorType":"university"},{"id":"way-602157715","lat":25.0278764,"lon":121.5285964,"name":"進修推廣學院大樓","decorType":"university"},{"id":"way-602357844","lat":25.0264216,"lon":121.5276694,"name":"警衛室","decorType":"university"},{"id":"way-602357845","lat":25.0264339,"lon":121.527464,"name":"警衛室","decorType":"university"},{"id":"way-602798032","lat":25.0263685,"lon":121.5264092,"name":"音樂系館","decorType":"university"},{"id":"way-602798035","lat":25.0258652,"lon":121.5265635,"name":"體育館","decorType":"university"},{"id":"way-602798036","lat":25.0256615,"lon":121.5282446,"name":"健康中心","decorType":"university"},{"id":"way-603654535","lat":25.0251677,"lon":121.5227553,"name":"十普寺","decorType":"shrine"},{"id":"way-603672919","lat":25.0238884,"lon":121.5270862,"name":"雲和街教學大樓","decorType":"university"},{"id":"way-604255409","lat":25.0248492,"lon":121.5289816,"name":"音樂學院","decorType":"university"},{"id":"way-604255410","lat":25.026275,"lon":121.5289202,"name":"美術系館","decorType":"university"},{"id":"way-613085036","lat":25.0284918,"lon":121.532151,"name":"國立臺灣師範大學設計學系","decorType":"university"},{"id":"way-613222934","lat":25.0277618,"lon":121.5300903,"name":"師大美術館","decorType":"university"},{"id":"way-647957749","lat":25.0297331,"lon":121.5222883,"name":"樂埔町Leputing","decorType":"restaurant"},{"id":"way-647957756","lat":25.0292242,"lon":121.5227131,"name":"大樹先生的家","decorType":"restaurant"},{"id":"way-663117278","lat":25.0378634,"lon":121.5302303,"name":"台北東門長老教會","decorType":"shrine"},{"id":"way-1038743831","lat":25.0338748,"lon":121.5289232,"name":"未命名公車站","decorType":"bus_stop"},{"id":"way-1042904091","lat":25.0279099,"lon":121.524822,"name":"台電勵進餐廳","decorType":"restaurant"},{"id":"way-1052759741","lat":25.0344323,"lon":121.5222251,"name":"未命名公園","decorType":"park"},{"id":"way-1053396971","lat":25.0357817,"lon":121.5224951,"name":"未命名公園","decorType":"park"},{"id":"way-1053396972","lat":25.0355322,"lon":121.5223503,"name":"未命名公園","decorType":"park"},{"id":"way-1054531301","lat":25.0263917,"lon":121.5229541,"name":"未命名公車站","decorType":"bus_stop"},{"id":"way-1058241554","lat":25.0335812,"lon":121.5321404,"name":"未命名公車站","decorType":"bus_stop"},{"id":"way-1058241557","lat":25.0340553,"lon":121.5277623,"name":"未命名公車站","decorType":"bus_stop"},{"id":"way-1058241558","lat":25.0342071,"lon":121.5267994,"name":"未命名公車站","decorType":"bus_stop"},{"id":"way-1058245569","lat":25.0338737,"lon":121.5289224,"name":"未命名公車站","decorType":"bus_stop"},{"id":"way-1059547193","lat":25.038118,"lon":121.5322603,"name":"未命名公車站","decorType":"bus_stop"},{"id":"way-1060223606","lat":25.0382697,"lon":121.5332785,"name":"未命名公車站","decorType":"bus_stop"},{"id":"way-1068183468","lat":25.0257531,"lon":121.5350253,"name":"未命名橋樑","decorType":"bridge"},{"id":"way-1068183483","lat":25.0265096,"lon":121.5347858,"name":"未命名公車站","decorType":"bus_stop"},{"id":"way-1068234510","lat":25.0386663,"lon":121.5326896,"name":"未命名公車站","decorType":"bus_stop"},{"id":"way-1068234513","lat":25.0377138,"lon":121.5328877,"name":"未命名公車站","decorType":"bus_stop"},{"id":"way-1068394674","lat":25.0385386,"lon":121.5278249,"name":"未命名公園","decorType":"park"},{"id":"way-1133615650","lat":25.0331818,"lon":121.5348963,"name":"未命名橋樑","decorType":"bridge"},{"id":"way-1227276302","lat":25.0299502,"lon":121.5345387,"name":"未命名森林","decorType":"forest"},{"id":"way-1227276304","lat":25.0294713,"lon":121.5350335,"name":"未命名森林","decorType":"forest"},{"id":"way-1227276315","lat":25.0283329,"lon":121.5350622,"name":"未命名森林","decorType":"forest"},{"id":"way-1227276316","lat":25.0283028,"lon":121.5349945,"name":"未命名森林","decorType":"forest"},{"id":"way-1227276319","lat":25.0283477,"lon":121.5351449,"name":"未命名森林","decorType":"forest"},{"id":"way-1227277928","lat":25.0299243,"lon":121.5342893,"name":"未命名森林","decorType":"forest"},{"id":"way-1227277929","lat":25.0275801,"lon":121.5349672,"name":"未命名森林","decorType":"forest"},{"id":"way-1227279099","lat":25.032392,"lon":121.5340384,"name":"未命名森林","decorType":"forest"},{"id":"way-1227279100","lat":25.0319887,"lon":121.533882,"name":"未命名森林","decorType":"forest"},{"id":"way-1227279101","lat":25.0317813,"lon":121.5337707,"name":"未命名森林","decorType":"forest"},{"id":"way-1227279103","lat":25.0321487,"lon":121.5334995,"name":"未命名森林","decorType":"forest"},{"id":"way-1227282074","lat":25.0303774,"lon":121.5351442,"name":"未命名森林","decorType":"forest"},{"id":"way-1227282079","lat":25.0302526,"lon":121.534813,"name":"未命名森林","decorType":"forest"},{"id":"way-1227282080","lat":25.0306916,"lon":121.5344907,"name":"未命名森林","decorType":"forest"},{"id":"way-1227282082","lat":25.030398,"lon":121.5344446,"name":"未命名森林","decorType":"forest"},{"id":"way-1227287034","lat":25.0307111,"lon":121.5351357,"name":"未命名森林","decorType":"forest"},{"id":"way-1227287037","lat":25.0305777,"lon":121.5350982,"name":"未命名森林","decorType":"forest"},{"id":"way-1227287038","lat":25.0308369,"lon":121.5345978,"name":"未命名森林","decorType":"forest"},{"id":"way-1227515450","lat":25.0317553,"lon":121.534108,"name":"未命名森林","decorType":"forest"},{"id":"way-1227515452","lat":25.0325542,"lon":121.5349473,"name":"未命名公園","decorType":"park"},{"id":"way-1227515453","lat":25.0322468,"lon":121.5344362,"name":"未命名公園","decorType":"park"},{"id":"way-1227515455","lat":25.0321124,"lon":121.534508,"name":"未命名森林","decorType":"forest"},{"id":"way-1227515456","lat":25.0319457,"lon":121.5348469,"name":"未命名森林","decorType":"forest"},{"id":"way-1227515457","lat":25.0322536,"lon":121.5348853,"name":"未命名森林","decorType":"forest"},{"id":"way-1227515459","lat":25.0326488,"lon":121.5344301,"name":"未命名森林","decorType":"forest"},{"id":"way-1227517110","lat":25.031265,"lon":121.534184,"name":"未命名森林","decorType":"forest"},{"id":"way-1227517111","lat":25.0314473,"lon":121.5340676,"name":"未命名森林","decorType":"forest"},{"id":"way-1227518216","lat":25.0328156,"lon":121.5335927,"name":"未命名森林","decorType":"forest"},{"id":"way-1227518219","lat":25.0310575,"lon":121.53438,"name":"未命名公園","decorType":"park"},{"id":"way-1227518220","lat":25.0310652,"lon":121.5344571,"name":"未命名公園","decorType":"park"},{"id":"way-1227518224","lat":25.0310069,"lon":121.5346512,"name":"未命名公園","decorType":"park"},{"id":"way-1227518225","lat":25.0309573,"lon":121.5349777,"name":"未命名公園","decorType":"park"},{"id":"way-1227520618","lat":25.0331681,"lon":121.533947,"name":"未命名森林","decorType":"forest"},{"id":"way-1227520619","lat":25.0331776,"lon":121.5336492,"name":"未命名森林","decorType":"forest"},{"id":"way-1227521625","lat":25.032953,"lon":121.5351541,"name":"未命名公園","decorType":"park"},{"id":"way-1227521626","lat":25.0330013,"lon":121.5351228,"name":"未命名公園","decorType":"park"},{"id":"way-1227521627","lat":25.0329482,"lon":121.5337904,"name":"未命名公園","decorType":"park"},{"id":"way-1227521628","lat":25.0331246,"lon":121.5335536,"name":"未命名公園","decorType":"park"},{"id":"way-1227521631","lat":25.0327542,"lon":121.5350486,"name":"未命名森林","decorType":"forest"},{"id":"way-1227523043","lat":25.0330907,"lon":121.5344737,"name":"未命名公園","decorType":"park"},{"id":"way-1227523044","lat":25.0330842,"lon":121.5349705,"name":"未命名公園","decorType":"park"},{"id":"way-1227523045","lat":25.033111,"lon":121.5347221,"name":"未命名公園","decorType":"park"},{"id":"way-1227523047","lat":25.0331758,"lon":121.5343378,"name":"未命名公園","decorType":"park"},{"id":"way-1227523762","lat":25.0333169,"lon":121.5350391,"name":"未命名公園","decorType":"park"},{"id":"way-1227523766","lat":25.0332394,"lon":121.534825,"name":"未命名水邊","decorType":"waterside"},{"id":"way-1227523768","lat":25.0332202,"lon":121.5349853,"name":"未命名水邊","decorType":"waterside"},{"id":"way-1227523769","lat":25.0332399,"lon":121.5346712,"name":"未命名水邊","decorType":"waterside"},{"id":"way-1227525691","lat":25.0333101,"lon":121.5343323,"name":"未命名公園","decorType":"park"},{"id":"way-1227525696","lat":25.0332428,"lon":121.5333464,"name":"未命名公園","decorType":"park"},{"id":"way-1227525697","lat":25.0332733,"lon":121.5332168,"name":"未命名公園","decorType":"park"},{"id":"way-1227729642","lat":25.0330439,"lon":121.5349692,"name":"未命名公園","decorType":"park"},{"id":"way-1227950108","lat":25.0333033,"lon":121.5347039,"name":"未命名公園","decorType":"park"},{"id":"way-1227950116","lat":25.0332772,"lon":121.5349861,"name":"未命名公園","decorType":"park"},{"id":"way-1228832809","lat":25.0335331,"lon":121.5349932,"name":"未命名公車站","decorType":"bus_stop"},{"id":"way-1285079717","lat":25.0259649,"lon":121.5275352,"name":"行政大樓","decorType":"university"},{"id":"way-1301707059","lat":25.0255019,"lon":121.5267437,"name":"未命名森林","decorType":"forest"},{"id":"way-1303429023","lat":25.0235403,"lon":121.5337149,"name":"未命名公園","decorType":"park"},{"id":"way-1303429026","lat":25.0238553,"lon":121.5336225,"name":"未命名水邊","decorType":"waterside"},{"id":"way-1339038748","lat":25.0263896,"lon":121.5229565,"name":"未命名公車站","decorType":"bus_stop"},{"id":"way-1346858456","lat":25.0292687,"lon":121.5227163,"name":"大樹先生的家","decorType":"restaurant"},{"id":"way-1347029106","lat":25.0377437,"lon":121.5228925,"name":"李鎮源故居","decorType":"park"},{"id":"way-1348435672","lat":25.0377934,"lon":121.5239559,"name":"未命名公園","decorType":"park"},{"id":"way-1348435673","lat":25.0378868,"lon":121.523564,"name":"未命名公園","decorType":"park"},{"id":"way-1348435677","lat":25.0371022,"lon":121.5236357,"name":"未命名公園","decorType":"park"},{"id":"way-1348435678","lat":25.0372047,"lon":121.5238343,"name":"未命名公園","decorType":"park"},{"id":"way-1348435679","lat":25.037437,"lon":121.5236802,"name":"未命名公園","decorType":"park"},{"id":"way-1348435681","lat":25.0382118,"lon":121.5239283,"name":"未命名公園","decorType":"park"},{"id":"way-1348435682","lat":25.0382327,"lon":121.5237101,"name":"未命名公園","decorType":"park"},{"id":"way-1348435685","lat":25.0375863,"lon":121.5240732,"name":"未命名公園","decorType":"park"},{"id":"way-1348435687","lat":25.0371065,"lon":121.5243294,"name":"未命名公園","decorType":"park"},{"id":"way-1348435688","lat":25.0367926,"lon":121.5242947,"name":"未命名公園","decorType":"park"},{"id":"way-1348435689","lat":25.0374105,"lon":121.5246774,"name":"未命名公園","decorType":"park"},{"id":"way-1348435690","lat":25.0377765,"lon":121.5247787,"name":"未命名公園","decorType":"park"},{"id":"way-1348435692","lat":25.0378946,"lon":121.5242695,"name":"未命名公園","decorType":"park"},{"id":"way-1348435698","lat":25.0382465,"lon":121.5235859,"name":"未命名公園","decorType":"park"},{"id":"way-1348435700","lat":25.0381163,"lon":121.5240514,"name":"未命名公園","decorType":"park"},{"id":"way-1348439150","lat":25.0373146,"lon":121.5246731,"name":"未命名公園","decorType":"park"},{"id":"way-1348439153","lat":25.0380169,"lon":121.5247225,"name":"未命名公園","decorType":"park"},{"id":"way-1348439154","lat":25.0380725,"lon":121.5245103,"name":"未命名公園","decorType":"park"},{"id":"way-1348439156","lat":25.0360332,"lon":121.5236867,"name":"未命名公園","decorType":"park"},{"id":"way-1348439157","lat":25.0360668,"lon":121.5237621,"name":"未命名公園","decorType":"park"},{"id":"way-1348439161","lat":25.0358694,"lon":121.5240498,"name":"未命名公園","decorType":"park"},{"id":"way-1348439166","lat":25.0364113,"lon":121.5245223,"name":"未命名公園","decorType":"park"},