{"bbox":{"south":25.023125,"north":25.038731,"west":121.522156,"east":121.535187},"pois":[{"id":"way-229855268","lat":25.023158,"lon":121.52828,"name":"未命名公園","decorType":"park"},{"id":"node-663571409","lat":25.02738,"lon":121.522447,"name":"Mia C'bon","decorType":"supermarket"},{"id":"node-663571412","lat":25.02561,"lon":121.52281,"name":"7-Eleven","decorType":"convenience"},{"id":"node-663578254","lat":25.026789,"lon":121.522691,"name":"捷運古亭站(羅斯福)","decorType":"bus_stop"},{"id":"node-663578255","lat":25.024341,"lon":121.524421,"name":"羅斯福金門街口","decorType":"bus_stop"},{"id":"node-663578256","lat":25.023814,"lon":121.522659,"name":"八隻大象青年之家","decorType":"hotel"},{"id":"node-663578258","lat":25.023746,"lon":121.522745,"name":"Dreaming Dragon Hostel","decorType":"hotel"},{"id":"node-1446842517","lat":25.038632,"lon":121.534559,"name":"7-Eleven","decorType":"convenience"},{"id":"node-1823560106","lat":25.036898,"lon":121.523304,"name":"7-Eleven","decorType":"convenience"},{"id":"node-1850962941","lat":25.026511,"lon":121.532257,"name":"春天素食","decorType":"restaurant"},{"id":"node-1929979425","lat":25.037763,"lon":121.52478,"name":"郵局","decorType":"post_office"},{"id":"node-1940469232","lat":25.033843,"lon":121.529258,"name":"東門","decorType":"station"},{"id":"node-1993682446","lat":25.025393,"lon":121.531257,"name":"找點心","decorType":"cafe"},{"id":"node-2025959763","lat":25.036992,"lon":121.532269,"name":"正宗香港鴻運港式燒臘","decorType":"restaurant"},{"id":"node-2063258338","lat":25.03853,"lon":121.532686,"name":"仁愛新生路口","decorType":"bus_stop"},{"id":"node-2063258342","lat":25.033884,"lon":121.532572,"name":"信義新生路口","decorType":"bus_stop"},{"id":"node-2063258374","lat":25.02636,"lon":121.534798,"name":"和平新生路口","decorType":"bus_stop"},{"id":"node-2063258471","lat":25.030761,"lon":121.533515,"name":"金華新生路口","decorType":"bus_stop"},{"id":"node-2063258489","lat":25.024653,"lon":121.534542,"name":"龍安國小(公務人力發展學院)","decorType":"bus_stop"},{"id":"node-2079533594","lat":25.025901,"lon":121.528525,"name":"師大","decorType":"bus_stop"},{"id":"node-2079533599","lat":25.026337,"lon":121.529865,"name":"師大綜合大樓","decorType":"bus_stop"},{"id":"node-2079533629","lat":25.026121,"lon":121.53298,"name":"溫州街口","decorType":"bus_stop"},{"id":"node-2084597622","lat":25.028895,"lon":121.525785,"name":"鮮堡漢堡","decorType":"burger"},{"id":"node-2085444960","lat":25.026486,"lon":121.524875,"name":"Dulu Coffee Shop","decorType":"cafe"},{"id":"node-2094662039","lat":25.034662,"lon":121.526513,"name":"雀客快捷台北永康","decorType":"hotel"},{"id":"node-2094829585","lat":25.025895,"lon":121.523505,"name":"出口 3 (古亭市場)","decorType":"station"},{"id":"node-2094931371","lat":25.034118,"lon":121.526528,"name":"石二鍋","decorType":"restaurant"},{"id":"node-2094936617","lat":25.033572,"lon":121.527378,"name":"吉野家","decorType":"burger"},{"id":"node-2094938655","lat":25.034366,"lon":121.527142,"name":"coco 都可茶飲","decorType":"cafe"},{"id":"node-2094941419","lat":25.034461,"lon":121.527142,"name":"緑逗薏人","decorType":"cafe"},{"id":"node-2122373338","lat":25.026031,"lon":121.528272,"name":"臺北師大郵局","decorType":"post_office"},{"id":"node-2122373456","lat":25.026129,"lon":121.528272,"name":"全家便利商店","decorType":"convenience"},{"id":"node-2122387112","lat":25.026509,"lon":121.527758,"name":"師大","decorType":"bus_stop"},{"id":"node-2160836810","lat":25.025649,"lon":121.528082,"name":"師大便利書店 (自動借還書機)","decorType":"library"},{"id":"node-2160836812","lat":25.02758,"lon":121.529423,"name":"校本部","decorType":"bus_stop"},{"id":"node-2183238681","lat":25.033328,"lon":121.532327,"name":"東品洋行","decorType":"clothing"},{"id":"node-2183238686","lat":25.033354,"lon":121.532193,"name":"NOUVEAU","decorType":"restaurant"},{"id":"node-2183238694","lat":25.033374,"lon":121.531932,"name":"L'Occitane","decorType":"clothing"},{"id":"node-2183243059","lat":25.033013,"lon":121.530308,"name":"全家便利商店","decorType":"convenience"},{"id":"node-2183243060","lat":25.033055,"lon":121.530538,"name":"全聯福利中心","decorType":"supermarket"},{"id":"node-2191945183","lat":25.02466,"lon":121.524502,"name":"全家便利商店","decorType":"convenience"},{"id":"node-2193828907","lat":25.023698,"lon":121.525245,"name":"7-Eleven","decorType":"convenience"},{"id":"node-2278521194","lat":25.024599,"lon":121.528682,"name":"燈籠滷味","decorType":"restaurant"},{"id":"node-2278521765","lat":25.024201,"lon":121.52864,"name":"一之軒","decorType":"bakery"},{"id":"node-2278523999","lat":25.028224,"lon":121.52611,"name":"金山潮州街口","decorType":"bus_stop"},{"id":"node-2278524000","lat":25.028739,"lon":121.526392,"name":"金山潮州街口","decorType":"bus_stop"},{"id":"node-2310591202","lat":25.033264,"lon":121.527028,"name":"捷運東門站(金山)","decorType":"bus_stop"},{"id":"node-2310591215","lat":25.030368,"lon":121.532989,"name":"金華國中","decorType":"bus_stop"},{"id":"node-2310591224","lat":25.029856,"lon":121.53047,"name":"OK超商","decorType":"convenience"},{"id":"node-2310591231","lat":25.029788,"lon":121.528967,"name":"金華大廈","decorType":"bus_stop"},{"id":"node-2310591236","lat":25.030089,"lon":121.526867,"name":"公企中心","decorType":"bus_stop"},{"id":"node-2310591239","lat":25.033151,"lon":121.52691,"name":"鬍鬚張","decorType":"restaurant"},{"id":"node-2311690628","lat":25.023742,"lon":121.531476,"name":"糊塗麵","decorType":"restaurant"},{"id":"node-2312678141","lat":25.023955,"lon":121.524793,"name":"羅斯福金門街口","decorType":"bus_stop"},{"id":"node-2315944925","lat":25.02516,"lon":121.534889,"name":"龍安國小(公務人力發展學院)","decorType":"bus_stop"},{"id":"node-2318382198","lat":25.026798,"lon":121.522948,"name":"星巴克","decorType":"cafe"},{"id":"node-2318382782","lat":25.026596,"lon":121.523032,"name":"爭鮮迴轉壽司","decorType":"restaurant"},{"id":"node-2318383283","lat":25.026403,"lon":121.523188,"name":"吉野家","decorType":"burger"},{"id":"node-2318385495","lat":25.026837,"lon":121.52224,"name":"寶雅生活館","decorType":"pharmacy"},{"id":"node-2318386198","lat":25.027172,"lon":121.523152,"name":"捷運古亭站(和平)","decorType":"bus_stop"},{"id":"node-2341953899","lat":25.027148,"lon":121.524566,"name":"全聯福利中心","decorType":"supermarket"},{"id":"node-2341954017","lat":25.027107,"lon":121.52488,"name":"樂田麵包屋","decorType":"restaurant"},{"id":"node-2341954685","lat":25.027252,"lon":121.522853,"name":"五桐號","decorType":"cafe"},{"id":"node-2365905451","lat":25.028574,"lon":121.529357,"name":"龍安民眾閱覽室","decorType":"library"},{"id":"node-2383980635","lat":25.023189,"lon":121.528565,"name":"7-Eleven","decorType":"convenience"},{"id":"node-2383980640","lat":25.023366,"lon":121.528557,"name":"全家便利商店","decorType":"convenience"},{"id":"node-2393782858","lat":25.030239,"lon":121.526814,"name":"摩斯漢堡","decorType":"burger"},{"id":"node-2393783453","lat":25.031527,"lon":121.528673,"name":"老張牛肉麵","decorType":"restaurant"},{"id":"node-2407137780","lat":25.026756,"lon":121.524684,"name":"捷運古亭站(和平)","decorType":"bus_stop"},{"id":"node-2421453621","lat":25.027445,"lon":121.522394,"name":"麥當勞","decorType":"burger"},{"id":"node-2422620743","lat":25.026738,"lon":121.527714,"name":"師大","decorType":"bus_stop"},{"id":"node-2422620745","lat":25.027037,"lon":121.524465,"name":"捷運古亭站(和平)","decorType":"bus_stop"},{"id":"node-2422620753","lat":25.026355,"lon":121.532694,"name":"溫州街口","decorType":"bus_stop"},{"id":"node-2422620754","lat":25.026591,"lon":121.529945,"name":"師大綜合大樓","decorType":"bus_stop"},{"id":"node-2426176904","lat":25.033519,"lon":121.530102,"name":"鼎泰豐","decorType":"restaurant"},{"id":"node-2426954479","lat":25.034141,"lon":121.526928,"name":"捷運東門站","decorType":"bus_stop"},{"id":"node-2426954484","lat":25.033581,"lon":121.532286,"name":"信義新生路口","decorType":"bus_stop"},{"id":"node-2426954486","lat":25.035604,"lon":121.524021,"name":"信義杭州路口","decorType":"bus_stop"},{"id":"node-2426954496","lat":25.033726,"lon":121.529761,"name":"信義永康街口 (捷運東門站)","decorType":"bus_stop"},{"id":"node-2426954497","lat":25.035359,"lon":121.52462,"name":"信義杭州路口","decorType":"bus_stop"},{"id":"node-2426954498","lat":25.033727,"lon":121.530254,"name":"信義永康街口 (捷運東門站)","decorType":"bus_stop"},{"id":"node-2426954502","lat":25.033639,"lon":121.533128,"name":"信義新生路口","decorType":"bus_stop"},{"id":"node-2426954503","lat":25.034075,"lon":121.527611,"name":"捷運東門站","decorType":"bus_stop"},{"id":"node-2426976629","lat":25.033284,"lon":121.532857,"name":"信義新生路口","decorType":"bus_stop"},{"id":"node-2426976630","lat":25.03784,"lon":121.53289,"name":"仁愛新生路口","decorType":"bus_stop"},{"id":"node-2426976631","lat":25.030518,"lon":121.533858,"name":"金華新生路口","decorType":"bus_stop"},{"id":"node-2429872622","lat":25.030405,"lon":121.526792,"name":"OK超商","decorType":"convenience"},{"id":"node-2435590491","lat":25.038039,"lon":121.53454,"name":"幸安國小","decorType":"bus_stop"},{"id":"node-2435590492","lat":25.03826,"lon":121.534666,"name":"幸安國小","decorType":"bus_stop"},{"id":"node-2435590494","lat":25.038411,"lon":121.533833,"name":"新生南路口","decorType":"bus_stop"},{"id":"node-2435590497","lat":25.038297,"lon":121.529551,"name":"仁愛臨沂街口","decorType":"bus_stop"},{"id":"node-2435590498","lat":25.038188,"lon":121.528062,"name":"仁愛臨沂街口","decorType":"bus_stop"},{"id":"node-2435590499","lat":25.038114,"lon":121.53241,"name":"仁愛新生路口","decorType":"bus_stop"},{"id":"node-2435592632","lat":25.038371,"lon":121.525406,"name":"仁愛杭州路口","decorType":"bus_stop"},{"id":"node-2435592634","lat":25.03843,"lon":121.52376,"name":"仁愛紹興街口","decorType":"bus_stop"},{"id":"node-2455453861","lat":25.035072,"lon":121.527581,"name":"棉花田","decorType":"supermarket"},{"id":"node-2455453883","lat":25.034367,"lon":121.527523,"name":"東門鵝肉攤","decorType":"restaurant"},{"id":"node-2455453899","lat":25.030512,"lon":121.526521,"name":"公企中心","decorType":"bus_stop"},{"id":"node-2459036542","lat":25.026846,"lon":121.523345,"name":"捷運古亭站(和平)","decorType":"bus_stop"},{"id":"node-2459039756","lat":25.030677,"lon":121.52678,"name":"公企中心","decorType":"bus_stop"},{"id":"node-2459039757","lat":25.036721,"lon":121.527757,"name":"仁愛路二段","decorType":"bus_stop"},{"id":"node-2459039758","lat":25.033289,"lon":121.527254,"name":"捷運東門站(金山)","decorType":"bus_stop"},{"id":"node-2459039763","lat":25.037555,"lon":121.528224,"name":"仁愛路二段","decorType":"bus_stop"},{"id":"node-2460009696","lat":25.034284,"lon":121.533028,"name":"全家便利商店","decorType":"convenience"},{"id":"node-2460009740","lat":25.034398,"lon":121.533032,"name":"大安森林食堂","decorType":"restaurant"},{"id":"node-2460009792","lat":25.034504,"lon":121.533031,"name":"摩斯漢堡","decorType":"burger"},{"id":"node-2486816961","lat":25.026464,"lon":121.523172,"name":"欣和旅店","decorType":"hotel"},{"id":"node-2526023591","lat":25.03182,"lon":121.524612,"name":"台北金南郵局","decorType":"post_office"},{"id":"node-2535958442","lat":25.024561,"lon":121.525463,"name":"秘氏咖啡","decorType":"cafe"},{"id":"node-2544407630","lat":25.034658,"lon":121.526283,"name":"未命名郵局","decorType":"post_office"},{"id":"node-2558214795","lat":25.023861,"lon":121.53436,"name":"莫宰羊","decorType":"restaurant"},{"id":"node-2558223809","lat":25.025671,"lon":121.530163,"name":"成都麵店","decorType":"restaurant"},{"id":"node-2563078204","lat":25.030034,"lon":121.522185,"name":"潮州街口","decorType":"bus_stop"},{"id":"node-2597965495","lat":25.033098,"lon":121.52994,"name":"7-Eleven","decorType":"convenience"},{"id":"node-2597965505","lat":25.033041,"lon":121.529932,"name":"康是美","decorType":"pharmacy"},{"id":"node-2597965506","lat":25.033076,"lon":121.530164,"name":"大來小館永康旗艦店","decorType":"restaurant"},{"id":"node-2597965510","lat":25.033089,"lon":121.530083,"name":"巧克哈客","decorType":"restaurant"},{"id":"node-2597965511","lat":25.033507,"lon":121.530158,"name":"冉冉生活","decorType":"cafe"},{"id":"node-2601117060","lat":25.03772,"lon":121.532472,"name":"無老鍋","decorType":"restaurant"},{"id":"node-2601117061","lat":25.037972,"lon":121.532339,"name":"貳樓餐廳","decorType":"restaurant"},{"id":"node-2608996131","lat":25.037081,"lon":121.532498,"name":"7-Eleven","decorType":"convenience"},{"id":"node-2624816667","lat":25.027238,"lon":121.525827,"name":"四海豆漿","decorType":"restaurant"},{"id":"node-2653879920","lat":25.032065,"lon":121.529275,"name":"Rice Cafe杓文字","decorType":"restaurant"},{"id":"node-2653879921","lat":25.032028,"lon":121.529445,"name":"樂麵屋","decorType":"restaurant"},{"id":"node-2657773501","lat":25.034123,"lon":121.531035,"name":"奇福扁食","decorType":"restaurant"},{"id":"node-2676809065","lat":25.029698,"lon":121.529451,"name":"路易莎","decorType":"cafe"},{"id":"node-2698212021","lat":25.025739,"lon":121.528079,"name":"文薈廳","decorType":"cafe"},{"id":"node-2760112868","lat":25.035115,"lon":121.534587,"name":"義光教會","decorType":"shrine"},{"id":"node-2923728376","lat":25.025689,"lon":121.522664,"name":"泓得素食店","decorType":"restaurant"},{"id":"node-2952382793","lat":25.038481,"lon":121.528608,"name":"7-Eleven","decorType":"convenience"},{"id":"node-2952428754","lat":25.038391,"lon":121.530519,"name":"未命名郵局","decorType":"post_office"},{"id":"node-2952479190","lat":25.033272,"lon":121.529747,"name":"星巴克","decorType":"cafe"},{"id":"node-2969057137","lat":25.038714,"lon":121.525438,"name":"德忞牛肉麵","decorType":"restaurant"},{"id":"node-2969057246","lat":25.038672,"lon":121.525424,"name":"KC Cafe","decorType":"cafe"},{"id":"node-3027219943","lat":25.030648,"lon":121.529453,"name":"好公道的店","decorType":"restaurant"},{"id":"node-3050253395","lat":25.024682,"lon":121.528016,"name":"水準書局","decorType":"library"},{"id":"node-3075089498","lat":25.025556,"lon":121.523346,"name":"出口 2 (同安街)","decorType":"station"},{"id":"node-3075092733","lat":25.026091,"lon":121.522948,"name":"出口 1 (同安街)","decorType":"station"},{"id":"node-3078276697","lat":25.026487,"lon":121.532502,"name":"7-Eleven","decorType":"convenience"},{"id":"node-3098549371","lat":25.026752,"lon":121.522982,"name":"達芙妮","decorType":"clothing"},{"id":"node-3113981811","lat":25.036697,"lon":121.532419,"name":"自助餐","decorType":"restaurant"},{"id":"node-3113986361","lat":25.034855,"lon":121.534643,"name":"雙連魯肉飯","decorType":"restaurant"},{"id":"node-3113986362","lat":25.035155,"lon":121.534726,"name":"美客超商","decorType":"supermarket"},{"id":"node-3138467539","lat":25.036776,"lon":121.524821,"name":"仁愛杭州路口","decorType":"bus_stop"},{"id":"node-3138467542","lat":25.030083,"lon":121.527387,"name":"公企中心","decorType":"bus_stop"},{"id":"node-3138467543","lat":25.03276,"lon":121.522887,"name":"愛國東路口","decorType":"bus_stop"},{"id":"node-3138467544","lat":25.032308,"lon":121.52326,"name":"南門中繼市場","decorType":"bus_stop"},{"id":"node-3138467557","lat":25.034941,"lon":121.524138,"name":"金甌女中","decorType":"bus_stop"},{"id":"node-3138467558","lat":25.030109,"lon":121.531738,"name":"金華國中","decorType":"bus_stop"},{"id":"node-3138467559","lat":25.029881,"lon":121.528882,"name":"金華大廈","decorType":"bus_stop"},{"id":"node-3145881246","lat":25.026594,"lon":121.522981,"name":"出口 4 (師範大學)","decorType":"station"},{"id":"node-3145881251","lat":25.027199,"lon":121.522752,"name":"出口 5 (和平東路一段)","decorType":"station"},{"id":"node-3145881252","lat":25.027478,"lon":121.5223,"name":"出口 6 (杭州南路)","decorType":"station"},{"id":"node-3145881255","lat":25.026853,"lon":121.52236,"name":"出口 9 (大都市國際中心)","decorType":"station"},{"id":"node-3181634511","lat":25.02938,"lon":121.52957,"name":"波士頓理髮廳","decorType":"hair_salon"},{"id":"node-3181867689","lat":25.029712,"lon":121.529426,"name":"zakka zoo","decorType":"clothing"},{"id":"node-3181867692","lat":25.029843,"lon":121.529324,"name":"可喜漢堡","decorType":"restaurant"},{"id":"node-3181917425","lat":25.029846,"lon":121.529287,"name":"品悅糖","decorType":"restaurant"},{"id":"node-3181917429","lat":25.029807,"lon":121.52836,"name":"7-Eleven","decorType":"convenience"},{"id":"node-3181917431","lat":25.030018,"lon":121.52828,"name":"韓記老虎麵食館","decorType":"restaurant"},{"id":"node-3182310123","lat":25.030233,"lon":121.525808,"name":"全安藥房","decorType":"pharmacy"},{"id":"node-3201621179","lat":25.024195,"lon":121.529681,"name":"牙買加倉庫","decorType":"restaurant"},{"id":"node-3216076614","lat":25.035488,"lon":121.527303,"name":"7-Eleven","decorType":"convenience"},{"id":"node-3216077263","lat":25.037411,"lon":121.5258,"name":"臺灣聖公會友誼之家","decorType":"shrine"},{"id":"node-3216077265","lat":25.036127,"lon":121.527515,"name":"金山鵝肉","decorType":"restaurant"},{"id":"node-3216077271","lat":25.034199,"lon":121.52754,"name":"未命名車站","decorType":"station"},{"id":"node-3216077273","lat":25.033248,"lon":121.526928,"name":"7-Eleven","decorType":"convenience"},{"id":"node-3216077275","lat":25.030529,"lon":121.528423,"name":"花俊簡餐咖啡","decorType":"restaurant"},{"id":"node-3216077286","lat":25.032767,"lon":121.529144,"name":"雲鼎阿二麻辣食堂","decorType":"restaurant"},{"id":"node-3216077385","lat":25.033737,"lon":121.527834,"name":"未命名車站","decorType":"station"},{"id":"node-3216077386","lat":25.030519,"lon":121.528525,"name":"六品小館","decorType":"restaurant"},{"id":"node-3216077397","lat":25.03242,"lon":121.529056,"name":"豐盛食堂","decorType":"restaurant"},{"id":"node-3216077726","lat":25.032597,"lon":121.52909,"name":"永業書店","decorType":"library"},{"id":"node-3216077727","lat":25.03151,"lon":121.528241,"name":"教庭外郵筒","decorType":"post_office"},{"id":"node-3216077742","lat":25.031041,"lon":121.528821,"name":"吳留手串燒","decorType":"restaurant"},{"id":"node-3216077747","lat":25.031696,"lon":121.528595,"name":"眉公河畔東南亞餐廳","decorType":"restaurant"},{"id":"node-3216077748","lat":25.032106,"lon":121.529008,"name":"古典玫瑰園台北永康店","decorType":"restaurant"},{"id":"node-3233059785","lat":25.024505,"lon":121.529722,"name":"米克諾斯","decorType":"restaurant"},{"id":"node-3263378505","lat":25.031955,"lon":121.525923,"name":"愛國金山路口","decorType":"bus_stop"},{"id":"node-3270306166","lat":25.034173,"lon":121.528946,"name":"謙商旅Chain Hotel","decorType":"hotel"},{"id":"node-3270311362","lat":25.033737,"lon":121.528904,"name":"未命名郵局","decorType":"post_office"},{"id":"node-3270311562","lat":25.032055,"lon":121.529594,"name":"府城台南美食旗艦店","decorType":"restaurant"},{"id":"node-3270311563","lat":25.034073,"lon":121.528962,"name":"未命名車站","decorType":"station"},{"id":"node-3270313561","lat":25.033883,"lon":121.529835,"name":"未命名車站","decorType":"station"},{"id":"node-3270313562","lat":25.031783,"lon":121.529519,"name":"麵黑平","decorType":"restaurant"},{"id":"node-3270313661","lat":25.032891,"lon":121.528985,"name":"家味陳媽媽便當美食坊","decorType":"restaurant"},{"id":"node-3270313762","lat":25.031688,"lon":121.529498,"name":"一品山西刀削麵之家","decorType":"restaurant"},{"id":"node-3270313763","lat":25.033652,"lon":121.529485,"name":"未命名車站","decorType":"station"},{"id":"node-3270313764","lat":25.03391,"lon":121.529635,"name":"未命名車站","decorType":"station"},{"id":"node-3270313861","lat":25.031527,"lon":121.529475,"name":"7-Eleven","decorType":"convenience"},{"id":"node-3270313863","lat":25.034075,"lon":121.528926,"name":"東門郵局","decorType":"post_office"},{"id":"node-3270313864","lat":25.03374,"lon":121.528868,"name":"未命名車站","decorType":"station"},{"id":"node-3270313865","lat":25.034135,"lon":121.527929,"name":"未命名車站","decorType":"station"},{"id":"node-3270343269","lat":25.033179,"lon":121.535087,"name":"未命名車站","decorType":"station"},{"id":"node-3270343682","lat":25.033783,"lon":121.534444,"name":"大安森林公園站1號出口","decorType":"station"},{"id":"node-3270346882","lat":25.033309,"lon":121.534521,"name":"未命名車站","decorType":"station"},{"id":"node-3273648711","lat":25.033989,"lon":121.52892,"name":"未命名郵局","decorType":"post_office"},{"id":"node-3307942127","lat":25.034538,"lon":121.527777,"name":"7-Eleven","decorType":"convenience"},{"id":"node-3336757877","lat":25.038273,"lon":121.533082,"name":"仁愛新生路口","decorType":"bus_stop"},{"id":"node-3391166511","lat":25.033843,"lon":121.523855,"name":"盛園絲瓜小籠湯包","decorType":"restaurant"},{"id":"node-3445858803","lat":25.028032,"lon":121.529926,"name":"Boîte de bijou","decorType":"bakery"},{"id":"node-3506510794","lat":25.033947,"lon":121.529802,"name":"日藥本舖","decorType":"pharmacy"},{"id":"node-3506510894","lat":25.033525,"lon":121.52982,"name":"聖瑪麗","decorType":"bakery"},{"id":"node-3506511095","lat":25.033592,"lon":121.529393,"name":"NET","decorType":"clothing"},{"id":"node-3510205293","lat":25.037782,"lon":121.529213,"name":"誇張古懂咖啡店","decorType":"cafe"},{"id":"node-3521852853","lat":25.027342,"lon":121.522476,"name":"MOMA","decorType":"clothing"},{"id":"node-3579689537","lat":25.026289,"lon":121.529825,"name":"八方雲集","decorType":"burger"},{"id":"node-3579803901","lat":25.024457,"lon":121.525599,"name":"阿婆早餐","decorType":"restaurant"},{"id":"node-3596859027","lat":25.037998,"lon":121.531367,"name":"山海樓","decorType":"restaurant"},{"id":"node-3602726593","lat":25.033849,"lon":121.532344,"name":"元組","decorType":"bakery"},{"id":"node-3649178927","lat":25.034997,"lon":121.528773,"name":"正德宮","decorType":"shrine"},{"id":"node-3653616887","lat":25.035235,"lon":121.525304,"name":"7-Eleven","decorType":"convenience"},{"id":"node-3656220547","lat":25.031143,"lon":121.528811,"name":"小茅屋四川店","decorType":"restaurant"},{"id":"node-3656220549","lat":25.031463,"lon":121.528892,"name":"基督徒聚會所","decorType":"shrine"},{"id":"node-3656220730","lat":25.032878,"lon":121.528267,"name":"油花迴轉吧!燒肉!永康駅","decorType":"restaurant"},{"id":"node-3656220731","lat":25.03292,"lon":121.528083,"name":"永康牛肉麵","decorType":"restaurant"},{"id":"node-3656221033","lat":25.031227,"lon":121.528827,"name":"吳留手串燒麗水二店","decorType":"restaurant"},{"id":"node-3656221034","lat":25.031546,"lon":121.528497,"name":"左爺爺的港式茶餐廳","decorType":"restaurant"},{"id":"node-3656221035","lat":25.03284,"lon":121.528697,"name":"東門餃子館","decorType":"restaurant"},{"id":"node-3656268829","lat":25.029258,"lon":121.523507,"name":"金華麵店","decorType":"restaurant"},{"id":"node-3656268925","lat":25.029427,"lon":121.523354,"name":"街旅 Street Travel","decorType":"cafe"},{"id":"node-3656268926","lat":25.029447,"lon":121.52323,"name":"廣東汕頭新鮮豆漿店","decorType":"restaurant"},{"id":"node-3656419728","lat":25.027975,"lon":121.524842,"name":"台電勵進餐廳","decorType":"restaurant"},{"id":"node-3665497326","lat":25.030869,"lon":121.5296,"name":"龍城燒臘","decorType":"restaurant"},{"id":"node-3665497327","lat":25.031066,"lon":121.529452,"name":"angel cafe","decorType":"cafe"},{"id":"node-3665504925","lat":25.030823,"lon":121.52961,"name":"燒鳥處","decorType":"restaurant"},{"id":"node-3665505025","lat":25.030982,"lon":121.529449,"name":"丹堤咖啡","decorType":"cafe"},{"id":"node-3665505125","lat":25.031011,"lon":121.529556,"name":"銀咖哩","decorType":"restaurant"},{"id":"node-3687762584","lat":25.033252,"lon":121.5294,"name":"NextDoor鄰居家","decorType":"cafe"},{"id":"node-3687762585","lat":25.03314,"lon":121.529547,"name":"世中欣健保藥局","decorType":"pharmacy"},{"id":"node-3687762586","lat":25.033009,"lon":121.529302,"name":"佳客多家常麵.湯餃","decorType":"restaurant"},{"id":"node-3687762587","lat":25.033245,"lon":121.529584,"name":"卡瓦利義式咖啡館","decorType":"restaurant"},{"id":"node-3687762588","lat":25.033149,"lon":121.529007,"name":"巧味海鮮","decorType":"restaurant"},{"id":"node-3687762589","lat":25.033167,"lon":121.529375,"name":"家家客家菜","decorType":"restaurant"},{"id":"node-3687762590","lat":25.030306,"lon":121.525405,"name":"廖家牛肉麵","decorType":"restaurant"},{"id":"node-3687762595","lat":25.029331,"lon":121.524114,"name":"未命名郵局","decorType":"post_office"},{"id":"node-3687767353","lat":25.033024,"lon":121.528997,"name":"老郭川菜","decorType":"restaurant"},{"id":"node-3693598197","lat":25.0236,"lon":121.528188,"name":"星巴克","decorType":"cafe"},{"id":"node-3694094091","lat":25.024419,"lon":121.526824,"name":"路燈咖啡師大店","decorType":"cafe"},{"id":"node-3708879436","lat":25.028956,"lon":121.529587,"name":"鑫華茶餐廳","decorType":"restaurant"},{"id":"node-3732187929","lat":25.025604,"lon":121.529575,"name":"極簡咖啡","decorType":"cafe"},{"id":"node-3785976829","lat":25.033477,"lon":121.530306,"name":"吐司利亞","decorType":"restaurant"},{"id":"node-3785976830","lat":25.030248,"lon":121.529477,"name":"50嵐","decorType":"cafe"},{"id":"node-3785980602","lat":25.03229,"lon":121.529857,"name":"8度c冰淇淋","decorType":"cafe"},{"id":"node-3812564396","lat":25.02641,"lon":121.522953,"name":"古亭","decorType":"station"},{"id":"node-3815225762","lat":25.034498,"lon":121.526769,"name":"71恩典藥局","decorType":"pharmacy"},{"id":"node-3821098476","lat":25.024188,"lon":121.534434,"name":"翠園越南餐廳","decorType":"restaurant"},{"id":"node-3826876966","lat":25.025601,"lon":121.534547,"name":"家樂福超市","decorType":"supermarket"},{"id":"node-3870721774","lat":25.024191,"lon":121.529594,"name":"雲泰小鎮","decorType":"restaurant"},{"id":"node-3870722787","lat":25.024856,"lon":121.531853,"name":"亞米廚房","decorType":"restaurant"},{"id":"node-3891435494","lat":25.025281,"lon":121.53501,"name":"SOMA","decorType":"hair_salon"},{"id":"node-3907542449","lat":25.029795,"lon":121.528446,"name":"大來小館","decorType":"restaurant"},{"id":"node-3939157974","lat":25.033376,"lon":121.531822,"name":"Arond Palmer","decorType":"clothing"},{"id":"node-3939157980","lat":25.023893,"lon":121.529026,"name":"Pasta Paradise","decorType":"restaurant"},{"id":"node-3939157988","lat":25.033315,"lon":121.532442,"name":"iRoo","decorType":"clothing"},{"id":"node-3939158011","lat":25.026266,"lon":121.530116,"name":"九龍畫苑","decorType":"art_gallery"},{"id":"node-3939158012","lat":25.033841,"lon":121.53225,"name":"君悅排骨","decorType":"restaurant"},{"id":"node-3939158013","lat":25.026264,"lon":121.530063,"name":"國泰美術社","decorType":"art_gallery"},{"id":"node-3939158024","lat":25.023475,"lon":121.526916,"name":"小炮洗衣店","decorType":"laundry"},{"id":"node-3939158025","lat":25.027214,"lon":121.523237,"name":"屈臣氏","decorType":"pharmacy"},{"id":"node-3939158027","lat":25.033821,"lon":121.533256,"name":"市民大道涮涮鍋","decorType":"restaurant"},{"id":"node-3939158028","lat":25.026179,"lon":121.531167,"name":"廣聯西點烘培坊","decorType":"bakery"},{"id":"node-3939158030","lat":25.025955,"lon":121.534109,"name":"摩斯漢堡","decorType":"burger"},{"id":"node-3939158037","lat":25.026262,"lon":121.530173,"name":"春風堂藝術中心","decorType":"art_gallery"},{"id":"node-3939158049","lat":25.032043,"lon":121.529333,"name":"永康刀削麵","decorType":"restaurant"},{"id":"node-3939158055","lat":25.026245,"lon":121.530359,"name":"温州街蘿蔔絲餅達人","decorType":"ramen"},{"id":"node-3939158263","lat":25.033073,"lon":121.530459,"name":"秀蘭小館","decorType":"restaurant"},{"id":"node-3939158279","lat":25.023725,"lon":121.524689,"name":"未命名郵局","decorType":"post_office"},{"id":"node-3939158305","lat":25.026517,"lon":121.531105,"name":"未命名郵局","decorType":"post_office"},{"id":"node-3939158322","lat":25.027072,"lon":121.52608,"name":"未命名郵局","decorType":"post_office"},{"id":"node-3939158346","lat":25.033398,"lon":121.531984,"name":"未命名郵局","decorType":"post_office"},{"id":"node-3939158489","lat":25.026277,"lon":121.529658,"name":"素食天地","decorType":"restaurant"},{"id":"node-3939158504","lat":25.026147,"lon":121.531502,"name":"雅笛鞋品","decorType":"clothing"},{"id":"node-3939158505","lat":25.023675,"lon":121.526907,"name":"雲禾小火鍋","decorType":"restaurant"},{"id":"node-3939158507","lat":25.02664,"lon":121.530684,"name":"家樂福超市","decorType":"supermarket"},{"id":"node-3939158515","lat":25.025979,"lon":121.533701,"name":"7-Eleven","decorType":"convenience"},{"id":"node-4018208844","lat":25.024161,"lon":121.53403,"name":"伊聖詩私房書櫃","decorType":"cafe"},{"id":"node-4102210689","lat":25.033215,"lon":121.532497,"name":"Under Armour","decorType":"clothing"},{"id":"node-4114512904","lat":25.024723,"lon":121.528675,"name":"阿諾碟子","decorType":"restaurant"},{"id":"node-4149587180","lat":25.0236,"lon":121.524653,"name":"臺北古亭郵局","decorType":"post_office"},{"id":"node-4149587181","lat":25.025708,"lon":121.523706,"name":"古亭健康人生藥局","decorType":"pharmacy"},{"id":"node-4149587182","lat":25.024551,"lon":121.524588,"name":"星巴克","decorType":"cafe"},{"id":"node-4149587187","lat":25.027231,"lon":121.522993,"name":"CAFE!N","decorType":"cafe"},{"id":"node-4149591690","lat":25.024359,"lon":121.525035,"name":"浸信會義美堂","decorType":"shrine"},{"id":"node-4149591691","lat":25.023344,"lon":121.528707,"name":"白鹿洞書坊","decorType":"library"},{"id":"node-4149591701","lat":25.026867,"lon":121.523469,"name":"未命名郵局","decorType":"post_office"},{"id":"node-4149591703","lat":25.023991,"lon":121.529358,"name":"7-Eleven","decorType":"convenience"},{"id":"node-4193132794","lat":25.034032,"lon":121.529161,"name":"矢場味噌豬排","decorType":"restaurant"},{"id":"node-4198316050","lat":25.028993,"lon":121.532324,"name":"學校咖啡","decorType":"cafe"},{"id":"node-4201921589","lat":25.034079,"lon":121.523749,"name":"杭州小籠湯包","decorType":"restaurant"},{"id":"node-4236823693","lat":25.028997,"lon":121.52824,"name":"FT CafexShop","decorType":"cafe"},{"id":"node-4236823706","lat":25.023284,"lon":121.529274,"name":"伊洛瓦底雲泰餐館","decorType":"restaurant"},{"id":"node-4236823717","lat":25.030134,"lon":121.528639,"name":"大來小館","decorType":"restaurant"},{"id":"node-4236823723","lat":25.032474,"lon":121.529066,"name":"巨林美而美","decorType":"burger"},{"id":"node-4236823727","lat":25.033275,"lon":121.529233,"name":"常春藤","decorType":"restaurant"},{"id":"node-4236823734","lat":25.029577,"lon":121.528418,"name":"摩賽卡法式茶館","decorType":"restaurant"},{"id":"node-4236823748","lat":25.024371,"lon":121.529464,"name":"珍品味泰式炭烤","decorType":"restaurant"},{"id":"node-4236824121","lat":25.024311,"lon":121.529368,"name":"未命名服飾店","decorType":"clothing"},{"id":"node-4236824122","lat":25.024343,"lon":121.529373,"name":"未命名服飾店","decorType":"clothing"},{"id":"node-4236824158","lat":25.02345,"lon":121.529392,"name":"飯館兒","decorType":"restaurant"},{"id":"node-4236824160","lat":25.032274,"lon":121.529035,"name":"麗樺藥局","decorType":"pharmacy"},{"id":"node-4236824161","lat":25.026912,"lon":121.527761,"name":"麗水38","decorType":"art_gallery"},{"id":"node-4243661189","lat":25.03216,"lon":121.530019,"name":"Hui Liu Tea & Tea Arts","decorType":"cafe"},{"id":"node-4258490789","lat":25.03548,"lon":121.528066,"name":"果匠正庵烘焙專職店","decorType":"bakery"},{"id":"node-4298897604","lat":25.031846,"lon":121.532857,"name":"八仙炭烤","decorType":"restaurant"},{"id":"node-4298897636","lat":25.030715,"lon":121.530432,"name":"築地壽司","decorType":"restaurant"},{"id":"node-4298897637","lat":25.030297,"lon":121.529403,"name":"築地市場","decorType":"restaurant"},{"id":"node-4301521295","lat":25.030145,"lon":121.522285,"name":"一心麵店","decorType":"restaurant"},{"id":"node-4307625974","lat":25.027277,"lon":121.525834,"name":"Subway","decorType":"burger"},{"id":"node-4307626648","lat":25.033306,"lon":121.526932,"name":"銀翼餐廳","decorType":"restaurant"},{"id":"node-4325693402","lat":25.033555,"lon":121.529638,"name":"Giordano","decorType":"clothing"},{"id":"node-4325693407","lat":25.033528,"lon":121.530007,"name":"LORANZO","decorType":"clothing"},{"id":"node-4325693410","lat":25.033646,"lon":121.528983,"name":"QB HOUSE","decorType":"hair_salon"},{"id":"node-4325693413","lat":25.03358,"lon":121.52948,"name":"The North Face","decorType":"clothing"},{"id":"node-4325693416","lat":25.031919,"lon":121.532827,"name":"一代佳人炭烤","decorType":"restaurant"},{"id":"node-4325693471","lat":25.033631,"lon":121.529119,"name":"天仁茗茶","decorType":"cafe"},{"id":"node-4325693932","lat":25.033837,"lon":121.532187,"name":"泰讚泰式精緻料理","decorType":"restaurant"},{"id":"node-4330538196","lat":25.02506,"lon":121.530678,"name":"第二青年客棧","decorType":"hotel"},{"id":"node-4344472251","lat":25.038556,"lon":121.534297,"name":"歐洲名品特賣會","decorType":"clothing"},{"id":"node-4352014791","lat":25.031006,"lon":121.530285,"name":"小珍珠烘焙坊","decorType":"bakery"},{"id":"node-4366039696","lat":25.025039,"lon":121.523442,"name":"Ooh Cha Cha自然食","decorType":"restaurant"},{"id":"node-4384257950","lat":25.024601,"lon":121.526996,"name":"Bambi Bambi Brunch","decorType":"restaurant"},{"id":"node-4384258994","lat":25.024575,"lon":121.528671,"name":"屈臣氏","decorType":"pharmacy"},{"id":"node-4384259023","lat":25.024449,"lon":121.526965,"name":"瑪丘墨式餅舖","decorType":"restaurant"},{"id":"node-4400610791","lat":25.036384,"lon":121.525934,"name":"未命名咖啡廳","decorType":"cafe"},{"id":"node-4400862237","lat":25.024541,"lon":121.529238,"name":"燈籠滷味","decorType":"restaurant"},{"id":"node-4427420460","lat":25.024273,"lon":121.525461,"name":"阿文牛肉麵","decorType":"restaurant"},{"id":"node-4427422114","lat":25.02448,"lon":121.527122,"name":"囍咖啡","decorType":"restaurant"},{"id":"node-4430883491","lat":25.029864,"lon":121.529136,"name":"和茗甘味處","decorType":"cafe"},{"id":"node-4445027430","lat":25.027974,"lon":121.522691,"name":"民風樂府","decorType":"ramen"},{"id":"node-4447987309","lat":25.027015,"lon":121.525725,"name":"7-Eleven","decorType":"convenience"},{"id":"node-4489773693","lat":25.034807,"lon":121.527544,"name":"小南門傻瓜乾麵","decorType":"restaurant"},{"id":"node-4524863570","lat":25.027277,"lon":121.522607,"name":"天仁茗茶","decorType":"cafe"},{"id":"node-4524863643","lat":25.023703,"lon":121.534463,"name":"未命名郵局","decorType":"post_office"},{"id":"node-4524864045","lat":25.026506,"lon":121.523102,"name":"萊爾富","decorType":"convenience"},{"id":"node-4524864046","lat":25.026616,"lon":121.530913,"name":"谷墨商旅","decorType":"hotel"},{"id":"node-4545809189","lat":25.036268,"lon":121.524726,"name":"青島豆漿店","decorType":"restaurant"},{"id":"node-4572251390","lat":25.029734,"lon":121.529619,"name":"Noodles with soup","decorType":"burger"},{"id":"node-4572252790","lat":25.0299,"lon":121.529489,"name":"Braised pork lunchbox","decorType":"burger"},{"id":"node-4572253189","lat":25.030698,"lon":121.529452,"name":"Steam pau with filling","decorType":"burger"},{"id":"node-4602106491","lat":25.03319,"lon":121.527294,"name":"蜜密牛軋餅","decorType":"bakery"},{"id":"node-4622661490","lat":25.028259,"lon":121.530436,"name":"手天品社區食坊","decorType":"bakery"},{"id":"node-4627640537","lat":25.037593,"lon":121.525914,"name":"老張牛肉麵","decorType":"restaurant"},{"id":"node-4685231693","lat":25.03439,"lon":121.52393,"name":"Panos","decorType":"burger"},{"id":"node-4692145490","lat":25.035194,"lon":121.526884,"name":"小市場","decorType":"supermarket"},{"id":"node-4727092984","lat":25.026275,"lon":121.523282,"name":"舒果新米蘭蔬食","decorType":"restaurant"},{"id":"node-4787216822","lat":25.034954,"lon":121.528045,"name":"未命名餐廳","decorType":"restaurant"},{"id":"node-4787245124","lat":25.034709,"lon":121.528966,"name":"未命名服飾店","decorType":"clothing"},{"id":"node-4787245126","lat":25.034858,"lon":121.528065,"name":"未命名超市","decorType":"supermarket"},{"id":"node-4787249421","lat":25.034723,"lon":121.528926,"name":"未命名超市","decorType":"supermarket"},{"id":"node-4787249521","lat":25.035055,"lon":121.527958,"name":"未命名超市","decorType":"supermarket"},{"id":"node-4794445022","lat":25.034408,"lon":121.527749,"name":"未命名超市","decorType":"supermarket"},{"id":"node-4794445023","lat":25.034672,"lon":121.527951,"name":"未命名超市","decorType":"supermarket"},{"id":"node-4794445024","lat":25.034742,"lon":121.527841,"name":"未命名超市","decorType":"supermarket"},{"id":"node-4794445025","lat":25.034732,"lon":121.527965,"name":"未命名超市","decorType":"supermarket"},{"id":"node-4796495422","lat":25.032128,"lon":121.529586,"name":"Air Space","decorType":"clothing"},{"id":"node-4801848623","lat":25.034326,"lon":121.530118,"name":"7-Eleven","decorType":"convenience"},{"id":"node-4801848624","lat":25.034588,"lon":121.530088,"name":"未命名超市","decorType":"supermarket"},{"id":"node-4801848625","lat":25.034519,"lon":121.529985,"name":"Board Rich Pharmacy Stores","decorType":"pharmacy"},{"id":"node-4809325621","lat":25.034149,"lon":121.523781,"name":"財團法人基督教台灣信義會","decorType":"shrine"},{"id":"node-4811002026","lat":25.027172,"lon":121.524998,"name":"未命名美髮院","decorType":"hair_salon"},{"id":"node-4811002027","lat":25.027095,"lon":121.524615,"name":"未命名美髮院","decorType":"hair_salon"},{"id":"node-4824570521","lat":25.028937,"lon":121.530372,"name":"Matcha One","decorType":"restaurant"},{"id":"node-4836631357","lat":25.033366,"lon":121.532075,"name":"寶雅","decorType":"pharmacy"},{"id":"node-4836631358","lat":25.027833,"lon":121.523661,"name":"地府陰公廟","decorType":"shrine"},{"id":"node-4836631379","lat":25.023484,"lon":121.526898,"name":"小炮洗衣店","decorType":"laundry"},{"id":"node-4836631380","lat":25.024464,"lon":121.528219,"name":"職人鐵板燒","decorType":"restaurant"},{"id":"node-4836631393","lat":25.026793,"lon":121.523378,"name":"清真銳記國際牛肉麵","decorType":"restaurant"},{"id":"node-4836631397","lat":25.031379,"lon":121.52917,"name":"徐羅伐韓國料理","decorType":"restaurant"},{"id":"node-4836631398","lat":25.033839,"lon":121.531362,"name":"全國電子","decorType":"electronics"},{"id":"node-4836631399","lat":25.033858,"lon":121.531277,"name":"倍適得","decorType":"electronics"},{"id":"node-4836631400","lat":25.033399,"lon":121.531539,"name":"一之軒","decorType":"bakery"},{"id":"node-4836631401","lat":25.033317,"lon":121.532052,"name":"bon voyace","decorType":"clothing"},{"id":"node-4836631403","lat":25.033221,"lon":121.529768,"name":"kila kila","decorType":"clothing"},{"id":"node-4836631404","lat":25.033322,"lon":121.529818,"name":"屈臣氏","decorType":"pharmacy"},{"id":"node-4837986383","lat":25.038579,"lon":121.524811,"name":"百花商務飯店","decorType":"hotel"},{"id":"node-4867845221","lat":25.033531,"lon":121.523437,"name":"小南門福州傻瓜乾麵","decorType":"restaurant"},{"id":"node-4888000022","lat":25.032652,"lon":121.529687,"name":"天津葱抓餅","decorType":"restaurant"},{"id":"node-4911177348","lat":25.026833,"lon":121.529054,"name":"薩莉亞","decorType":"restaurant"},{"id":"node-4911177349","lat":25.0268,"lon":121.529351,"name":"7-Eleven","decorType":"convenience"},{"id":"node-4911177351","lat":25.026827,"lon":121.529159,"name":"紀咖啡","decorType":"cafe"},{"id":"node-4913299917","lat":25.031211,"lon":121.530255,"name":"永康階","decorType":"cafe"},{"id":"node-4913299918","lat":25.030563,"lon":121.530453,"name":"烘培者咖啡","decorType":"cafe"},{"id":"node-4913299919","lat":25.030453,"lon":121.530587,"name":"鴉埠咖啡","decorType":"cafe"},{"id":"node-4913299920","lat":25.030095,"lon":121.53063,"name":"咖啡小自由","decorType":"cafe"},{"id":"node-4972407539","lat":25.029568,"lon":121.526177,"name":"樂學書局","decorType":"library"},{"id":"node-4972417386","lat":25.031378,"lon":121.529464,"name":"呂桑食堂","decorType":"restaurant"},{"id":"node-5102929624","lat":25.031324,"lon":121.530005,"name":"味覺の感動","decorType":"bakery"},{"id":"node-5108661222","lat":25.026037,"lon":121.533913,"name":"未命名郵局","decorType":"post_office"},{"id":"node-5108661226","lat":25.026525,"lon":121.531814,"name":"7-Eleven","decorType":"convenience"},{"id":"node-5109347753","lat":25.024231,"lon":121.527863,"name":"小南風Cafe","decorType":"cafe"},{"id":"node-5109347761","lat":25.025093,"lon":121.529369,"name":"大腸麵線","decorType":"restaurant"},{"id":"node-5109347762","lat":25.024789,"lon":121.529373,"name":"牛魔王牛排館","decorType":"restaurant"},{"id":"node-5109347765","lat":25.025017,"lon":121.52936,"name":"Banana Crep","decorType":"sweetshop"},{"id":"node-5109347766","lat":25.025055,"lon":121.529478,"name":"正宗馬來西亞咖哩雞 肉骨茶","decorType":"restaurant"},{"id":"node-5109347767","lat":25.02582,"lon":121.529408,"name":"In House Residential","decorType":"restaurant"},{"id":"node-5109347768","lat":25.025946,"lon":121.531455,"name":"初魚料亭","decorType":"restaurant"},{"id":"node-5109347769","lat":25.026,"lon":121.531388,"name":"愛閱二手書坊","decorType":"library"},{"id":"node-5109347771","lat":25.02485,"lon":121.53178,"name":"永茂自助餐","decorType":"restaurant"},{"id":"node-5109347772","lat":25.024611,"lon":121.532622,"name":"未命名郵局","decorType":"post_office"},{"id":"node-5109347815","lat":25.023421,"lon":121.53213,"name":"耶和華見證人王國聚會所舊址","decorType":"shrine"},{"id":"node-5109347817","lat":25.02511,"lon":121.531555,"name":"7-Eleven","decorType":"convenience"},{"id":"node-5109347818","lat":25.025314,"lon":121.531384,"name":"老虎醬溫州大餛飩","decorType":"restaurant"},{"id":"node-5110242803","lat":25.029984,"lon":121.529486,"name":"九品溫州大餛飩","decorType":"restaurant"},{"id":"node-5110242804","lat":25.030031,"lon":121.529485,"name":"厝內咖哩特餐","decorType":"restaurant"},{"id":"node-5110242805","lat":25.030537,"lon":121.529734,"name":"小米酒咖啡館","decorType":"cafe"},{"id":"node-5110242806","lat":25.030439,"lon":121.529469,"name":"小虎咖啡","decorType":"cafe"},{"id":"node-5110242808","lat":25.033248,"lon":121.529521,"name":"豆豆里","decorType":"restaurant"},{"id":"node-5110245034","lat":25.032384,"lon":121.529201,"name":"府岸","decorType":"restaurant"},{"id":"node-5110245035","lat":25.032366,"lon":121.52964,"name":"鴻興餃子館","decorType":"restaurant"},{"id":"node-5110245036","lat":25.03219,"lon":121.529596,"name":"阿原","decorType":"pharmacy"},{"id":"node-5110245037","lat":25.032178,"lon":121.530032,"name":"AIR SPACE","decorType":"clothing"},{"id":"node-5110245038","lat":25.030985,"lon":121.53009,"name":"瑪町尼茲咖啡","decorType":"cafe"},{"id":"node-5110245039","lat":25.03175,"lon":121.530091,"name":"8% Cafe","decorType":"cafe"},{"id":"node-5110245040","lat":25.032369,"lon":121.529334,"name":"契飯食堂","decorType":"restaurant"},{"id":"node-5110245042","lat":25.028237,"lon":121.522204,"name":"家園小館","decorType":"restaurant"},{"id":"node-5110245049","lat":25.02729,"lon":121.522522,"name":"爭鮮gogo","decorType":"restaurant"},{"id":"node-5110245051","lat":25.026642,"lon":121.523073,"name":"康華禮拜堂","decorType":"shrine"},{"id":"node-5110245052","lat":25.024774,"lon":121.524297,"name":"未命名郵局","decorType":"post_office"},{"id":"node-5110245054","lat":25.025929,"lon":121.522973,"name":"全家便利商店","decorType":"convenience"},{"id":"node-5110245062","lat":25.033304,"lon":121.52907,"name":"江浙點心","decorType":"restaurant"},{"id":"node-5110245064","lat":25.033836,"lon":121.531476,"name":"方舟旅店","decorType":"hotel"},{"id":"node-5110245065","lat":25.033842,"lon":121.53143,"name":"學吧","decorType":"cafe"},{"id":"node-5110245067","lat":25.03377,"lon":121.53419,"name":"二馬食飲","decorType":"restaurant"},{"id":"node-5110245068","lat":25.034534,"lon":121.534634,"name":"元氣生活","decorType":"pharmacy"},{"id":"node-5110245071","lat":25.034079,"lon":121.534396,"name":"小林食堂","decorType":"restaurant"},{"id":"node-5110245072","lat":25.033945,"lon":121.534384,"name":"微笑藥師藥局","decorType":"pharmacy"},{"id":"node-5110245073","lat":25.033786,"lon":121.534332,"name":"cama café","decorType":"cafe"},{"id":"node-5110245074","lat":25.033785,"lon":121.534366,"name":"Subway","decorType":"burger"},{"id":"node-5110245076","lat":25.034563,"lon":121.533225,"name":"湛廬咖啡","decorType":"cafe"},{"id":"node-5110245077","lat":25.027269,"lon":121.522672,"name":"日立家電","decorType":"electronics"},{"id":"node-5132423623","lat":25.033651,"lon":121.527015,"name":"八方雲集","decorType":"burger"},{"id":"node-5160010421","lat":25.033306,"lon":121.52798,"name":"綺美髮式美容","decorType":"hair_salon"},{"id":"node-5274513723","lat":25.029468,"lon":121.526609,"name":"員林商店","decorType":"burger"},{"id":"node-5274513725","lat":25.030956,"lon":121.529453,"name":"好公道 江浙上海點心","decorType":"restaurant"},{"id":"node-5274522821","lat":25.024607,"lon":121.528702,"name":"活力飯","decorType":"burger"},{"id":"node-5293433761","lat":25.023344,"lon":121.524254,"name":"翁師傅私房牛肉麵","decorType":"restaurant"},{"id":"node-5334987521","lat":25.030675,"lon":121.529452,"name":"薑心比心","decorType":"cosmetics"},{"id":"node-5334987523","lat":25.027121,"lon":121.533121,"name":"未命名咖啡廳","decorType":"cafe"},{"id":"node-5334987524","lat":25.024569,"lon":121.529084,"name":"許記生煎包","decorType":"restaurant"},{"id":"node-5334987622","lat":25.025401,"lon":121.52945,"name":"小慢","decorType":"cafe"},{"id":"node-5334987623","lat":25.027523,"lon":121.53093,"name":"青田茶館","decorType":"cafe"},{"id":"node-5334987624","lat":25.031595,"lon":121.53012,"name":"未命名咖啡廳","decorType":"cafe"},{"id":"node-5334987625","lat":25.034199,"lon":121.530151,"name":"未命名餐廳","decorType":"restaurant"},{"id":"node-5342386622","lat":25.033263,"lon":121.530254,"name":"老鄧","decorType":"restaurant"},{"id":"node-5342423539","lat":25.023642,"lon":121.522444,"name":"葉嘉美食小館","decorType":"restaurant"},{"id":"node-5534946923","lat":25.024553,"lon":121.529199,"name":"Sassy","decorType":"clothing"},{"id":"node-5551776121","lat":25.026383,"lon":121.523191,"name":"西堤牛排","decorType":"restaurant"},{"id":"node-5551857321","lat":25.026176,"lon":121.522798,"name":"米哥烘焙坊","decorType":"cafe"},{"id":"node-5551859421","lat":25.026066,"lon":121.522906,"name":"米哥烘培坊","decorType":"restaurant"},{"id":"node-5551870926","lat":25.023769,"lon":121.525175,"name":"小銅板牛排","decorType":"restaurant"},{"id":"node-5551876724","lat":25.023182,"lon":121.524734,"name":"溫丼飯·定食","decorType":"restaurant"},{"id":"node-5551885221","lat":25.023723,"lon":121.525212,"name":"福岡日式簡餐","decorType":"restaurant"},{"id":"node-5551891023","lat":25.023189,"lon":121.524907,"name":"加里曼丹娘惹美食","decorType":"restaurant"},{"id":"node-5551919122","lat":25.023253,"lon":121.52815,"name":"vino","decorType":"restaurant"},{"id":"node-5551922165","lat":25.033799,"lon":121.534617,"name":"7-Eleven","decorType":"convenience"},{"id":"node-5551922328","lat":25.023719,"lon":121.528201,"name":"may姐","decorType":"restaurant"},{"id":"node-5551931023","lat":25.023494,"lon":121.529222,"name":"品客經典咖啡","decorType":"cafe"},{"id":"node-5551946521","lat":25.023652,"lon":121.529066,"name":"麗江南洋麵食館","decorType":"restaurant"},{"id":"node-5556141252","lat":25.037258,"lon":121.525003,"name":"吉恩日輕食","decorType":"restaurant"},{"id":"node-5678641621","lat":25.032562,"lon":121.530098,"name":"珍珠水果特調","decorType":"cafe"},{"id":"node-5717534177","lat":25.03037,"lon":121.529471,"name":"德宇蔘藥行","decorType":"pharmacy"},{"id":"node-5717534182","lat":25.03009,"lon":121.529481,"name":"豐賀大飯店","decorType":"restaurant"},{"id":"node-5717534183","lat":25.030439,"lon":121.52958,"name":"7-Eleven","decorType":"convenience"},{"id":"node-5717534184","lat":25.03061,"lon":121.529451,"name":"志明紅麵線","decorType":"restaurant"},{"id":"node-5717534186","lat":25.030204,"lon":121.529583,"name":"小雅男士理髮","decorType":"hair_salon"},{"id":"node-5717534187","lat":25.030091,"lon":121.529596,"name":"Hazza","decorType":"clothing"},{"id":"node-5717980238","lat":25.030454,"lon":121.529291,"name":"鴉埠咖啡","decorType":"cafe"},{"id":"node-5757688853","lat":25.031969,"lon":121.528799,"name":"思慕昔二館","decorType":"restaurant"},{"id":"node-5815865467","lat":25.03255,"lon":121.529571,"name":"芃麥鍋皇","decorType":"restaurant"},{"id":"node-5831389760","lat":25.023487,"lon":121.522728,"name":"自助洗衣 DIY","decorType":"laundry"},{"id":"node-5867101926","lat":25.027228,"lon":121.52563,"name":"Sugar Man Cafe","decorType":"cafe"},{"id":"node-5867166126","lat":25.024596,"lon":121.522266,"name":"Coffee Run Cafe","decorType":"cafe"},{"id":"node-5883210785","lat":25.031878,"lon":121.529535,"name":"沁園","decorType":"restaurant"},{"id":"node-5923303485","lat":25.03074,"lon":121.529651,"name":"成真咖啡","decorType":"cafe"},{"id":"node-5951203876","lat":25.035597,"lon":121.524532,"name":"星巴克","decorType":"cafe"},{"id":"node-5951203877","lat":25.035673,"lon":121.524539,"name":"康是美","decorType":"pharmacy"},{"id":"node-6037206729","lat":25.023371,"lon":121.530488,"name":"微光咖啡","decorType":"cafe"},{"id":"node-6068468713","lat":25.025277,"lon":121.529346,"name":"19咖啡輕食廚房","decorType":"restaurant"},{"id":"node-6068468714","lat":25.025142,"lon":121.529362,"name":"軒軒滷味","decorType":"restaurant"},{"id":"node-6068468866","lat":25.02521,"lon":121.529349,"name":"蛋幾ㄌㄟ","decorType":"restaurant"},{"id":"node-6068469001","lat":25.025243,"lon":121.529345,"name":"麻辣臭豆腐","decorType":"restaurant"},{"id":"node-6084183550","lat":25.031707,"lon":121.528895,"name":"I O U Cafe with love","decorType":"cafe"},{"id":"node-6140771049","lat":25.023703,"lon":121.527025,"name":"café à la mode","decorType":"cafe"},{"id":"node-6153674639","lat":25.038104,"lon":121.527326,"name":"未命名郵局","decorType":"post_office"},{"id":"node-6153674648","lat":25.037477,"lon":121.527827,"name":"台北市召會ㄧ會所","decorType":"shrine"},{"id":"node-6190476411","lat":25.023358,"lon":121.531197,"name":"洋芋屋","decorType":"restaurant"},{"id":"node-6190476413","lat":25.023549,"lon":121.531241,"name":"上鼎小館","decorType":"restaurant"},{"id":"node-6190476414","lat":25.023703,"lon":121.531428,"name":"鼎記燒臘","decorType":"restaurant"},{"id":"node-6190476415","lat":25.025352,"lon":121.531516,"name":"泰順街大樹下甜品攤","decorType":"restaurant"},{"id":"node-6218758342","lat":25.03501,"lon":121.534658,"name":"未命名郵局","decorType":"post_office"},{"id":"node-6312882489","lat":25.0334,"lon":121.528433,"name":"19臻味茶苑","decorType":"art_gallery"},{"id":"node-6357749103","lat":25.024214,"lon":121.5241,"name":"喜美男士理髮","decorType":"hair_salon"},{"id":"node-6357749104","lat":25.024236,"lon":121.524076,"name":"清心福全","decorType":"cafe"},{"id":"node-6357749107","lat":25.024748,"lon":121.522364,"name":"康是美","decorType":"pharmacy"},{"id":"node-6361856986","lat":25.027572,"lon":121.530623,"name":"黑潮","decorType":"cafe"},{"id":"node-6418121438","lat":25.024418,"lon":121.524697,"name":"愛妮雅化妝品","decorType":"cosmetics"},{"id":"node-6418121450","lat":25.02506,"lon":121.52236,"name":"Firewood Café","decorType":"cafe"},{"id":"node-6549014564","lat":25.027883,"lon":121.522554,"name":"福園簡餐","decorType":"restaurant"},{"id":"node-6549014567","lat":25.03019,"lon":121.527092,"name":"三進自助餐","decorType":"restaurant"},{"id":"node-6549014568","lat":25.030199,"lon":121.527002,"name":"里仁","decorType":"supermarket"},{"id":"node-6553170166","lat":25.02511,"lon":121.534521,"name":"Mamaway","decorType":"clothing"},{"id":"node-6579380103","lat":25.023669,"lon":121.52391,"name":"Vegluu","decorType":"burger"},{"id":"node-6579380107","lat":25.031572,"lon":121.529765,"name":"未命名公園","decorType":"park"},{"id":"node-6579380117","lat":25.023905,"lon":121.524033,"name":"Café de minuit","decorType":"cafe"},{"id":"node-6579380122","lat":25.032016,"lon":121.529677,"name":"未命名郵局","decorType":"post_office"},{"id":"node-6579380124","lat":25.023469,"lon":121.524112,"name":"未命名漢堡店","decorType":"burger"},{"id":"node-6700210230","lat":25.03154,"lon":121.528585,"name":"清邁城泰國料理","decorType":"restaurant"},{"id":"node-6700210232","lat":25.033421,"lon":121.531286,"name":"永唐四面佛","decorType":"shrine"},{"id":"node-6700210233","lat":25.033901,"lon":121.533378,"name":"六廚川客料理","decorType":"restaurant"},{"id":"node-6715198560","lat":25.030045,"lon":121.526724,"name":"尚大麵食館","decorType":"restaurant"},{"id":"node-6720843991","lat":25.02318,"lon":121.524896,"name":"Time Point","decorType":"cafe"},{"id":"node-6723076762","lat":25.031734,"lon":121.527247,"name":"好菜在嘉","decorType":"restaurant"},{"id":"node-6835396513","lat":25.034356,"lon":121.529763,"name":"有緣","decorType":"restaurant"},{"id":"node-6853430899","lat":25.029297,"lon":121.531038,"name":"歐牛排法餐廳","decorType":"restaurant"},{"id":"node-6909123832","lat":25.031106,"lon":121.529446,"name":"顧氏剌繡藝術","decorType":"art_gallery"},{"id":"node-6917308800","lat":25.024459,"lon":121.527248,"name":"未命名餐廳","decorType":"restaurant"},{"id":"node-6924514555","lat":25.036184,"lon":121.527395,"name":"手工水餃","decorType":"restaurant"},{"id":"node-6924514559","lat":25.03845,"lon":121.529352,"name":"Soleil Gallery","decorType":"art_gallery"},{"id":"node-6924514566","lat":25.036373,"lon":121.527944,"name":"胖老爹美式炸雞","decorType":"burger"},{"id":"node-6924514573","lat":25.036143,"lon":121.527041,"name":"莉園商行","decorType":"cafe"},{"id":"node-6924514576","lat":25.037617,"lon":121.527923,"name":"臺灣福春書店","decorType":"library"},{"id":"node-6924533485","lat":25.038035,"lon":121.528591,"name":"名山藝術","decorType":"art_gallery"},{"id":"node-6924533494","lat":25.035064,"lon":121.527082,"name":"樹咖啡","decorType":"cafe"},{"id":"node-6924533496","lat":25.038518,"lon":121.52541,"name":"Black & White","decorType":"clothing"},{"id":"node-6924533497","lat":25.038087,"lon":121.529235,"name":"未命名郵局","decorType":"post_office"},{"id":"node-6924533500","lat":25.036043,"lon":121.527411,"name":"Good Bo","decorType":"cafe"},{"id":"node-6924533508","lat":25.036235,"lon":121.527899,"name":"首爾炸雞","decorType":"burger"},{"id":"node-6924533509","lat":25.035992,"lon":121.528203,"name":"美容spa工作室","decorType":"cosmetics"},{"id":"node-6924533511","lat":25.036096,"lon":121.527246,"name":"The Breakfast Shop","decorType":"cafe"},{"id":"node-6924533512","lat":25.035466,"lon":121.528172,"name":"未命名漢堡店","decorType":"burger"},{"id":"node-6936432802","lat":25.033374,"lon":121.527337,"name":"著咖啡","decorType":"cafe"},{"id":"node-6936432803","lat":25.027059,"lon":121.525385,"name":"路易莎咖啡","decorType":"cafe"},{"id":"node-6936432806","lat":25.03508,"lon":121.527223,"name":"未命名漢堡店","decorType":"burger"},{"id":"node-6936432811","lat":25.035563,"lon":121.527017,"name":"金雞母","decorType":"restaurant"},{"id":"node-6936432814","lat":25.035626,"lon":121.52723,"name":"小美好牛肉麵","decorType":"restaurant"},{"id":"node-6936432816","lat":25.036066,"lon":121.527365,"name":"東門讚義麵房","decorType":"restaurant"},{"id":"node-6936432817","lat":25.03805,"lon":121.52806,"name":"皇膳餐廳","decorType":"restaurant"},{"id":"node-6936432818","lat":25.027661,"lon":121.525881,"name":"Bobonono","decorType":"sweetshop"},{"id":"node-6936432820","lat":25.035212,"lon":121.527245,"name":"未命名服飾店","decorType":"clothing"},{"id":"node-6984299298","lat":25.023915,"lon":121.528936,"name":"Mela Fashion","decorType":"clothing"},{"id":"node-7014013585","lat":25.024517,"lon":121.529354,"name":"龍泉街寶島牛肉麵","decorType":"restaurant"},{"id":"node-7023985582","lat":25.024433,"lon":121.528652,"name":"Devil Case","decorType":"electronics"},{"id":"node-7023985584","lat":25.02435,"lon":121.528641,"name":"迷客夏","decorType":"cafe"},{"id":"node-7023988886","lat":25.024056,"lon":121.528628,"name":"雲鼎阿二","decorType":"restaurant"},{"id":"node-7023988888","lat":25.023881,"lon":121.528603,"name":"友町冰品","decorType":"restaurant"},{"id":"node-7023988894","lat":25.026528,"lon":121.531893,"name":"亞訊通信行","decorType":"electronics"},{"id":"node-7023988906","lat":25.026208,"lon":121.530803,"name":"九和畫廊","decorType":"art_gallery"},{"id":"node-7023988907","lat":25.026206,"lon":121.53091,"name":"新陸豐","decorType":"art_gallery"},{"id":"node-7023988912","lat":25.026177,"lon":121.531204,"name":"喬麗名品","decorType":"clothing"},{"id":"node-7024678202","lat":25.031234,"lon":121.529453,"name":"50嵐","decorType":"cafe"},{"id":"node-7037337585","lat":25.035037,"lon":121.527022,"name":"魚バカ","decorType":"restaurant"},{"id":"node-7037337586","lat":25.035028,"lon":121.526857,"name":"東門關東煮","decorType":"restaurant"},{"id":"node-7037337587","lat":25.035074,"lon":121.526844,"name":"飛達香","decorType":"restaurant"},{"id":"node-7037337588","lat":25.035134,"lon":121.526872,"name":"東門御園坊","decorType":"restaurant"},{"id":"node-7037337589","lat":25.035249,"lon":121.526876,"name":"利隆餅店","decorType":"restaurant"},{"id":"node-7037337590","lat":25.035212,"lon":121.527075,"name":"富富の正","decorType":"restaurant"},{"id":"node-7037337591","lat":25.035064,"lon":121.527216,"name":"東門興記","decorType":"restaurant"},{"id":"node-7037337592","lat":25.034722,"lon":121.527123,"name":"東門鴨莊","decorType":"restaurant"},{"id":"node-7037337593","lat":25.034696,"lon":121.526953,"name":"羅媽媽米粉湯","decorType":"restaurant"},{"id":"node-7037337594","lat":25.034635,"lon":121.52702,"name":"東門餛飩豬腳","decorType":"restaurant"},{"id":"node-7037337595","lat":25.034537,"lon":121.526807,"name":"東門城滷肉飯","decorType":"restaurant"},{"id":"node-7037337596","lat":25.035101,"lon":121.525626,"name":"郭老師","decorType":"restaurant"},{"id":"node-7037337597","lat":25.035165,"lon":121.525497,"name":"潮州包子","decorType":"restaurant"},{"id":"node-7037337598","lat":25.035378,"lon":121.525145,"name":"61-HealthAider","decorType":"restaurant"},{"id":"node-7071606829","lat":25.034909,"lon":121.528783,"name":"未命名公園","decorType":"park"},{"id":"node-7080016490","lat":25.025172,"lon":121.534528,"name":"春花微笑","decorType":"restaurant"},{"id":"node-7089441302","lat":25.025408,"lon":121.534551,"name":"跳舞山羊咖啡","decorType":"cafe"},{"id":"node-7089441303","lat":25.025257,"lon":121.534536,"name":"伊品園烘培坊","decorType":"bakery"},{"id":"node-7089441304","lat":25.025144,"lon":121.534526,"name":"歐渥","decorType":"clothing"},{"id":"node-7105971475","lat":25.029741,"lon":121.530742,"name":"未命名郵局","decorType":"post_office"},{"id":"node-7106811998","lat":25.02456,"lon":121.529152,"name":"艾莉兒の店","decorType":"clothing"},{"id":"node-7106812000","lat":25.024524,"lon":121.529322,"name":"金甌滷味","decorType":"restaurant"},{"id":"node-7112817688","lat":25.023282,"lon":121.533222,"name":"欒樹下書房 / 咖啡廳","decorType":"cafe"},{"id":"node-7112865690","lat":25.025783,"lon":121.533647,"name":"TERRA 土然巧克力專門店","decorType":"sweetshop"},{"id":"node-7112871485","lat":25.025598,"lon":121.533637,"name":"淞美自助餐","decorType":"restaurant"},{"id":"node-7112871585","lat":25.025806,"lon":121.533509,"name":"鎖行","decorType":"hardware"},{"id":"node-7119108785","lat":25.033399,"lon":121.53218,"name":"Brook's","decorType":"clothing"},{"id":"node-7175334741","lat":25.033911,"lon":121.534433,"name":"心耕101美食","decorType":"restaurant"},{"id":"node-7175334777","lat":25.032574,"lon":121.529477,"name":"誠記越南麵食館","decorType":"restaurant"},{"id":"node-7175344489","lat":25.031267,"lon":121.52731,"name":"CopokaPIZZA 家庭式手工窯烤披薩","decorType":"restaurant"},{"id":"node-7175344495","lat":25.030641,"lon":121.526826,"name":"梁社漢排骨","decorType":"restaurant"},{"id":"node-7175344511","lat":25.03378,"lon":121.534782,"name":"元香沙茶火鍋店","decorType":"restaurant"},{"id":"node-7175344538","lat":25.029314,"lon":121.526628,"name":"大師兄牛肉麵","decorType":"restaurant"},{"id":"node-7175344545","lat":25.031879,"lon":121.532929,"name":"阿嬤G排","decorType":"restaurant"},{"id":"node-7175344551","lat":25.033395,"lon":121.530446,"name":"歐萊德","decorType":"cosmetics"},{"id":"node-7175344571","lat":25.030587,"lon":121.527159,"name":"Muko Brunch","decorType":"restaurant"},{"id":"node-7175344614","lat":25.02839,"lon":121.531883,"name":"青田藝集","decorType":"restaurant"},{"id":"node-7175344621","lat":25.026373,"lon":121.533664,"name":"池上傳統便當","decorType":"restaurant"},{"id":"node-7175344638","lat":25.031338,"lon":121.527327,"name":"禾欣素食","decorType":"restaurant"},{"id":"node-7175344645","lat":25.031253,"lon":121.527275,"name":"犬犬家","decorType":"restaurant"},{"id":"node-7175344690","lat":25.030068,"lon":121.526725,"name":"金華素食滷味素食麵","decorType":"restaurant"},{"id":"node-7175344696","lat":25.026766,"lon":121.534117,"name":"陳記營養早餐店","decorType":"restaurant"},{"id":"node-7175344720","lat":25.03112,"lon":121.526913,"name":"名辰牛肉麵","decorType":"restaurant"},{"id":"node-7175344726","lat":25.030224,"lon":121.526894,"name":"吃肉 EatMeat 韓式烤肉 永康店","decorType":"restaurant"},{"id":"node-7175344761","lat":25.030016,"lon":121.526948,"name":"全國健康素食自助餐","decorType":"restaurant"},{"id":"node-7175344766","lat":25.02662,"lon":121.532065,"name":"元亭海鮮麵疙瘩","decorType":"restaurant"},{"id":"node-7175344779","lat":25.032602,"lon":121.529374,"name":"朱記餡餅粥店","decorType":"restaurant"},{"id":"node-7175344790","lat":25.031237,"lon":121.527349,"name":"當家小食堂","decorType":"restaurant"},{"id":"node-7282087888","lat":25.035281,"lon":121.527615,"name":"小美好牛肉麵","decorType":"restaurant"},{"id":"node-7594596224","lat":25.029847,"lon":121.529354,"name":"餃子樂","decorType":"restaurant"},{"id":"node-7695463323","lat":25.025915,"lon":121.534067,"name":"佰樂健","decorType":"restaurant"},{"id":"node-7695463331","lat":25.03457,"lon":121.533638,"name":"Picker輕食館","decorType":"restaurant"},{"id":"node-7726663785","lat":25.033842,"lon":121.532064,"name":"鼎泰豐","decorType":"restaurant"},{"id":"node-7734563456","lat":25.035882,"lon":121.524615,"name":"路易莎咖啡","decorType":"cafe"},{"id":"node-7734563457","lat":25.036068,"lon":121.524682,"name":"龍泰創意烘焙坊","decorType":"bakery"},{"id":"node-7734563459","lat":25.036254,"lon":121.524856,"name":"開嗑早午餐","decorType":"restaurant"},{"id":"node-7734563460","lat":25.036361,"lon":121.52474,"name":"龍坊上海點心店","decorType":"restaurant"},{"id":"node-7734563461","lat":25.036418,"lon":121.524758,"name":"長高高早餐店","decorType":"restaurant"},{"id":"node-7734563462","lat":25.036497,"lon":121.524785,"name":"福州乾麵店","decorType":"restaurant"},{"id":"node-7734563463","lat":25.036559,"lon":121.524821,"name":"美星麵食館","decorType":"restaurant"},{"id":"node-7734563464","lat":25.037096,"lon":121.525003,"name":"布朗雞脆皮雞排","decorType":"restaurant"},{"id":"node-7734563465","lat":25.038034,"lon":121.525752,"name":"樂波波咖啡","decorType":"cafe"},{"id":"node-7734563466","lat":25.037987,"lon":121.527121,"name":"紅爐牛排館","decorType":"restaurant"},{"id":"node-7759801702","lat":25.024601,"lon":121.528716,"name":"阿諾可麗餅","decorType":"restaurant"},{"id":"node-7759803934","lat":25.024679,"lon":121.529039,"name":"師大夜市生炒花枝羹","decorType":"restaurant"},{"id":"node-7759805786","lat":25.024604,"lon":121.52897,"name":"許記生煎包","decorType":"restaurant"},{"id":"node-7759809491","lat":25.024654,"lon":121.529187,"name":"北港豆花","decorType":"restaurant"},{"id":"node-7759810794","lat":25.02467,"lon":121.529115,"name":"師大鹹酥雞","decorType":"restaurant"},{"id":"node-7759815667","lat":25.024676,"lon":121.528929,"name":"老天天愛玉粉圓","decorType":"restaurant"},{"id":"node-7765178668","lat":25.035502,"lon":121.532487,"name":"呷尚宝","decorType":"restaurant"},{"id":"node-7765178674","lat":25.032661,"lon":121.530682,"name":"petit doux 微兜 Café Bistro","decorType":"restaurant"},{"id":"node-7765187632","lat":25.028351,"lon":121.529466,"name":"旬彩四季料理","decorType":"restaurant"},{"id":"node-7765187633","lat":25.029343,"lon":121.52398,"name":"團圓包","decorType":"restaurant"},{"id":"node-7765187634","lat":25.028556,"lon":121.528961,"name":"Bea’s BISTRO 美式餐館","decorType":"restaurant"},{"id":"node-7765187656","lat":25.028325,"lon":121.529523,"name":"旬彩居酒屋(琲味美珈)","decorType":"restaurant"},{"id":"node-7765187672","lat":25.028409,"lon":121.529778,"name":"耍性子","decorType":"restaurant"},{"id":"node-7765187678","lat":25.035382,"lon":121.53303,"name":"金瑪麗義大利麵","decorType":"restaurant"},{"id":"node-7765187713","lat":25.028516,"lon":121.529028,"name":"Nom Nom","decorType":"restaurant"},{"id":"node-7765187714","lat":25.036034,"lon":121.528433,"name":"馬家燒餅","decorType":"restaurant"},{"id":"node-7765187725","lat":25.030021,"lon":121.531149,"name":"太來生活館","decorType":"restaurant"},{"id":"node-7765187745","lat":25.028282,"lon":121.52705,"name":"魔法灶咖","decorType":"restaurant"},{"id":"node-7765187758","lat":25.02838,"lon":121.523832,"name":"林記燈籠牛肉麵","decorType":"restaurant"},{"id":"node-7765187803","lat":25.036318,"lon":121.530218,"name":"王者桌遊","decorType":"restaurant"},{"id":"node-7765187810","lat":25.027842,"lon":121.530416,"name":"鐵支涮火鍋","decorType":"restaurant"},{"id":"node-7765187814","lat":25.027242,"lon":121.525191,"name":"九日風","decorType":"restaurant"},{"id":"node-7765187820","lat":25.030287,"lon":121.524973,"name":"金錦町","decorType":"restaurant"},{"id":"node-7765187821","lat":25.029083,"lon":121.524472,"name":"老王紅燒牛肉麵","decorType":"restaurant"},{"id":"node-7765187826","lat":25.028283,"lon":121.529952,"name":"出爐中的小巴黎","decorType":"restaurant"},{"id":"node-7765187845","lat":25.027066,"lon":121.525148,"name":"老虎醬 溫州大餛飩","decorType":"restaurant"},{"id":"node-7765187853","lat":25.0355,"lon":121.53479,"name":"都都麵食館","decorType":"restaurant"},{"id":"node-7765187858","lat":25.029454,"lon":121.52662,"name":"不一樣饅頭店","decorType":"restaurant"},{"id":"node-7765187866","lat":25.028213,"lon":121.530364,"name":"A.B HOUSE 義式私房料理","decorType":"restaurant"},{"id":"node-7765187887","lat":25.029131,"lon":121.524231,"name":"貳房苑","decorType":"restaurant"},{"id":"node-7765187954","lat":25.034863,"lon":121.528597,"name":"客家蘿蔔糕","decorType":"restaurant"},{"id":"node-7765187955","lat":25.036961,"lon":121.528127,"name":"下酒菜 串燒","decorType":"restaurant"},{"id":"node-7765187965","lat":25.027632,"lon":121.534462,"name":"ROYAL / INDONESIAN FOOD ( Halal )","decorType":"restaurant"},{"id":"node-7765187967","lat":25.027143,"lon":121.524085,"name":"佳味蘿蔔絲餅","decorType":"restaurant"},{"id":"node-7765187969","lat":25.028025,"lon":121.532524,"name":"青田七六","decorType":"restaurant"},{"id":"node-7765187990","lat":25.03619,"lon":121.5323,"name":"微笑老蕭拉麵","decorType":"restaurant"},{"id":"node-7765188000","lat":25.027547,"lon":121.530635,"name":"葵．豚酒館","decorType":"restaurant"},{"id":"node-7765188013","lat":25.027514,"lon":121.531212,"name":"和合青田","decorType":"restaurant"},{"id":"node-7765188024","lat":25.038519,"lon":121.528658,"name":"四平手工包子","decorType":"restaurant"},{"id":"node-7765188027","lat":25.027772,"lon":121.524047,"name":"餵Way!","decorType":"restaurant"},{"id":"node-7765188393","lat":25.028281,"lon":121.529864,"name":"以馬忤斯Emmaus美味關係","decorType":"restaurant"},{"id":"node-7765188400","lat":25.028889,"lon":121.525807,"name":"鮮堡漢堡師大店","decorType":"restaurant"},{"id":"node-7765188402","lat":25.029206,"lon":121.530714,"name":"Les Piccola","decorType":"restaurant"},{"id":"node-7765188405","lat":25.028893,"lon":121.52564,"name":"台北月見ル君想フ","decorType":"restaurant"},{"id":"node-7765188416","lat":25.03021,"lon":121.523057,"name":"無二會所","decorType":"restaurant"},{"id":"node-7765188419","lat":25.028871,"lon":121.526932,"name":"光合箱子 東門店","decorType":"restaurant"},{"id":"node-7765188440","lat":25.027089,"lon":121.525535,"name":"燕媽媽廚房","decorType":"restaurant"},{"id":"node-7765188466","lat":25.02741,"lon":121.52521,"name":"早餐達人","decorType":"restaurant"},{"id":"node-7765188483","lat":25.028782,"lon":121.527484,"name":"Uncle Q 創意蔬食","decorType":"restaurant"},{"id":"node-7772741776","lat":25.038477,"lon":121.526946,"name":"和德快餐店","decorType":"restaurant"},{"id":"node-7783377296","lat":25.034641,"lon":121.527795,"name":"東門赤肉羹","decorType":"restaurant"},{"id":"node-7783377297","lat":25.035566,"lon":121.527726,"name":"利美水果","decorType":"supermarket"},{"id":"node-7800498001","lat":25.02836,"lon":121.52921,"name":"麥味登","decorType":"restaurant"},{"id":"node-7819959606","lat":25.026074,"lon":121.532268,"name":"茉莉二手書店","decorType":"library"},{"id":"node-7845315802","lat":25.024434,"lon":121.531319,"name":"竹軒二手書店","decorType":"library"},{"id":"node-7984625783","lat":25.033782,"lon":121.52803,"name":"路易莎咖啡","decorType":"cafe"},{"id":"node-8012977283","lat":25.024946,"lon":121.523189,"name":"牛雜","decorType":"restaurant"},{"id":"node-8012977284","lat":25.024886,"lon":121.523257,"name":"鴉片粉圓","decorType":"restaurant"},{"id":"node-8013003385","lat":25.02503,"lon":121.523092,"name":"勇伯好吃土雞肉專賣店","decorType":"restaurant"},{"id":"node-8013003386","lat":25.025717,"lon":121.522605,"name":"國都甜不辣","decorType":"restaurant"},{"id":"node-8013003387","lat":25.024885,"lon":121.523752,"name":"鹹粥","decorType":"restaurant"},{"id":"node-8013003388","lat":25.024708,"lon":121.523919,"name":"客來源素坊","decorType":"restaurant"},{"id":"node-8013003389","lat":25.023643,"lon":121.522539,"name":"吃吐趣","decorType":"restaurant"},{"id":"node-8013003390","lat":25.023521,"lon":121.522666,"name":"夯啥哇櫃","decorType":"restaurant"},{"id":"node-8013003391","lat":25.023376,"lon":121.522953,"name":"豪家美而美","decorType":"restaurant"},{"id":"node-8118207171","lat":25.036561,"lon":121.522634,"name":"萊爾富","decorType":"convenience"},{"id":"node-8118207172","lat":25.036476,"lon":121.523333,"name":"7-Eleven","decorType":"convenience"},{"id":"node-8118207173","lat":25.034174,"lon":121.53126,"name":"7-Eleven","decorType":"convenience"},{"id":"node-8132903118","lat":25.034445,"lon":121.52789,"name":"吉利豆干","decorType":"burger"},{"id":"node-8145680544","lat":25.028274,"lon":121.530755,"name":"五方食藏","decorType":"restaurant"},{"id":"node-8145680545","lat":25.030056,"lon":121.528185,"name":"游壽司","decorType":"restaurant"},{"id":"node-8145680546","lat":25.030261,"lon":121.528234,"name":"金華街咖哩屋","decorType":"restaurant"},{"id":"node-8145680548","lat":25.032075,"lon":121.52921,"name":"樂麵屋","decorType":"restaurant"},{"id":"node-8145680549","lat":25.031892,"lon":121.529483,"name":"人从众","decorType":"restaurant"},{"id":"node-8145680550","lat":25.033243,"lon":121.528532,"name":"Nabiya韓式","decorType":"restaurant"},{"id":"node-8145680551","lat":25.033647,"lon":121.528986,"name":"齊民市集","decorType":"restaurant"},{"id":"node-8327954256","lat":25.034828,"lon":121.525116,"name":"恬野書","decorType":"library"},{"id":"node-8378684481","lat":25.030979,"lon":121.528903,"name":"希臘左巴","decorType":"restaurant"},{"id":"node-8432380477","lat":25.031769,"lon":121.525287,"name":"愛國金山路口","decorType":"bus_stop"},{"id":"node-8467317966","lat":25.031913,"lon":121.529416,"name":"龍涎居","decorType":"restaurant"},{"id":"node-8467317972","lat":25.031584,"lon":121.529472,"name":"Coco","decorType":"cafe"},{"id":"node-8467317973","lat":25.031491,"lon":121.529468,"name":"viga wang","decorType":"clothing"},{"id":"node-8467317978","lat":25.033262,"lon":121.529771,"name":"HPW Time","decorType":"clothing"},{"id":"node-8467317979","lat":25.033248,"lon":121.529769,"name":"The Ladywore","decorType":"clothing"},{"id":"node-8467317980","lat":25.033238,"lon":121.529649,"name":"小原田日本料理","decorType":"restaurant"},{"id":"node-8467317982","lat":25.032997,"lon":121.529748,"name":"Kirna","decorType":"clothing"},{"id":"node-8467317983","lat":25.032969,"lon":121.529736,"name":"Clark","decorType":"clothing"},{"id":"node-8467318003","lat":25.032032,"lon":121.529551,"name":"天仁茗茶","decorType":"cafe"},{"id":"node-8476141606","lat":25.030726,"lon":121.530003,"name":"羊毛與花 ‧ 永康","decorType":"cafe"},{"id":"node-8476141607","lat":25.030724,"lon":121.530126,"name":"草原風蒙古火鍋","decorType":"restaurant"},{"id":"node-8524769282","lat":25.033159,"lon":121.529222,"name":"7-Eleven","decorType":"convenience"},{"id":"node-8524769285","lat":25.033332,"lon":121.529241,"name":"Saibaba Ethnique","decorType":"clothing"},{"id":"node-8524769292","lat":25.032706,"lon":121.529724,"name":"誠記越南麵食館","decorType":"restaurant"},{"id":"node-8524769294","lat":25.033807,"lon":121.527465,"name":"全家便利商店","decorType":"convenience"},{"id":"node-8524769296","lat":25.033645,"lon":121.527388,"name":"北平西來順","decorType":"restaurant"},{"id":"node-8524769297","lat":25.033623,"lon":121.527382,"name":"能量小姐","decorType":"restaurant"},{"id":"node-8524769301","lat":25.035916,"lon":121.524661,"name":"小地方","decorType":"cafe"},{"id":"node-8524769302","lat":25.035944,"lon":121.524622,"name":"全家便利商店","decorType":"convenience"},{"id":"node-8732974903","lat":25.025882,"lon":121.522378,"name":"蘋果203","decorType":"restaurant"},{"id":"node-8749058835","lat":25.026155,"lon":121.523398,"name":"蒐機王","decorType":"electronics"},{"id":"node-9000354674","lat":25.027507,"lon":121.5224,"name":"和牛涮","decorType":"restaurant"},{"id":"node-9002022588","lat":25.026782,"lon":121.522674,"name":"捷運古亭站(羅斯福)","decorType":"bus_stop"},{"id":"node-9049638493","lat":25.025197,"lon":121.524093,"name":"黑沃咖啡","decorType":"cafe"},{"id":"node-9550871037","lat":25.026789,"lon":121.529418,"name":"三商巧福","decorType":"restaurant"},{"id":"node-9550879014","lat":25.026786,"lon":121.529442,"name":"福勝亭","decorType":"restaurant"},{"id":"node-9550892943","lat":25.026821,"lon":121.529196,"name":"星巴克","decorType":"cafe"},{"id":"node-9599444388","lat":25.023804,"lon":121.533787,"name":"恬園餐廳","decorType":"restaurant"},{"id":"node-9681818521","lat":25.029154,"lon":121.529611,"name":"一票人票畫空間","decorType":"art_gallery"},{"id":"node-9681818522","lat":25.028944,"lon":121.530073,"name":"安德昇藝術拍賣","decorType":"art_gallery"},{"id":"node-9681818523","lat":25.028978,"lon":121.530155,"name":"GEORGE HOUSE 世界精品咖啡專賣","decorType":"cafe"},{"id":"node-9717369813","lat":25.02572,"lon":121.533496,"name":"蝦皮店到店","decorType":"convenience"},{"id":"node-9756938130","lat":25.026737,"lon":121.524375,"name":"千藝畫廊","decorType":"art_gallery"},{"id":"node-9756938132","lat":25.026738,"lon":121.524294,"name":"龍瑞宣紙","decorType":"art_gallery"},{"id":"node-9756938133","lat":25.026738,"lon":121.524254,"name":"長春堂蔘藥行","decorType":"pharmacy"},{"id":"node-9756938134","lat":25.026772,"lon":121.523958,"name":"文逸軒畫苑","decorType":"art_gallery"},{"id":"node-9756938135","lat":25.02709,"lon":121.524768,"name":"文明軒畫廊","decorType":"art_gallery"},{"id":"node-9756938136","lat":25.027095,"lon":121.524732,"name":"嘉仁藥房","decorType":"pharmacy"},{"id":"node-9965180057","lat":25.027392,"lon":121.522494,"name":"金石堂書店","decorType":"library"},{"id":"node-9965180058","lat":25.027653,"lon":121.522309,"name":"房角石教會","decorType":"shrine"},{"id":"node-10095009370","lat":25.025572,"lon":121.533417,"name":"活菌豬","decorType":"restaurant"},{"id":"node-10106184284","lat":25.027307,"lon":121.522198,"name":"捷運古亭站(羅斯福)","decorType":"bus_stop"},{"id":"node-10106184285","lat":25.027315,"lon":121.522217,"name":"捷運古亭站(羅斯福)","decorType":"bus_stop"},{"id":"node-10569226120","lat":25.030308,"lon":121.52638,"name":"Simple Kaffa","decorType":"cafe"},{"id":"node-10773009428","lat":25.023928,"lon":121.528804,"name":"NENE CHICKEN","decorType":"restaurant"},{"id":"node-10773009429","lat":25.023928,"lon":121.528839,"name":"雞肉飯專賣店","decorType":"restaurant"},{"id":"node-10773009430","lat":25.023922,"lon":121.528898,"name":"WAVE SHARE","decorType":"clothing"},{"id":"node-10773009431","lat":25.024013,"lon":121.528744,"name":"TEMA 服飾","decorType":"clothing"},{"id":"node-10773009432","lat":25.024023,"lon":121.52885,"name":"M&D 服飾","decorType":"clothing"},{"id":"node-10775195521","lat":25.023905,"lon":121.524466,"name":"百八魚場","decorType":"restaurant"},{"id":"node-10775195522","lat":25.02395,"lon":121.524405,"name":"聚日本鍋物","decorType":"restaurant"},{"id":"node-10775195527","lat":25.024002,"lon":121.524358,"name":"7-Eleven","decorType":"convenience"},{"id":"node-10873367252","lat":25.024262,"lon":121.524804,"name":"精西卡精品","decorType":"clothing"},{"id":"node-10970149156","lat":25.023974,"lon":121.525013,"name":"未命名麵包店","decorType":"bakery"},{"id":"node-11034268576","lat":25.026772,"lon":121.523631,"name":"越南美食","decorType":"restaurant"},{"id":"node-11271702532","lat":25.025665,"lon":121.523748,"name":"路易莎咖啡","decorType":"cafe"},{"id":"node-11294014326","lat":25.033811,"lon":121.527728,"name":"Two Shots","decorType":"cafe"},{"id":"node-11294029207","lat":25.033776,"lon":121.527701,"name":"Dongmen 3","decorType":"hotel"},{"id":"node-11294039990","lat":25.033411,"lon":121.530586,"name":"Dreamers","decorType":"cafe"},{"id":"node-11294041163","lat":25.033797,"lon":121.527672,"name":"Peter Better","decorType":"cafe"},{"id":"node-11387164678","lat":25.033309,"lon":121.53509,"name":"未命名車站","decorType":"station"},{"id":"node-11629425601","lat":25.035599,"lon":121.532999,"name":"陶陶居","decorType":"restaurant"},{"id":"node-11629425602","lat":25.035509,"lon":121.533008,"name":"泰味閣","decorType":"restaurant"},{"id":"node-11870972560","lat":25.023423,"lon":121.529285,"name":"初憶豆花","decorType":"restaurant"},{"id":"node-11870972561","lat":25.030317,"lon":121.531254,"name":"月半咖啡","decorType":"cafe"},{"id":"node-11911395342","lat":25.033721,"lon":121.52821,"name":"健康製作所","decorType":"restaurant"},{"id":"node-11964074796","lat":25.033073,"lon":121.532469,"name":"全聯福利中心","decorType":"supermarket"},{"id":"node-12030508379","lat":25.027739,"lon":121.531385,"name":"蒙藏文化中心","decorType":"art_gallery"},{"id":"node-12060449339","lat":25.027583,"lon":121.522334,"name":"唐緹","decorType":"sweetshop"},{"id":"node-12070112060","lat":25.026729,"lon":121.529983,"name":"Subway","decorType":"burger"},{"id":"node-12070739255","lat":25.025577,"lon":121.528254,"name":"太醫藥局","decorType":"pharmacy"},{"id":"node-12070739256","lat":25.025627,"lon":121.528547,"name":"cama café","decorType":"cafe"},{"id":"node-12088965190","lat":25.023549,"lon":121.525289,"name":"Pizza rock","decorType":"restaurant"},{"id":"node-12088965192","lat":25.027223,"lon":121.523119,"name":"凱樂烘焙坊","decorType":"bakery"},{"id":"node-12176262524","lat":25.031833,"lon":121.532703,"name":"聲色","decorType":"cafe"},{"id":"node-12438377365","lat":25.026039,"lon":121.522516,"name":"明洞食堂","decorType":"restaurant"},{"id":"node-12441137721","lat":25.036326,"lon":121.524726,"name":"麥迪兒","decorType":"restaurant"},{"id":"node-12441137731","lat":25.037773,"lon":121.525207,"name":"The Platypus Café","decorType":"cafe"},{"id":"node-12466521473","lat":25.033647,"lon":121.526683,"name":"伊是曼寧","decorType":"cafe"},{"id":"node-12466521475","lat":25.033836,"lon":121.526397,"name":"瑞麟美而美","decorType":"burger"},{"id":"node-12466735856","lat":25.023222,"lon":121.525063,"name":"米澤製麵","decorType":"restaurant"},{"id":"node-12473132250","lat":25.036207,"lon":121.523163,"name":"未命名郵局","decorType":"post_office"},{"id":"node-12473162720","lat":25.037531,"lon":121.524877,"name":"未命名郵局","decorType":"post_office"},{"id":"node-12541886676","lat":25.030239,"lon":121.522314,"name":"泰和樓","decorType":"restaurant"},{"id":"node-12545885501","lat":25.02598,"lon":121.523491,"name":"芝生食堂 台北古亭店","decorType":"restaurant"},{"id":"node-12748026349","lat":25.025097,"lon":121.523474,"name":"勉強中 日式海鮮手作料理","decorType":"restaurant"},{"id":"node-12765045705","lat":25.02438,"lon":121.528168,"name":"未命名圖書館／書店","decorType":"library"},{"id":"node-12765045706","lat":25.024464,"lon":121.528127,"name":"東大門韓國特色料理","decorType":"restaurant"},{"id":"node-12765045707","lat":25.024381,"lon":121.527925,"name":"印度風情料理店","decorType":"restaurant"},{"id":"node-12765738843","lat":25.024523,"lon":121.528234,"name":"咖哩戰線","decorType":"restaurant"},{"id":"node-12765774339","lat":25.024514,"lon":121.528232,"name":"丼口飯食","decorType":"restaurant"},{"id":"node-12765774340","lat":25.024556,"lon":121.527281,"name":"銀兔湯咖哩","decorType":"restaurant"},{"id":"node-12894669424","lat":25.027265,"lon":121.522738,"name":"摩斯漢堡","decorType":"burger"},{"id":"node-12894669425","lat":25.027265,"lon":121.522776,"name":"Oh My Girl","decorType":"clothing"},{"id":"node-12894669426","lat":25.027217,"lon":121.523291,"name":"九怡堂畫廊","decorType":"art_gallery"},{"id":"node-12894669427","lat":25.027223,"lon":121.523205,"name":"先喝道","decorType":"cafe"},{"id":"node-12894669428","lat":25.027234,"lon":121.523075,"name":"友生昌筆墨專家","decorType":"art_gallery"},{"id":"node-12894669429","lat":25.027243,"lon":121.522969,"name":"德正","decorType":"cafe"},{"id":"node-12894669430","lat":25.02725,"lon":121.52293,"name":"十盛","decorType":"cafe"},{"id":"node-12894669431","lat":25.027252,"lon":121.522895,"name":"bread n Butter outlet","decorType":"clothing"},{"id":"node-12894669437","lat":25.026755,"lon":121.523357,"name":"宏臨美而美","decorType":"burger"},{"id":"node-12894669439","lat":25.026834,"lon":121.52326,"name":"國泰棉紙","decorType":"art_gallery"},{"id":"node-12894669441","lat":25.026871,"lon":121.523482,"name":"未命名郵局","decorType":"post_office"},{"id":"node-12894669442","lat":25.026785,"lon":121.523521,"name":"雪球咖啡","decorType":"cafe"},{"id":"node-12894669447","lat":25.027221,"lon":121.523324,"name":"Mo-Bo","decorType":"clothing"},{"id":"node-12894669449","lat":25.026769,"lon":121.524024,"name":"溫莉美顏生活館","decorType":"art_gallery"},{"id":"node-13079901567","lat":25.024908,"lon":121.522272,"name":"戰鬥雞","decorType":"restaurant"},{"id":"node-13121398530","lat":25.024739,"lon":121.527321,"name":"就諦書屋","decorType":"library"},{"id":"node-13161173141","lat":25.0279,"lon":121.530618,"name":"咖啡黑潮","decorType":"cafe"},{"id":"node-13175236301","lat":25.030002,"lon":121.52837,"name":"Out Of Office Coffee Roastery","decorType":"cafe"},{"id":"node-13337714413","lat":25.030496,"lon":121.527547,"name":"AKA Hotel","decorType":"hotel"},{"id":"node-13337714414","lat":25.03016,"lon":121.527801,"name":"全家便利商店","decorType":"convenience"},{"id":"node-13337714415","lat":25.030523,"lon":121.527888,"name":"Sui","decorType":"restaurant"},{"id":"node-13413775729","lat":25.034169,"lon":121.525586,"name":"萊爾富","decorType":"convenience"},{"id":"node-13428008801","lat":25.030659,"lon":121.524851,"name":"Check-in café","decorType":"cafe"},{"id":"way-55259184","lat":25.031766,"lon":121.529805,"name":"永康公園","decorType":"park"},{"id":"way-105822432","lat":25.031507,"lon":121.534787,"name":"未命名森林","decorType":"forest"},{"id":"way-106335658","lat":25.028009,"lon":121.527981,"name":"錦安公園","decorType":"park"},{"id":"way-138840350","lat":25.029645,"lon":121.531179,"name":"金華公園","decorType":"park"},{"id":"way-138996582","lat":25.031026,"lon":121.52847,"name":"淡江大學城區部","decorType":"university"},{"id":"way-171301286","lat":25.037345,"lon":121.523591,"name":"綜合活動中心","decorType":"stadium"},{"id":"way-197909811","lat":25.029592,"lon":121.529592,"name":"錦華綠地","decorType":"park"},{"id":"way-202251421","lat":25.025149,"lon":121.526274,"name":"游泳館","decorType":"university"},{"id":"way-202262785","lat":25.024971,"lon":121.527037,"name":"勤大樓","decorType":"university"},{"id":"way-202262786","lat":25.025227,"lon":121.527039,"name":"樸大樓","decorType":"university"},{"id":"way-202262787","lat":25.02569,"lon":121.528077,"name":"文薈廳","decorType":"university"},{"id":"way-202262793","lat":25.025654,"lon":121.527465,"name":"普通大樓","decorType":"university"},{"id":"way-202262794","lat":25.026104,"lon":121.528188,"name":"樂智樓","decorType":"university"},{"id":"way-202262796","lat":25.0263,"lon":121.526778,"name":"禮堂","decorType":"university"},{"id":"way-202262800","lat":25.025414,"lon":121.528183,"name":"樂群樓","decorType":"university"},{"id":"way-206087135","lat":25.02587,"lon":121.527223,"name":"未命名森林","decorType":"forest"},{"id":"way-206087138","lat":25.025815,"lon":121.527797,"name":"維也納森林","decorType":"forest"},{"id":"way-206087139","lat":25.026347,"lon":121.527233,"name":"未命名森林","decorType":"forest"},{"id":"way-206087143","lat":25.025173,"lon":121.52784,"name":"正大樓","decorType":"university"},{"id":"way-206087144","lat":25.024921,"lon":121.527832,"name":"誠大樓","decorType":"university"},{"id":"way-232563663","lat":25.038348,"lon":121.522632,"name":"台北好好看系列二","decorType":"park"},{"id":"way-232564424","lat":25.038032,"lon":121.522258,"name":"未命名神社","decorType":"shrine"},{"id":"way-238572687","lat":25.02372,"lon":121.533878,"name":"福華文教會館","decorType":"hotel"},{"id":"way-249164428","lat":25.02624,"lon":121.527552,"name":"水平方","decorType":"waterside"},{"id":"way-261638492","lat":25.03526,"lon":121.531793,"name":"連雲公園","decorType":"park"},{"id":"way-271054036","lat":25.035152,"lon":121.53506,"name":"民榮公園","decorType":"park"},{"id":"way-304599944","lat":25.024625,"lon":121.531643,"name":"泰順公園","decorType":"park"},{"id":"way-306235115","lat":25.03778,"lon":121.533524,"name":"松哖酒店","decorType":"hotel"},{"id":"way-306275224","lat":25.035698,"lon":121.531488,"name":"未命名公園","decorType":"park"},{"id":"way-309515231","lat":25.025772,"lon":121.535022,"name":"未命名橋樑","decorType":"bridge"},{"id":"way-312673212","lat":25.023817,"lon":121.527877,"name":"梁實秋故居","decorType":"art_gallery"},{"id":"way-324041282","lat":25.034467,"lon":121.527751,"name":"東門旅店","decorType":"hotel"},{"id":"way-345683923","lat":25.032025,"lon":121.532777,"name":"基督復臨安息日會台北教會","decorType":"shrine"},{"id":"way-353678877","lat":25.026465,"lon":121.522636,"name":"古亭地府陰公廟","decorType":"shrine"},{"id":"way-358494667","lat":25.031307,"lon":121.527827,"name":"台灣台北聖殿","decorType":"shrine"},{"id":"way-358649612","lat":25.0289,"lon":121.533607,"name":"天主教聖家堂","decorType":"shrine"},{"id":"way-358649616","lat":25.031167,"lon":121.528507,"name":"未命名大學&學院","decorType":"university"},{"id":"way-358649618","lat":25.030851,"lon":121.528448,"name":"未命名大學&學院","decorType":"university"},{"id":"way-360117687","lat":25.024626,"lon":121.534248,"name":"紫藤廬","decorType":"restaurant"},{"id":"way-360364153","lat":25.034938,"lon":121.528767,"name":"信愛公園","decorType":"park"},{"id":"way-360834287","lat":25.036452,"lon":121.527542,"name":"星辰大飯店","decorType":"hotel"},{"id":"way-361124409","lat":25.028852,"lon":121.523389,"name":"未命名公園","decorType":"park"},{"id":"way-361124412","lat":25.028666,"lon":121.525339,"name":"泰安宮","decorType":"shrine"},{"id":"way-364730022","lat":25.029172,"lon":121.523643,"name":"圓通學苑","decorType":"shrine"},{"id":"way-377573368","lat":25.026848,"lon":121.530756,"name":"台北市教會第三聚會所","decorType":"shrine"},{"id":"way-378143703","lat":25.037256,"lon":121.528287,"name":"金來商旅","decorType":"hotel"},{"id":"way-389641570","lat":25.026849,"lon":121.528705,"name":"警衛室","decorType":"university"},{"id":"way-419000217","lat":25.026714,"lon":121.53115,"name":"臺北青田郵局","decorType":"post_office"},{"id":"way-425265877","lat":25.038662,"lon":121.525035,"name":"未命名公園","decorType":"park"},{"id":"way-456394945","lat":25.033895,"lon":121.534658,"name":"丹迪旅店","decorType":"hotel"},{"id":"way-494806129","lat":25.033864,"lon":121.533757,"name":"麗都飯店","decorType":"hotel"},{"id":"way-502776623","lat":25.025084,"lon":121.528746,"name":"管理學院","decorType":"university"},{"id":"way-546630856","lat":25.027408,"lon":121.533206,"name":"和平長老教會","decorType":"shrine"},{"id":"way-558025310","lat":25.034125,"lon":121.533077,"name":"高記上海料理","decorType":"restaurant"},{"id":"way-588985660","lat":25.031127,"lon":121.527233,"name":"耶穌基督後期聖徒教會副殿","decorType":"shrine"},{"id":"way-591021419","lat":25.026255,"lon":121.526602,"name":"未命名大學&學院","decorType":"university"},{"id":"way-591021425","lat":25.025032,"lon":121.528073,"name":"未命名大學&學院","decorType":"university"},{"id":"way-591021426","lat":25.025041,"lon":121.527897,"name":"誠正中庭","decorType":"university"},{"id":"way-591021427","lat":25.025069,"lon":121.527521,"name":"未命名大學&學院","decorType":"university"},{"id":"way-591021428","lat":25.025075,"lon":121.527387,"name":"勤樸中庭","decorType":"university"},{"id":"way-591021432","lat":25.025099,"lon":121.526978,"name":"未命名大學&學院","decorType":"university"},{"id":"way-591021433","lat":25.025114,"lon":121.526785,"name":"未命名大學&學院","decorType":"university"},{"id":"way-591194141","lat":25.026088,"lon":121.527834,"name":"未命名森林","decorType":"forest"},{"id":"way-591194142","lat":25.026136,"lon":121.527229,"name":"未命名森林","decorType":"forest"},{"id":"way-591330759","lat":25.036685,"lon":121.52507,"name":"救恩堂","decorType":"shrine"},{"id":"way-592056953","lat":25.026448,"lon":121.5272,"name":"未命名森林","decorType":"forest"},{"id":"way-592116795","lat":25.02542,"lon":121.527717,"name":"未命名森林","decorType":"forest"},{"id":"way-592116796","lat":25.025464,"lon":121.527196,"name":"未命名森林","decorType":"forest"},{"id":"way-592116797","lat":25.025532,"lon":121.526386,"name":"未命名森林","decorType":"forest"},{"id":"way-592116804","lat":25.026229,"lon":121.527545,"name":"未命名公園","decorType":"park"},{"id":"way-592159163","lat":25.023946,"lon":121.528735,"name":"基督教迦南會大專團契","decorType":"shrine"},{"id":"way-592159235","lat":25.024023,"lon":121.52887,"name":"麻辣天后","decorType":"restaurant"},{"id":"way-592227591","lat":25.02735,"lon":121.52935,"name":"羅馬廣場","decorType":"park"},{"id":"way-592227595","lat":25.027316,"lon":121.529533,"name":"未命名公園","decorType":"park"},{"id":"way-592227609","lat":25.027381,"lon":121.529165,"name":"未命名大學&學院","decorType":"university"},{"id":"way-592227625","lat":25.02737,"lon":121.529218,"name":"未命名大學&學院","decorType":"university"},{"id":"way-592227626","lat":25.027372,"lon":121.529237,"name":"未命名大學&學院","decorType":"university"},{"id":"way-592227627","lat":25.027326,"lon":121.529514,"name":"未命名大學&學院","decorType":"university"},{"id":"way-592227628","lat":25.02733,"lon":121.529496,"name":"未命名大學&學院","decorType":"university"},{"id":"way-597403675","lat":25.024515,"lon":121.524034,"name":"未命名公園","decorType":"park"},{"id":"way-602111056","lat":25.027016,"lon":121.528424,"name":"師大圖書館","decorType":"university"},{"id":"way-602127543","lat":25.027744,"lon":121.529438,"name":"教育學院大樓","decorType":"university"},{"id":"way-602127552","lat":25.027476,"lon":121.528524,"name":"博愛大樓","decorType":"university"},{"id":"way-602157709","lat":25.02717,"lon":121.529848,"name":"未命名大學&學院","decorType":"university"},{"id":"way-602157711","lat":25.026947,"lon":121.53,"name":"機械工程大樓","decorType":"university"},{"id":"way-602157712","lat":25.027104,"lon":121.529858,"name":"未命名大學&學院","decorType":"university"},{"id":"way-602157713","lat":25.02673,"lon":121.530121,"name":"產學館","decorType":"university"},{"id":"way-602157714","lat":25.026889,"lon":121.529281,"name":"綜合大樓","decorType":"university"},{"id":"way-602157715","lat":25.027876,"lon":121.528596,"name":"進修推廣學院大樓","decorType":"university"},{"id":"way-602357844","lat":25.026422,"lon":121.527669,"name":"警衛室","decorType":"university"},{"id":"way-602357845","lat":25.026434,"lon":121.527464,"name":"警衛室","decorType":"university"},{"id":"way-602798032","lat":25.026369,"lon":121.526409,"name":"音樂系館","decorType":"university"},{"id":"way-602798035","lat":25.025865,"lon":121.526564,"name":"體育館","decorType":"university"},{"id":"way-602798036","lat":25.025662,"lon":121.528245,"name":"健康中心","decorType":"university"},{"id":"way-603654535","lat":25.025168,"lon":121.522755,"name":"十普寺","decorType":"shrine"},{"id":"way-603672919","lat":25.023888,"lon":121.527086,"name":"雲和街教學大樓","decorType":"university"},{"id":"way-604255409","lat":25.024849,"lon":121.528982,"name":"音樂學院","decorType":"university"},{"id":"way-604255410","lat":25.026275,"lon":121.52892,"name":"美術系館","decorType":"university"},{"id":"way-613085036","lat":25.028492,"lon":121.532151,"name":"國立臺灣師範大學設計學系","decorType":"university"},{"id":"way-613222934","lat":25.027762,"lon":121.53009,"name":"師大美術館","decorType":"university"},{"id":"way-647957749","lat":25.029733,"lon":121.522288,"name":"樂埔町Leputing","decorType":"restaurant"},{"id":"way-647957756","lat":25.029224,"lon":121.522713,"name":"大樹先生的家","decorType":"restaurant"},{"id":"way-663117278","lat":25.037863,"lon":121.53023,"name":"台北東門長老教會","decorType":"shrine"},{"id":"way-1038743831","lat":25.033875,"lon":121.528923,"name":"未命名公車站","decorType":"bus_stop"},{"id":"way-1042904091","lat":25.02791,"lon":121.524822,"name":"台電勵進餐廳","decorType":"restaurant"},{"id":"way-1052759741","lat":25.034432,"lon":121.522225,"name":"未命名公園","decorType":"park"},{"id":"way-1053396971","lat":25.035782,"lon":121.522495,"name":"未命名公園","decorType":"park"},{"id":"way-1053396972","lat":25.035532,"lon":121.52235,"name":"未命名公園","decorType":"park"},{"id":"way-1054531301","lat":25.026392,"lon":121.522954,"name":"未命名公車站","decorType":"bus_stop"},{"id":"way-1058241554","lat":25.033581,"lon":121.53214,"name":"未命名公車站","decorType":"bus_stop"},{"id":"way-1058241557","lat":25.034055,"lon":121.527762,"name":"未命名公車站","decorType":"bus_stop"},{"id":"way-1058241558","lat":25.034207,"lon":121.526799,"name":"未命名公車站","decorType":"bus_stop"},{"id":"way-1058245569","lat":25.033874,"lon":121.528922,"name":"未命名公車站","decorType":"bus_stop"},{"id":"way-1059547193","lat":25.038118,"lon":121.53226,"name":"未命名公車站","decorType":"bus_stop"},{"id":"way-1060223606","lat":25.03827,"lon":121.533279,"name":"未命名公車站","decorType":"bus_stop"},{"id":"way-1068183468","lat":25.025753,"lon":121.535025,"name":"未命名橋樑","decorType":"bridge"},{"id":"way-1068183483","lat":25.02651,"lon":121.534786,"name":"未命名公車站","decorType":"bus_stop"},{"id":"way-1068234510","lat":25.038666,"lon":121.53269,"name":"未命名公車站","decorType":"bus_stop"},{"id":"way-1068234513","lat":25.037714,"lon":121.532888,"name":"未命名公車站","decorType":"bus_stop"},{"id":"way-1068394674","lat":25.038539,"lon":121.527825,"name":"未命名公園","decorType":"park"},{"id":"way-1133615650","lat":25.033182,"lon":121.534896,"name":"未命名橋樑","decorType":"bridge"},{"id":"way-1227276302","lat":25.02995,"lon":121.534539,"name":"未命名森林","decorType":"forest"},{"id":"way-1227276304","lat":25.029471,"lon":121.535034,"name":"未命名森林","decorType":"forest"},{"id":"way-1227276315","lat":25.028333,"lon":121.535062,"name":"未命名森林","decorType":"forest"},{"id":"way-1227276316","lat":25.028303,"lon":121.534995,"name":"未命名森林","decorType":"forest"},{"id":"way-1227276319","lat":25.028348,"lon":121.535145,"name":"未命名森林","decorType":"forest"},{"id":"way-1227277928","lat":25.029924,"lon":121.534289,"name":"未命名森林","decorType":"forest"},{"id":"way-1227277929","lat":25.02758,"lon":121.534967,"name":"未命名森林","decorType":"forest"},{"id":"way-1227279099","lat":25.032392,"lon":121.534038,"name":"未命名森林","decorType":"forest"},{"id":"way-1227279100","lat":25.031989,"lon":121.533882,"name":"未命名森林","decorType":"forest"},{"id":"way-1227279101","lat":25.031781,"lon":121.533771,"name":"未命名森林","decorType":"forest"},{"id":"way-1227279103","lat":25.032149,"lon":121.5335,"name":"未命名森林","decorType":"forest"},{"id":"way-1227282074","lat":25.030377,"lon":121.535144,"name":"未命名森林","decorType":"forest"},{"id":"way-1227282079","lat":25.030253,"lon":121.534813,"name":"未命名森林","decorType":"forest"},{"id":"way-1227282080","lat":25.030692,"lon":121.534491,"name":"未命名森林","decorType":"forest"},{"id":"way-1227282082","lat":25.030398,"lon":121.534445,"name":"未命名森林","decorType":"forest"},{"id":"way-1227287034","lat":25.030711,"lon":121.535136,"name":"未命名森林","decorType":"forest"},{"id":"way-1227287037","lat":25.030578,"lon":121.535098,"name":"未命名森林","decorType":"forest"},{"id":"way-1227287038","lat":25.030837,"lon":121.534598,"name":"未命名森林","decorType":"forest"},{"id":"way-1227515450","lat":25.031755,"lon":121.534108,"name":"未命名森林","decorType":"forest"},{"id":"way-1227515452","lat":25.032554,"lon":121.534947,"name":"未命名公園","decorType":"park"},{"id":"way-1227515453","lat":25.032247,"lon":121.534436,"name":"未命名公園","decorType":"park"},{"id":"way-1227515455","lat":25.032112,"lon":121.534508,"name":"未命名森林","decorType":"forest"},{"id":"way-1227515456","lat":25.031946,"lon":121.534847,"name":"未命名森林","decorType":"forest"},{"id":"way-1227515457","lat":25.032254,"lon":121.534885,"name":"未命名森林","decorType":"forest"},{"id":"way-1227515459","lat":25.032649,"lon":121.53443,"name":"未命名森林","decorType":"forest"},{"id":"way-1227517110","lat":25.031265,"lon":121.534184,"name":"未命名森林","decorType":"forest"},{"id":"way-1227517111","lat":25.031447,"lon":121.534068,"name":"未命名森林","decorType":"forest"},{"id":"way-1227518216","lat":25.032816,"lon":121.533593,"name":"未命名森林","decorType":"forest"},{"id":"way-1227518219","lat":25.031058,"lon":121.53438,"name":"未命名公園","decorType":"park"},{"id":"way-1227518220","lat":25.031065,"lon":121.534457,"name":"未命名公園","decorType":"park"},{"id":"way-1227518224","lat":25.031007,"lon":121.534651,"name":"未命名公園","decorType":"park"},{"id":"way-1227518225","lat":25.030957,"lon":121.534978,"name":"未命名公園","decorType":"park"},{"id":"way-1227520618","lat":25.033168,"lon":121.533947,"name":"未命名森林","decorType":"forest"},{"id":"way-1227520619","lat":25.033178,"lon":121.533649,"name":"未命名森林","decorType":"forest"},{"id":"way-1227521625","lat":25.032953,"lon":121.535154,"name":"未命名公園","decorType":"park"},{"id":"way-1227521626","lat":25.033001,"lon":121.535123,"name":"未命名公園","decorType":"park"},{"id":"way-1227521627","lat":25.032948,"lon":121.53379,"name":"未命名公園","decorType":"park"},{"id":"way-1227521628","lat":25.033125,"lon":121.533554,"name":"未命名公園","decorType":"park"},{"id":"way-1227521631","lat":25.032754,"lon":121.535049,"name":"未命名森林","decorType":"forest"},{"id":"way-1227523043","lat":25.033091,"lon":121.534474,"name":"未命名公園","decorType":"park"},{"id":"way-1227523044","lat":25.033084,"lon":121.534971,"name":"未命名公園","decorType":"park"},{"id":"way-1227523045","lat":25.033111,"lon":121.534722,"name":"未命名公園","decorType":"park"},{"id":"way-1227523047","lat":25.033176,"lon":121.534338,"name":"未命名公園","decorType":"park"},{"id":"way-1227523762","lat":25.033317,"lon":121.535039,"name":"未命名公園","decorType":"park"},{"id":"way-1227523766","lat":25.033239,"lon":121.534825,"name":"未命名水邊","decorType":"waterside"},{"id":"way-1227523768","lat":25.03322,"lon":121.534985,"name":"未命名水邊","decorType":"waterside"},{"id":"way-1227523769","lat":25.03324,"lon":121.534671,"name":"未命名水邊","decorType":"waterside"},{"id":"way-1227525691","lat":25.03331,"lon":121.534332,"name":"未命名公園","decorType":"park"},{"id":"way-1227525696","lat":25.033243,"lon":121.533346,"name":"未命名公園","decorType":"park"},{"id":"way-1227525697","lat":25.033273,"lon":121.533217,"name":"未命名公園","decorType":"park"},{"id":"way-1227729642","lat":25.033044,"lon":121.534969,"name":"未命名公園","decorType":"park"},{"id":"way-1227950108","lat":25.033303,"lon":121.534704,"name":"未命名公園","decorType":"park"},{"id":"way-1227950116","lat":25.033277,"lon":121.534986,"name":"未命名公園","decorType":"park"},{"id":"way-1228832809","lat":25.033533,"lon":121.534993,"name":"未命名公車站","decorType":"bus_stop"},{"id":"way-1285079717","lat":25.025965,"lon":121.527535,"name":"行政大樓","decorType":"university"},{"id":"way-1301707059","lat":25.025502,"lon":121.526744,"name":"未命名森林","decorType":"forest"},{"id":"way-1303429023","lat":25.02354,"lon":121.533715,"name":"未命名公園","decorType":"park"},{"id":"way-1303429026","lat":25.023855,"lon":121.533623,"name":"未命名水邊","decorType":"waterside"},{"id":"way-1339038748","lat":25.02639,"lon":121.522957,"name":"未命名公車站","decorType":"bus_stop"},{"id":"way-1346858456","lat":25.029269,"lon":121.522716,"name":"大樹先生的家","decorType":"restaurant"},{"id":"way-1347029106","lat":25.037744,"lon":121.522893,"name":"李鎮源故居","decorType":"park"},{"id":"way-1348435672","lat":25.037793,"lon":121.523956,"name":"未命名公園","decorType":"park"},{"id":"way-1348435673","lat":25.037887,"lon":121.523564,"name":"未命名公園","decorType":"park"},{"id":"way-1348435677","lat":25.037102,"lon":121.523636,"name":"未命名公園","decorType":"park"},{"id":"way-1348435678","lat":25.037205,"lon":121.523834,"name":"未命名公園","decorType":"park"},{"id":"way-1348435679","lat":25.037437,"lon":121.52368,"name":"未命名公園","decorType":"park"},{"id":"way-1348435681","lat":25.038212,"lon":121.523928,"name":"未命名公園","decorType":"park"},{"id":"way-1348435682","lat":25.038233,"lon":121.52371,"name":"未命名公園","decorType":"park"},{"id":"way-1348435685","lat":25.037586,"lon":121.524073,"name":"未命名公園","decorType":"park"},{"id":"way-1348435687","lat":25.037107,"lon":121.524329,"name":"未命名公園","decorType":"park"},{"id":"way-1348435688","lat":25.036793,"lon":121.524295,"name":"未命名公園","decorType":"park"},{"id":"way-1348435689","lat":25.037411,"lon":121.524677,"name":"未命名公園","decorType":"park"},{"id":"way-1348435690","lat":25.037777,"lon":121.524779,"name":"未命名公園","decorType":"park"},{"id":"way-1348435692","lat":25.037895,"lon":121.52427,"name":"未命名公園","decorType":"park"},{"id":"way-1348435698","lat":25.038247,"lon":121.523586,"name":"未命名公園","decorType":"park"},{"id":"way-1348435700","lat":25.038116,"lon":121.524051,"name":"未命名公園","decorType":"park"},{"id":"way-1348439150","lat":25.037315,"lon":121.524673,"name":"未命名公園","decorType":"park"},{"id":"way-1348439153","lat":25.038017,"lon":121.524723,"name":"未命名公園","decorType":"park"},{"id":"way-1348439154","lat":25.038073,"lon":121.52451,"name":"未命名公園","decorType":"park"},{"id":"way-1348439156","lat":25.036033,"lon":121.523687,"name":"未命名公園","decorType":"park"},{"id":"way-1348439157","lat":25.036067,"lon":121.523762,"name":"未命名公園","decorType":"park"},{"id":"way-1348439161","lat":25.035869,"lon":121.52405,"name":"未命名公園","decorType":"park"},{"id":"way-1348439166","lat":25.036411,"lon":121.524522,"name":"未命名公園","decorType":"park"},{"id":"way-1348439167","lat":25.037,"lon":121.524653,"name":"未命名公園","decorType":"park"},{"id":"way-1348439168","lat":25.037176,"lon":121.524705,"name":"未命名公園","decorType":"park"},{"id":"way-1348439169","lat":25.03699,"lon":121.524719,"name":"未命名公園","decorType":"park"},{"id":"way-1348439170","lat":25.037157,"lon":121.524768,"name":"未命名公園","decorType":"park"},{"id":"way-1348439171","lat":25.037386,"lon":121.524834,"name":"未命名公園","decorType":"park"},{"id":"way-1348439172","lat":25.037686,"lon":121.52492,"name":"未命名公園","decorType":"park"},{"id":"way-1348439173","lat":25.037899,"lon":121.524982,"name":"未命名公園","decorType":"park"},{"id":"way-1348439174","lat":25.037432,"lon":121.524776,"name":"未命名公園","decorType":"park"},{"id":"way-1348439175","lat":25.037582,"lon":121.524819,"name":"未命名公園","decorType":"park"},{"id":"way-1348439177","lat":25.03761,"lon":121.523399,"name":"未命名公園","decorType":"park"},{"id":"way-1348439178","lat":25.037784,"lon":121.523456,"name":"未命名公園","decorType":"park"},{"id":"way-1348439179","lat":25.037504,"lon":121.523386,"name":"未命名公園","decorType":"park"},{"id":"way-1348439182","lat":25.036207,"lon":121.523545,"name":"未命名公園","decorType":"park"},{"id":"way-1348439183","lat":25.03646,"lon":121.523058,"name":"未命名公園","decorType":"park"},{"id":"way-1348439184","lat":25.036268,"lon":121.523257,"name":"未命名公園","decorType":"park"},{"id":"way-1348439185","lat":25.036967,"lon":121.523599,"name":"未命名水邊","decorType":"waterside"},{"id":"way-1348439186","lat":25.036977,"lon":121.523579,"name":"未命名公園","decorType":"park"},{"id":"way-1348439190","lat":25.036888,"lon":121.523703,"name":"未命名公園","decorType":"park"},{"id":"way-1348439191","lat":25.036745,"lon":121.523648,"name":"未命名公園","decorType":"park"},{"id":"way-1348439192","lat":25.036529,"lon":121.523606,"name":"未命名公園","decorType":"park"},{"id":"way-1348439193","lat":25.036402,"lon":121.523518,"name":"未命名公園","decorType":"park"},{"id":"way-1348439194","lat":25.036451,"lon":121.523007,"name":"未命名公園","decorType":"park"},{"id":"way-1348439204","lat":25.037113,"lon":121.523462,"name":"未命名公園","decorType":"park"},