{"bbox":{"south":25.023125,"north":25.038731249999998,"west":121.57428125,"east":121.5873125},"pois":[{"id":"way-1454346013","lat":25.0233465,"lon":121.5765059,"name":"æœªå‘½åæ£®æ—","decorType":"forest","decorName":"æ£®æ—","decorIcon":"ğŸŒ²"},{"id":"node-274937904","lat":25.0265411,"lon":121.575542,"name":"è±¡å±±","decorType":"mountain","decorName":"å±±ä¸˜","decorIcon":"â›°ï¸"},{"id":"node-1502690945","lat":25.0262261,"lon":121.5864497,"name":"ä¹äº”å³°","decorType":"mountain","decorName":"å±±ä¸˜","decorIcon":"â›°ï¸"},{"id":"node-2137518609","lat":25.0377472,"lon":121.577941,"name":"æ–½å®¶éº»æ²¹è…°èŠ±","decorType":"restaurant","decorName":"é¤å»³","decorIcon":"ğŸ½ï¸"},{"id":"node-2355932377","lat":25.0357601,"lon":121.582077,"name":"æ‡‰å–„å…¬å»Ÿ","decorType":"shrine","decorName":"ç¥ç¤¾","decorIcon":"â›©ï¸"},{"id":"node-2355932378","lat":25.0264083,"lon":121.5806063,"name":"ç…å±±","decorType":"mountain","decorName":"å±±ä¸˜","decorIcon":"â›°ï¸"},{"id":"node-2355932381","lat":25.0276092,"lon":121.5826697,"name":"ç¦å¾·å®®","decorType":"shrine","decorName":"ç¥ç¤¾","decorIcon":"â›©ï¸"},{"id":"node-2355932530","lat":25.0313013,"lon":121.5836136,"name":"è™å±±å³°","decorType":"mountain","decorName":"å±±ä¸˜","decorIcon":"â›°ï¸"},{"id":"node-2355932679","lat":25.0292842,"lon":121.5826441,"name":"è±¹å±±","decorType":"mountain","decorName":"å±±ä¸˜","decorIcon":"â›°ï¸"},{"id":"node-2641343860","lat":25.0350694,"lon":121.5790195,"name":"è·¯åœ°åŸºé™°å…¬ä½³åŸ","decorType":"shrine","decorName":"ç¥ç¤¾","decorIcon":"â›©ï¸"},{"id":"node-2672482476","lat":25.0333963,"lon":121.5797875,"name":"æ°¸æ˜¥é«˜ä¸­","decorType":"bus_stop","decorName":"å…¬è»Šç«™","decorIcon":"ğŸšŒ"},{"id":"node-2672482479","lat":25.0313358,"lon":121.5792256,"name":"å°åŒ—å—å¤©å®®äº”åºœåƒæ­²","decorType":"shrine","decorName":"ç¥ç¤¾","decorIcon":"â›©ï¸"},{"id":"node-2672482481","lat":25.036907,"lon":121.5811785,"name":"æ¾å‹æ–°æ‘","decorType":"bus_stop","decorName":"å…¬è»Šç«™","decorIcon":"ğŸšŒ"},{"id":"node-2672482484","lat":25.036784,"lon":121.5808627,"name":"æœªå‘½åéƒµå±€","decorType":"post_office","decorName":"éƒµå±€","decorIcon":"âœ‰ï¸"},{"id":"node-2672482485","lat":25.0366871,"lon":121.5806513,"name":"å—æ–‡å®®","decorType":"shrine","decorName":"ç¥ç¤¾","decorIcon":"â›©ï¸"},{"id":"node-2672489306","lat":25.0352906,"lon":121.5796243,"name":"æœªå‘½åå…¬åœ’","decorType":"park","decorName":"å…¬åœ’","decorIcon":"ğŸ€"},{"id":"node-2672577768","lat":25.0371332,"lon":121.5817019,"name":"æœªå‘½åéƒµå±€","decorType":"post_office","decorName":"éƒµå±€","decorIcon":"âœ‰ï¸"},{"id":"node-2672864421","lat":25.0358233,"lon":121.5785651,"name":"7-Eleven","decorType":"convenience","decorName":"ä¾¿åˆ©å•†åº—","decorIcon":"ğŸª"},{"id":"node-2673095233","lat":25.028454,"lon":121.5795536,"name":"ä¹…é•·å±±æ©ä¸»æ´","decorType":"shrine","decorName":"ç¥ç¤¾","decorIcon":"â›©ï¸"},{"id":"node-2673946522","lat":25.0363736,"lon":121.5801461,"name":"ç¦å¾·æ™ºæ…§åœ–æ›¸é¤¨","decorType":"library","decorName":"åœ–æ›¸é¤¨ï¼æ›¸åº—","decorIcon":"ğŸ“š"},{"id":"node-2673946535","lat":25.0352808,"lon":121.5796591,"name":"æœªå‘½åå…¬åœ’","decorType":"park","decorName":"å…¬åœ’","decorIcon":"ğŸ€"},{"id":"node-2673946536","lat":25.0352663,"lon":121.5796806,"name":"æœªå‘½åå…¬åœ’","decorType":"park","decorName":"å…¬åœ’","decorIcon":"ğŸ€"},{"id":"node-2673946537","lat":25.0353295,"lon":121.5795599,"name":"æœªå‘½åå…¬åœ’","decorType":"park","decorName":"å…¬åœ’","decorIcon":"ğŸ€"},{"id":"node-2713562379","lat":25.03255,"lon":121.5744913,"name":"æ¾å¾·ç«™","decorType":"bus_stop","decorName":"å…¬è»Šç«™","decorIcon":"ğŸšŒ"},{"id":"node-2713562380","lat":25.0323769,"lon":121.5746789,"name":"æ¾å¾·ç«™","decorType":"bus_stop","decorName":"å…¬è»Šç«™","decorIcon":"ğŸšŒ"},{"id":"node-3024920770","lat":25.0387131,"lon":121.5859956,"name":"7-Eleven","decorType":"convenience","decorName":"ä¾¿åˆ©å•†åº—","decorIcon":"ğŸª"},{"id":"node-3024920771","lat":25.0377095,"lon":121.5833251,"name":"7-Eleven","decorType":"convenience","decorName":"ä¾¿åˆ©å•†åº—","decorIcon":"ğŸª"},{"id":"node-3024920772","lat":25.0376893,"lon":121.5832835,"name":"ä¿¡ç¾©è¡Œæ”¿ä¸­å¿ƒ (å¥‰å¤©å®®)","decorType":"bus_stop","decorName":"å…¬è»Šç«™","decorIcon":"ğŸšŒ"},{"id":"node-3024920809","lat":25.0382113,"lon":121.5843239,"name":"å±ˆè‡£æ°","decorType":"pharmacy","decorName":"è—¥å±€","decorIcon":"ğŸ’Š"},{"id":"node-3028959476","lat":25.0378256,"lon":121.5830853,"name":"ä¿¡ç¾©è¡Œæ”¿ä¸­å¿ƒ (å¥‰å¤©å®®)","decorType":"bus_stop","decorName":"å…¬è»Šç«™","decorIcon":"ğŸšŒ"},{"id":"node-3145303946","lat":25.0342943,"lon":121.5756654,"name":"åœ‹ç¨…å±€å®¿èˆ","decorType":"bus_stop","decorName":"å…¬è»Šç«™","decorIcon":"ğŸšŒ"},{"id":"node-3145303947","lat":25.0339524,"lon":121.5749433,"name":"åœ‹ç¨…å±€å®¿èˆ","decorType":"bus_stop","decorName":"å…¬è»Šç«™","decorIcon":"ğŸšŒ"},{"id":"node-3145303952","lat":25.0370216,"lon":121.5809205,"name":"æ¾å‹æ–°æ‘","decorType":"bus_stop","decorName":"å…¬è»Šç«™","decorIcon":"ğŸšŒ"},{"id":"node-3145303953","lat":25.0356864,"lon":121.5772609,"name":"åœ‹æ¥­é‡Œ","decorType":"bus_stop","decorName":"å…¬è»Šç«™","decorIcon":"ğŸšŒ"},{"id":"node-3145303954","lat":25.0359116,"lon":121.5778191,"name":"æ¾å±±å•†è·(ä¿¡ç¾©)","decorType":"bus_stop","decorName":"å…¬è»Šç«™","decorIcon":"ğŸšŒ"},{"id":"node-3145303955","lat":25.0361675,"lon":121.5787087,"name":"æ¾å±±å•†è·(ç¦å¾·)","decorType":"bus_stop","decorName":"å…¬è»Šç«™","decorIcon":"ğŸšŒ"},{"id":"node-3145303956","lat":25.0364028,"lon":121.5787825,"name":"æ¾å±±å•†è·(ç¦å¾·)","decorType":"bus_stop","decorName":"å…¬è»Šç«™","decorIcon":"ğŸšŒ"},{"id":"node-3188323162","lat":25.0359471,"lon":121.5786301,"name":"æ¾å±±å•†è·(æ¾å±±)","decorType":"bus_stop","decorName":"å…¬è»Šç«™","decorIcon":"ğŸšŒ"},{"id":"node-3188323163","lat":25.0365333,"lon":121.5783663,"name":"æ¾å±±å•†è·(æ¾å±±)","decorType":"bus_stop","decorName":"å…¬è»Šç«™","decorIcon":"ğŸšŒ"},{"id":"node-3188323171","lat":25.0334639,"lon":121.5797281,"name":"æ°¸æ˜¥é«˜ä¸­","decorType":"bus_stop","decorName":"å…¬è»Šç«™","decorIcon":"ğŸšŒ"},{"id":"node-3514374814","lat":25.0377947,"lon":121.5746495,"name":"æ¼¢å ¡å¤§å¸«","decorType":"burger","decorName":"æ¼¢å ¡åº—","decorIcon":"ğŸ”"},{"id":"node-3514374815","lat":25.037927,"lon":121.5745517,"name":"èŠçˆ¾å¯Œ","decorType":"convenience","decorName":"ä¾¿åˆ©å•†åº—","decorIcon":"ğŸª"},{"id":"node-3514374816","lat":25.0377501,"lon":121.5744821,"name":"å·å‘³ç‰›è‚‰éºµ","decorType":"restaurant","decorName":"é¤å»³","decorIcon":"ğŸ½ï¸"},{"id":"node-3514374824","lat":25.036285,"lon":121.5743161,"name":"å¼˜éº—è¡›æµ´","decorType":"laundry","decorName":"è‡ªä¸»æ´—è¡£åº—&ä¹¾æ´—åº—","decorIcon":"ğŸ§º"},{"id":"node-3633921319","lat":25.0344416,"lon":121.5755321,"name":"7-Eleven","decorType":"convenience","decorName":"ä¾¿åˆ©å•†åº—","decorIcon":"ğŸª"},{"id":"node-3633921418","lat":25.0339819,"lon":121.5748963,"name":"æ˜Ÿå·´å…‹","decorType":"cafe","decorName":"å’–å•¡å»³","decorIcon":"â˜•"},{"id":"node-3738821430","lat":25.0373718,"lon":121.5751381,"name":"7-Eleven","decorType":"convenience","decorName":"ä¾¿åˆ©å•†åº—","decorIcon":"ğŸª"},{"id":"node-3939158510","lat":25.0372949,"lon":121.5783585,"name":"é®®è±†æ¼¿","decorType":"restaurant","decorName":"é¤å»³","decorIcon":"ğŸ½ï¸"},{"id":"node-3997541428","lat":25.0325085,"lon":121.5746517,"name":"å…¨å®¶ä¾¿åˆ©å•†åº—","decorType":"convenience","decorName":"ä¾¿åˆ©å•†åº—","decorIcon":"ğŸª"},{"id":"node-3997541430","lat":25.0333005,"lon":121.574691,"name":"æ¾å¾·æ°¸å’Œè±†æ¼¿","decorType":"restaurant","decorName":"é¤å»³","decorIcon":"ğŸ½ï¸"},{"id":"node-3997541443","lat":25.032805,"lon":121.5746591,"name":"7-Eleven","decorType":"convenience","decorName":"ä¾¿åˆ©å•†åº—","decorIcon":"ğŸª"},{"id":"node-4058075211","lat":25.0348974,"lon":121.5743614,"name":"ä¿¡ç¾©æ¾å¾·è·¯å£","decorType":"bus_stop","decorName":"å…¬è»Šç«™","decorIcon":"ğŸšŒ"},{"id":"node-4058075212","lat":25.0352849,"lon":121.5746994,"name":"èˆˆé›…åœ‹ä¸­","decorType":"bus_stop","decorName":"å…¬è»Šç«™","decorIcon":"ğŸšŒ"},{"id":"node-4058075213","lat":25.0351785,"lon":121.5770142,"name":"å…¨å®¶ä¾¿åˆ©å•†åº—","decorType":"convenience","decorName":"ä¾¿åˆ©å•†åº—","decorIcon":"ğŸª"},{"id":"node-4058075217","lat":25.0378932,"lon":121.575619,"name":"åœŸåœ°éŠ€è¡Œ","decorType":"bus_stop","decorName":"å…¬è»Šç«™","decorIcon":"ğŸšŒ"},{"id":"node-4058075218","lat":25.0380063,"lon":121.5754327,"name":"åœŸåœ°éŠ€è¡Œ","decorType":"bus_stop","decorName":"å…¬è»Šç«™","decorIcon":"ğŸšŒ"},{"id":"node-4058075222","lat":25.0335303,"lon":121.5758284,"name":"æœªå‘½åéƒµå±€","decorType":"post_office","decorName":"éƒµå±€","decorIcon":"âœ‰ï¸"},{"id":"node-4058075224","lat":25.0382447,"lon":121.5762684,"name":"æœªå‘½åéƒµå±€","decorType":"post_office","decorName":"éƒµå±€","decorIcon":"âœ‰ï¸"},{"id":"node-4208419806","lat":25.0279798,"lon":121.578343,"name":"ç„¡æ¥µè€å›å²©å£é›•åƒ","decorType":"shrine","decorName":"ç¥ç¤¾","decorIcon":"â›©ï¸"},{"id":"node-4208719455","lat":25.0254297,"lon":121.5818245,"name":"18ç¾…æ¼¢é›•åƒ","decorType":"shrine","decorName":"ç¥ç¤¾","decorIcon":"â›©ï¸"},{"id":"node-4325693429","lat":25.035719,"lon":121.5786114,"name":"ä½³æ¨‚ä½³","decorType":"restaurant","decorName":"é¤å»³","decorIcon":"ğŸ½ï¸"},{"id":"node-4325693480","lat":25.0370938,"lon":121.5781814,"name":"å±ˆè‡£æ°","decorType":"pharmacy","decorName":"è—¥å±€","decorIcon":"ğŸ’Š"},{"id":"node-4325693917","lat":25.0377315,"lon":121.5778665,"name":"æ¾å¾·å®®","decorType":"shrine","decorName":"ç¥ç¤¾","decorIcon":"â›©ï¸"},{"id":"node-4325693937","lat":25.0366704,"lon":121.578219,"name":"æ¸…å¿ƒç¦å…¨","decorType":"cafe","decorName":"å’–å•¡å»³","decorIcon":"â˜•"},{"id":"node-4325694150","lat":25.0358303,"lon":121.5786925,"name":"æœªå‘½åéƒµå±€","decorType":"post_office","decorName":"éƒµå±€","decorIcon":"âœ‰ï¸"},{"id":"node-4325694177","lat":25.0359016,"lon":121.5787604,"name":"è‡ªåŠ©éƒµå±€","decorType":"post_office","decorName":"éƒµå±€","decorIcon":"âœ‰ï¸"},{"id":"node-4325694180","lat":25.0386854,"lon":121.5775453,"name":"è‰¾ç¾äºº","decorType":"hair_salon","decorName":"ç¾é«®é™¢","decorIcon":"ğŸ’‡"},{"id":"node-4325694185","lat":25.0378196,"lon":121.5782638,"name":"èŠçˆ¾å¯Œ","decorType":"convenience","decorName":"ä¾¿åˆ©å•†åº—","decorIcon":"ğŸª"},{"id":"node-4325694195","lat":25.0379557,"lon":121.5775051,"name":"è·¯å¾·æœƒæ¾å±±æ•™æœƒ","decorType":"shrine","decorName":"ç¥ç¤¾","decorIcon":"â›©ï¸"},{"id":"node-4464905693","lat":25.0383345,"lon":121.5792012,"name":"å…„å¼Ÿé¹½é…¥é›","decorType":"restaurant","decorName":"é¤å»³","decorIcon":"ğŸ½ï¸"},{"id":"node-4725956629","lat":25.0372175,"lon":121.581352,"name":"å‡åˆç´ é£Ÿé»å¿ƒåŠ","decorType":"restaurant","decorName":"é¤å»³","decorIcon":"ğŸ½ï¸"},{"id":"node-5585727570","lat":25.025599,"lon":121.586236,"name":"å—æ¸¯å±±","decorType":"mountain","decorName":"å±±ä¸˜","decorIcon":"â›°ï¸"},{"id":"node-5617368752","lat":25.0373273,"lon":121.5771431,"name":"å®‹è¨˜ç¾é£Ÿå°åƒ","decorType":"restaurant","decorName":"é¤å»³","decorIcon":"ğŸ½ï¸"},{"id":"node-5941564186","lat":25.0343044,"lon":121.5747158,"name":"Loving Hut","decorType":"restaurant","decorName":"é¤å»³","decorIcon":"ğŸ½ï¸"},{"id":"node-7211419021","lat":25.0386367,"lon":121.5848928,"name":"è§€ä¸–éŸ³ç´ é£Ÿ","decorType":"restaurant","decorName":"é¤å»³","decorIcon":"ğŸ½ï¸"},{"id":"node-7211419028","lat":25.0382844,"lon":121.5850678,"name":"å¯¶æ¨‚å’©æµ·è‹”é£¯æ²","decorType":"restaurant","decorName":"é¤å»³","decorIcon":"ğŸ½ï¸"},{"id":"node-7211419036","lat":25.0378766,"lon":121.5838538,"name":"éµåª½åª½ã®åº—","decorType":"restaurant","decorName":"é¤å»³","decorIcon":"ğŸ½ï¸"},{"id":"node-7211419037","lat":25.0380399,"lon":121.5794839,"name":"éµè‚‰é¾","decorType":"restaurant","decorName":"é¤å»³","decorIcon":"ğŸ½ï¸"},{"id":"node-7211419039","lat":25.0375505,"lon":121.5793566,"name":"é›™é†¬éºµ","decorType":"restaurant","decorName":"é¤å»³","decorIcon":"ğŸ½ï¸"},{"id":"node-7211419047","lat":25.0369955,"lon":121.5790757,"name":"å½Œå‹’ä½›ç´ é£Ÿ","decorType":"restaurant","decorName":"é¤å»³","decorIcon":"ğŸ½ï¸"},{"id":"node-7211419051","lat":25.036317,"lon":121.578051,"name":"è•­åœ’é¤…éºµ","decorType":"restaurant","decorName":"é¤å»³","decorIcon":"ğŸ½ï¸"},{"id":"node-7211419052","lat":25.037298,"lon":121.5773023,"name":"è•­å®¶è€éºµé¥…é ­","decorType":"restaurant","decorName":"é¤å»³","decorIcon":"ğŸ½ï¸"},{"id":"node-7211419055","lat":25.0361905,"lon":121.5788074,"name":"ç‡’è‚‰é¾","decorType":"restaurant","decorName":"é¤å»³","decorIcon":"ğŸ½ï¸"},{"id":"node-7211419068","lat":25.0385404,"lon":121.5852294,"name":"æ¾³é–€æ°¹ä»”ç‡’è‡˜åº—","decorType":"restaurant","decorName":"é¤å»³","decorIcon":"ğŸ½ï¸"},{"id":"node-7211419074","lat":25.0381504,"lon":121.5793578,"name":"è¾£æ¥µéº»è¾£ç‡™","decorType":"restaurant","decorName":"é¤å»³","decorIcon":"ğŸ½ï¸"},{"id":"node-7211419079","lat":25.0378428,"lon":121.5791819,"name":"æ»·å‘³ç‹","decorType":"restaurant","decorName":"é¤å»³","decorIcon":"ğŸ½ï¸"},{"id":"node-7211419080","lat":25.0360443,"lon":121.5781019,"name":"å»£èª ç´ é£Ÿ","decorType":"restaurant","decorName":"é¤å»³","decorIcon":"ğŸ½ï¸"},{"id":"node-7211419082","lat":25.0385388,"lon":121.5847051,"name":"ç¦å¾·è¡—ç´ é£Ÿæ°´ç…åŒ…","decorType":"restaurant","decorName":"é¤å»³","decorIcon":"ğŸ½ï¸"},{"id":"node-7211419083","lat":25.0386821,"lon":121.5852175,"name":"ç¦å¾·æ‰‹å·¥ç´ é£ŸåŒ…å­åº—","decorType":"restaurant","decorName":"é¤å»³","decorIcon":"ğŸ½ï¸"},{"id":"node-7211425500","lat":25.0356855,"lon":121.5776423,"name":"æ–°äºéµæ¿ç‡’","decorType":"restaurant","decorName":"é¤å»³","decorIcon":"ğŸ½ï¸"},{"id":"node-7211425502","lat":25.0365578,"lon":121.5793099,"name":"æ„›å¼˜é€Ÿé£Ÿé€£é–","decorType":"restaurant","decorName":"é¤å»³","decorIcon":"ğŸ½ï¸"},{"id":"node-7211425504","lat":25.0356291,"lon":121.5787193,"name":"åª½åª½æ—©é¤å§","decorType":"restaurant","decorName":"é¤å»³","decorIcon":"ğŸ½ï¸"},{"id":"node-7211425507","lat":25.0385313,"lon":121.5850622,"name":"åœ“æ»¿å·æ¹˜èœæµ·é®®","decorType":"restaurant","decorName":"é¤å»³","decorIcon":"ğŸ½ï¸"},{"id":"node-7211425512","lat":25.0378132,"lon":121.5793174,"name":"é †ç¬¬æ°´é¤ƒ","decorType":"restaurant","decorName":"é¤å»³","decorIcon":"ğŸ½ï¸"},{"id":"node-7211425513","lat":25.0369794,"lon":121.57942,"name":"é›²æ—å°å­æ¸¯","decorType":"restaurant","decorName":"é¤å»³","decorIcon":"ğŸ½ï¸"},{"id":"node-7211425514","lat":25.0361017,"lon":121.5787216,"name":"é›…åŠ é”æ—©é¤åº—","decorType":"restaurant","decorName":"é¤å»³","decorIcon":"ğŸ½ï¸"},{"id":"node-7211425517","lat":25.0337724,"lon":121.5751771,"name":"è¶Šå—æ±å®¶é¤å»³","decorType":"restaurant","decorName":"é¤å»³","decorIcon":"ğŸ½ï¸"},{"id":"node-7211425518","lat":25.0339523,"lon":121.5753313,"name":"è¶Šå—æ±å®¶é®®ç‰©ç¾Šè‚‰çˆ","decorType":"restaurant","decorName":"é¤å»³","decorIcon":"ğŸ½ï¸"},{"id":"node-7211425519","lat":25.0384882,"lon":121.5849815,"name":"è¶Šå—å°åƒ","decorType":"restaurant","decorName":"é¤å»³","decorIcon":"ğŸ½ï¸"},{"id":"node-7211425521","lat":25.037522,"lon":121.5794374,"name":"è³€åŠ é£Ÿå ‚","decorType":"restaurant","decorName":"é¤å»³","decorIcon":"ğŸ½ï¸"},{"id":"node-7211425525","lat":25.0376784,"lon":121.5780275,"name":"ç²¥å¸«å‚…å»£æ±ç²¥","decorType":"restaurant","decorName":"é¤å»³","decorIcon":"ğŸ½ï¸"},{"id":"node-7211425539","lat":25.0346914,"lon":121.5763865,"name":"å–ä¸€æ¯","decorType":"restaurant","decorName":"é¤å»³","decorIcon":"ğŸ½ï¸"},{"id":"node-7211425543","lat":25.0379595,"lon":121.5848089,"name":"é¹¿è¨˜å£½æ¡ƒå£½éºµå°ˆè³£åº—","decorType":"restaurant","decorName":"é¤å»³","decorIcon":"ğŸ½ï¸"},{"id":"node-7211425557","lat":25.0383661,"lon":121.5771028,"name":"æ™¨é–“ç¾å‘³","decorType":"restaurant","decorName":"é¤å»³","decorIcon":"ğŸ½ï¸"},{"id":"node-7211425569","lat":25.0380254,"lon":121.5848755,"name":"ç´ é£Ÿç¾æ¿ƒå®¢å®¶ç²„æ¢","decorType":"restaurant","decorName":"é¤å»³","decorIcon":"ğŸ½ï¸"},{"id":"node-7211425571","lat":25.0384849,"lon":121.5846654,"name":"ç§¦è²è²å‚³çµ±è±†æ¼¿åº—","decorType":"restaurant","decorName":"é¤å»³","decorIcon":"ğŸ½ï¸"},{"id":"node-7211425578","lat":25.0380395,"lon":121.5849153,"name":"å¾å®¶ç´ é£Ÿéºµ","decorType":"restaurant","decorName":"é¤å»³","decorIcon":"ğŸ½ï¸"},{"id":"node-7211425580","lat":25.0380265,"lon":121.5840788,"name":"å­«å®¶ç‰›è‚‰éºµ","decorType":"restaurant","decorName":"é¤å»³","decorIcon":"ğŸ½ï¸"},{"id":"node-7211425581","lat":25.0355929,"lon":121.5775022,"name":"å­«æ±å¯¶","decorType":"restaurant","decorName":"é¤å»³","decorIcon":"ğŸ½ï¸"},{"id":"node-7211425586","lat":25.0387103,"lon":121.5781449,"name":"èƒ–è€çˆ¹ç¾å¼ç‚¸é›","decorType":"burger","decorName":"æ¼¢å ¡åº—","decorIcon":"ğŸ”"},{"id":"node-7211425593","lat":25.0342761,"lon":121.5757855,"name":"ç¾å¥½æ™‚å…‰Bistro","decorType":"restaurant","decorName":"é¤å»³","decorIcon":"ğŸ½ï¸"},{"id":"node-7211425597","lat":25.0380698,"lon":121.5794835,"name":"ç´…å¿ƒç”œå“","decorType":"restaurant","decorName":"é¤å»³","decorIcon":"ğŸ½ï¸"},{"id":"node-7211425598","lat":25.0379596,"lon":121.5792006,"name":"çé¦™é‹è²¼æ°´é¤ƒå°ˆè³£åº—","decorType":"restaurant","decorName":"é¤å»³","decorIcon":"ğŸ½ï¸"},{"id":"node-7211425600","lat":25.0375478,"lon":121.578146,"name":"ç‚¸é·„å¤§ç…","decorType":"restaurant","decorName":"é¤å»³","decorIcon":"ğŸ½ï¸"},{"id":"node-7211425601","lat":25.0382479,"lon":121.5791945,"name":"æ´»é†‰è¦æµ·ç”¢","decorType":"restaurant","decorName":"é¤å»³","decorIcon":"ğŸ½ï¸"},{"id":"node-7211425604","lat":25.0343499,"lon":121.5758438,"name":"æ˜¥ç™¼æ±•é ­ä¹¾æ‹Œéºµ","decorType":"restaurant","decorName":"é¤å»³","decorIcon":"ğŸ½ï¸"},{"id":"node-7211425613","lat":25.0376209,"lon":121.5775196,"name":"å“è¨˜é›è‚‰é£¯","decorType":"restaurant","decorName":"é¤å»³","decorIcon":"ğŸ½ï¸"},{"id":"node-7211425618","lat":25.0379261,"lon":121.5791452,"name":"æ—åª½åª½é¹½æ°´é›","decorType":"restaurant","decorName":"é¤å»³","decorIcon":"ğŸ½ï¸"},{"id":"node-7211425619","lat":25.0372473,"lon":121.5791383,"name":"æ—å®¶ç¾Šè‚‰ç¾¹","decorType":"restaurant","decorName":"é¤å»³","decorIcon":"ğŸ½ï¸"},{"id":"node-7211425620","lat":25.0381979,"lon":121.5795248,"name":"æ—å£è¡—æ‹‰éºµ","decorType":"restaurant","decorName":"é¤å»³","decorIcon":"ğŸ½ï¸"},{"id":"node-7211425621","lat":25.0364812,"lon":121.5790437,"name":"æ˜“å®¶é¯Šé­šéºµ","decorType":"restaurant","decorName":"é¤å»³","decorIcon":"ğŸ½ï¸"},{"id":"node-7211425622","lat":25.0348185,"lon":121.5747157,"name":"æ‹‰äºæ¼¢å ¡","decorType":"burger","decorName":"æ¼¢å ¡åº—","decorIcon":"ğŸ”"},{"id":"node-7211425630","lat":25.0378049,"lon":121.5761086,"name":"ç«ç‘°æœ¨42è™Ÿ","decorType":"restaurant","decorName":"é¤å»³","decorIcon":"ğŸ½ï¸"},{"id":"node-7211425631","lat":25.0376224,"lon":121.5775979,"name":"ç‚’ç¿»å¤©é»å¿ƒåŠ","decorType":"restaurant","decorName":"é¤å»³","decorIcon":"ğŸ½ï¸"},{"id":"node-7211425637","lat":25.0377322,"lon":121.5792382,"name":"æ¾æ—ºè‡­è±†è…","decorType":"restaurant","decorName":"é¤å»³","decorIcon":"ğŸ½ï¸"},{"id":"node-7211425638","lat":25.038599,"lon":121.5849333,"name":"æ¾å·ç¾æ»·æ»·å‘³","decorType":"restaurant","decorName":"é¤å»³","decorIcon":"ğŸ½ï¸"},{"id":"node-7211425650","lat":25.0375885,"lon":121.5830301,"name":"å‘·é£½å‘³","decorType":"restaurant","decorName":"é¤å»³","decorIcon":"ğŸ½ï¸"},{"id":"node-7211425653","lat":25.0343213,"lon":121.5753561,"name":"å‘·å°šå¯¶","decorType":"burger","decorName":"æ¼¢å ¡åº—","decorIcon":"ğŸ”"},{"id":"node-7211425663","lat":25.0384802,"lon":121.5784182,"name":"é˜¿æ ¹æ—©é»","decorType":"restaurant","decorName":"é¤å»³","decorIcon":"ğŸ½ï¸"},{"id":"node-7211425664","lat":25.0387229,"lon":121.5788233,"name":"é˜¿å¨Ÿç´ é£Ÿ","decorType":"restaurant","decorName":"é¤å»³","decorIcon":"ğŸ½ï¸"},{"id":"node-7211425671","lat":25.0377402,"lon":121.5775863,"name":"é˜¿å¹¸é®®æ‰“æœæ±","decorType":"restaurant","decorName":"é¤å»³","decorIcon":"ğŸ½ï¸"},{"id":"node-7211425674","lat":25.036447,"lon":121.5793564,"name":"é˜¿æ°‘æ§è‚‰é£¯","decorType":"restaurant","decorName":"é¤å»³","decorIcon":"ğŸ½ï¸"},{"id":"node-7211425676","lat":25.0365185,"lon":121.5793693,"name":"é˜¿å¡æ‹‰å°ˆæ¥­ç‚¸é›é€£é–","decorType":"restaurant","decorName":"é¤å»³","decorIcon":"ğŸ½ï¸"},{"id":"node-7211425678","lat":25.038469,"lon":121.5794277,"name":"é˜¿ä¸‰é£Ÿå ‚","decorType":"restaurant","decorName":"é¤å»³","decorIcon":"ğŸ½ï¸"},{"id":"node-7211425679","lat":25.0374804,"lon":121.577716,"name":"è±†èŠ±ï¼Œç¶ è±†ï¼Œè–ä»ã€‚","decorType":"restaurant","decorName":"é¤å»³","decorIcon":"ğŸ½ï¸"},{"id":"node-7211425681","lat":25.0374678,"lon":121.5792008,"name":"èŠ±ç”°æ¨‚é‡å°å£½å¸","decorType":"restaurant","decorName":"é¤å»³","decorIcon":"ğŸ½ï¸"},{"id":"node-7211425685","lat":25.0380097,"lon":121.5780028,"name":"å¼å¼éº»è¾£ï½œè±šéª¨éº»è¾£ç‡™å°ˆé–€","decorType":"restaurant","decorName":"é¤å»³","decorIcon":"ğŸ½ï¸"},{"id":"node-7211425688","lat":25.0362001,"lon":121.5789684,"name":"ä½•å®¶é´¨åº„","decorType":"restaurant","decorName":"é¤å»³","decorIcon":"ğŸ½ï¸"},{"id":"node-7211425690","lat":25.0378496,"lon":121.5758977,"name":"è€é¥•è‚‰èˆ–","decorType":"restaurant","decorName":"é¤å»³","decorIcon":"ğŸ½ï¸"},{"id":"node-7211425692","lat":25.0366619,"lon":121.5797671,"name":"è€åœ°æ–¹å°è±ªè¯é¤ç›’","decorType":"restaurant","decorName":"é¤å»³","decorIcon":"ğŸ½ï¸"},{"id":"node-7211425693","lat":25.0386076,"lon":121.5850649,"name":"è‡ªåŠ©é¤ï¼Œå¿«é¤","decorType":"restaurant","decorName":"é¤å»³","decorIcon":"ğŸ½ï¸"},{"id":"node-7211425694","lat":25.0381541,"lon":121.5849987,"name":"è‚‰ç‡¥é¤›é£©éºµ","decorType":"restaurant","decorName":"é¤å»³","decorIcon":"ğŸ½ï¸"},{"id":"node-7211425708","lat":25.0367594,"lon":121.5793471,"name":"å¥½åƒç‹é›è‚‰","decorType":"restaurant","decorName":"é¤å»³","decorIcon":"ğŸ½ï¸"},{"id":"node-7211425716","lat":25.0377267,"lon":121.5777807,"name":"åŒ—æ¸¯å°åƒ","decorType":"restaurant","decorName":"é¤å»³","decorIcon":"ğŸ½ï¸"},{"id":"node-7211425718","lat":25.0363174,"lon":121.5781199,"name":"ç¦¾é †è±æ¹¯åŒ…é¤¨","decorType":"restaurant","decorName":"é¤å»³","decorIcon":"ğŸ½ï¸"},{"id":"node-7211425719","lat":25.0381297,"lon":121.5841571,"name":"çŸ³é±»é¤Šç”ŸçŸ³é ­ç«é‹","decorType":"restaurant","decorName":"é¤å»³","decorIcon":"ğŸ½ï¸"},{"id":"node-7211425720","lat":25.0379989,"lon":121.5791736,"name":"çŸ³ç¢‡å…¬è‡­è‡­é‹","decorType":"restaurant","decorName":"é¤å»³","decorIcon":"ğŸ½ï¸"},{"id":"node-7211425726","lat":25.0384398,"lon":121.584822,"name":"æ­£æ…ˆç´ é£Ÿ","decorType":"restaurant","decorName":"é¤å»³","decorIcon":"ğŸ½ï¸"},{"id":"node-7211425728","lat":25.0377775,"lon":121.5782899,"name":"æ­£å®—å°ˆæ¥­æ½¤é¤…","decorType":"restaurant","decorName":"é¤å»³","decorIcon":"ğŸ½ï¸"},{"id":"node-7211425733","lat":25.0375617,"lon":121.577244,"name":"å¤–æ˜Ÿäººå°èˆ–-å•Šè³€ç¾åšæ²é¤…èˆ–","decorType":"restaurant","decorName":"é¤å»³","decorIcon":"ğŸ½ï¸"},{"id":"node-7211425737","lat":25.0384177,"lon":121.5782162,"name":"å°ç£ç¬¬ä¸€æ£§","decorType":"restaurant","decorName":"é¤å»³","decorIcon":"ğŸ½ï¸"},{"id":"node-7211425738","lat":25.0383045,"lon":121.5849465,"name":"å°ä¸­è„†çš®è‡­è±†è…","decorType":"restaurant","decorName":"é¤å»³","decorIcon":"ğŸ½ï¸"},{"id":"node-7211425742","lat":25.0377694,"lon":121.5860735,"name":"åŒ…è¨˜é¥…é ­","decorType":"restaurant","decorName":"é¤å»³","decorIcon":"ğŸ½ï¸"},{"id":"node-7211425750","lat":25.0386507,"lon":121.5847874,"name":"æ–¹å®¶é¹½é…¥é›","decorType":"restaurant","decorName":"é¤å»³","decorIcon":"ğŸ½ï¸"},{"id":"node-7211425754","lat":25.0361076,"lon":121.578357,"name":"å·¨æ—ç¾è€Œç¾","decorType":"burger","decorName":"æ¼¢å ¡åº—","decorIcon":"ğŸ”"},{"id":"node-7211425755","lat":25.0357574,"lon":121.5773081,"name":"å·¨äººæ–°éµæ¿ç‡’æ–™ç†","decorType":"restaurant","decorName":"é¤å»³","decorIcon":"ğŸ½ï¸"},{"id":"node-7211425759","lat":25.036553,"lon":121.5807713,"name":"å¤©é‚Šçš„å®¶","decorType":"restaurant","decorName":"é¤å»³","decorIcon":"ğŸ½ï¸"},{"id":"node-7211425760","lat":25.0380686,"lon":121.5851106,"name":"å¤©é¦™ç´ é£Ÿ","decorType":"restaurant","decorName":"é¤å»³","decorIcon":"ğŸ½ï¸"},{"id":"node-7211425763","lat":25.0386896,"lon":121.5794222,"name":"é¦™é›æ’é¹½é…¥é›ä¸²çƒ¤","decorType":"restaurant","decorName":"é¤å»³","decorIcon":"ğŸ½ï¸"},{"id":"node-7211425767","lat":25.0363293,"lon":121.5783234,"name":"ä¸å¹«æ»·å‘³","decorType":"restaurant","decorName":"é¤å»³","decorIcon":"ğŸ½ï¸"},{"id":"node-7211425776","lat":25.0382451,"lon":121.5782001,"name":"å°ç«¹å±‹æ—¥å¼æ–™ç†","decorType":"restaurant","decorName":"é¤å»³","decorIcon":"ğŸ½ï¸"},{"id":"node-7211425781","lat":25.0371893,"lon":121.5793832,"name":"å¤§æºªç´…æ²¹æŠ„æ‰‹","decorType":"restaurant","decorName":"é¤å»³","decorIcon":"ğŸ½ï¸"},{"id":"node-7211425782","lat":25.0366586,"lon":121.5776805,"name":"å¤§å–œè±†æ¼¿éŸ­èœç›’å­","decorType":"restaurant","decorName":"é¤å»³","decorIcon":"ğŸ½ï¸"},{"id":"node-7211425786","lat":25.0361685,"lon":121.5777406,"name":"å¤§æ–¹å†°å“","decorType":"restaurant","decorName":"é¤å»³","decorIcon":"ğŸ½ï¸"},{"id":"node-7211425787","lat":25.0364144,"lon":121.5789787,"name":"ä¸Šæµ·èŸ¹æ®¼é»ƒç‡’é¤…","decorType":"restaurant","decorName":"é¤å»³","decorIcon":"ğŸ½ï¸"},{"id":"node-7211425788","lat":25.038326,"lon":121.584532,"name":"ä¸Šæµ·é®®è‚‰åŒ…","decorType":"restaurant","decorName":"é¤å»³","decorIcon":"ğŸ½ï¸"},{"id":"node-7211425797","lat":25.036057,"lon":121.577681,"name":"å…«æ–¹é›²é›†","decorType":"burger","decorName":"æ¼¢å ¡åº—","decorIcon":"ğŸ”"},{"id":"node-7211425802","lat":25.0367257,"lon":121.5793839,"name":"ä¹ä»½èŠ‹åœ“è‡­è±†è…è‚‰åœ“","decorType":"restaurant","decorName":"é¤å»³","decorIcon":"ğŸ½ï¸"},{"id":"node-7211425805","lat":25.0374494,"lon":121.577244,"name":"ä¸€æ¨‚æ–™ç†","decorType":"restaurant","decorName":"é¤å»³","decorIcon":"ğŸ½ï¸"},{"id":"node-7211425806","lat":25.0371307,"lon":121.5794029,"name":"ä¸€å“å‘³ç¢³çƒ¤","decorType":"restaurant","decorName":"é¤å»³","decorIcon":"ğŸ½ï¸"},{"id":"node-7211425809","lat":25.0381011,"lon":121.5760863,"name":"Queen's Ring æ‰‹å·¥ç‰›è»‹é…¥","decorType":"restaurant","decorName":"é¤å»³","decorIcon":"ğŸ½ï¸"},{"id":"node-7211425812","lat":25.0354454,"lon":121.5773478,"name":"PIZZA HUTå¿…å‹å®¢","decorType":"restaurant","decorName":"é¤å»³","decorIcon":"ğŸ½ï¸"},{"id":"node-7211425830","lat":25.0346629,"lon":121.5758861,"name":"29è™Ÿä¸­è¥¿è¤‡åˆå¼æ—©é¤","decorType":"restaurant","decorName":"é¤å»³","decorIcon":"ğŸ½ï¸"},{"id":"node-7700136993","lat":25.0346065,"lon":121.5758291,"name":"å‘³å±‹å’–å“©","decorType":"restaurant","decorName":"é¤å»³","decorIcon":"ğŸ½ï¸"},{"id":"node-7798228804","lat":25.0376083,"lon":121.5831312,"name":"å¥½å…†é ­","decorType":"restaurant","decorName":"é¤å»³","decorIcon":"ğŸ½ï¸"},{"id":"node-7805829402","lat":25.0247393,"lon":121.5776011,"name":"æ…ˆé‘¾å®®","decorType":"shrine","decorName":"ç¥ç¤¾","decorIcon":"â›©ï¸"},{"id":"node-7836938823","lat":25.0334437,"lon":121.5746992,"name":"ä¸è²½æ¨£æ¹¯åŒ…æ’éª¨é…¥","decorType":"restaurant","decorName":"é¤å»³","decorIcon":"ğŸ½ï¸"},{"id":"node-8074572151","lat":25.0355384,"lon":121.5774309,"name":"æ¢ç¤¾æ¼¢æ’éª¨","decorType":"restaurant","decorName":"é¤å»³","decorIcon":"ğŸ½ï¸"},{"id":"node-8118273002","lat":25.0371725,"lon":121.5771443,"name":"7-Eleven","decorType":"convenience","decorName":"ä¾¿åˆ©å•†åº—","decorIcon":"ğŸª"},{"id":"node-9565748538","lat":25.0378333,"lon":121.5794146,"name":"èŠçˆ¾å¯Œ","decorType":"convenience","decorName":"ä¾¿åˆ©å•†åº—","decorIcon":"ğŸª"},{"id":"node-9802699422","lat":25.0377347,"lon":121.5835818,"name":"é’æç¶ è‘‰è”¬é£Ÿé¤é¤¨","decorType":"restaurant","decorName":"é¤å»³","decorIcon":"ğŸ½ï¸"},{"id":"node-9832879822","lat":25.0350053,"lon":121.5762301,"name":"è¦çš®åº—åˆ°åº—","decorType":"convenience","decorName":"ä¾¿åˆ©å•†åº—","decorIcon":"ğŸª"},{"id":"node-12244968179","lat":25.0386071,"lon":121.5854359,"name":"ä¼Šå“åœ’çƒ˜ç„™åŠ","decorType":"bakery","decorName":"éºµåŒ…åº—","decorIcon":"ğŸ¥"},{"id":"node-12244968200","lat":25.0383291,"lon":121.5845701,"name":"å¤æ—©å‘³è”¥æ²¹é¤…","decorType":"restaurant","decorName":"é¤å»³","decorIcon":"ğŸ½ï¸"},{"id":"node-12244968202","lat":25.0379124,"lon":121.5822743,"name":"å»£æ…ˆåˆ†é¤¨","decorType":"library","decorName":"åœ–æ›¸é¤¨ï¼æ›¸åº—","decorIcon":"ğŸ“š"},{"id":"node-12307149309","lat":25.0383514,"lon":121.5836388,"name":"ä¿¡ç¾©è¡Œæ”¿ä¸­å¿ƒï¼ˆå¥‰å¤©å®®ï¼‰","decorType":"bus_stop","decorName":"å…¬è»Šç«™","decorIcon":"ğŸšŒ"},{"id":"node-12308964613","lat":25.0383222,"lon":121.5835825,"name":"ä¿¡ç¾©è¡Œæ”¿ä¸­å¿ƒï¼ˆå¥‰å¤©å®®ï¼‰","decorType":"bus_stop","decorName":"å…¬è»Šç«™","decorIcon":"ğŸšŒ"},{"id":"node-12407595899","lat":25.0318038,"lon":121.5744583,"name":"æœªå‘½åéƒµå±€","decorType":"post_office","decorName":"éƒµå±€","decorIcon":"âœ‰ï¸"},{"id":"node-12407756629","lat":25.0305673,"lon":121.5750061,"name":"æ¾å¾·é™¢å€ (æ¥é§è»Š)","decorType":"bus_stop","decorName":"å…¬è»Šç«™","decorIcon":"ğŸšŒ"},{"id":"node-12430203444","lat":25.0330948,"lon":121.5827637,"name":"æœªå‘½åå±±ä¸˜","decorType":"mountain","decorName":"å±±ä¸˜","decorIcon":"â›°ï¸"},{"id":"node-12430206715","lat":25.0356435,"lon":121.5821052,"name":"äº”åˆ†åŸ”å±±","decorType":"mountain","decorName":"å±±ä¸˜","decorIcon":"â›°ï¸"},{"id":"node-12430206800","lat":25.0298419,"lon":121.5801231,"name":"æœªå‘½åå±±ä¸˜","decorType":"mountain","decorName":"å±±ä¸˜","decorIcon":"â›°ï¸"},{"id":"node-12430207715","lat":25.0248683,"lon":121.5756059,"name":"æ¸…éœå±±ç¦å¾·å®®","decorType":"shrine","decorName":"ç¥ç¤¾","decorIcon":"â›©ï¸"},{"id":"node-13047779801","lat":25.0376067,"lon":121.5754609,"name":"çƒ˜ç„™è€…å’–å•¡","decorType":"cafe","decorName":"å’–å•¡å»³","decorIcon":"â˜•"},{"id":"node-13413775741","lat":25.0357419,"lon":121.5765356,"name":"èŠçˆ¾å¯Œ","decorType":"convenience","decorName":"ä¾¿åˆ©å•†åº—","decorIcon":"ğŸª"},{"id":"way-135744364","lat":25.0315965,"lon":121.5797314,"name":"æœªå‘½åæ©‹æ¨‘","decorType":"bridge","decorName":"æ©‹æ¨‘","decorIcon":"ğŸŒ‰"},{"id":"way-136977237","lat":25.0366438,"lon":121.5870785,"name":"æœªå‘½åæ°´é‚Š","decorType":"waterside","decorName":"æ°´é‚Š","decorIcon":"ğŸŒŠ"},{"id":"way-203755088","lat":25.0385293,"lon":121.5750795,"name":"ä¸­å…¨å…¬åœ’","decorType":"park","decorName":"å…¬åœ’","decorIcon":"ğŸ€"},{"id":"way-218489808","lat":25.0279573,"lon":121.5792489,"name":"å¤©å¯¶è–é“å®®","decorType":"shrine","decorName":"ç¥ç¤¾","decorIcon":"â›©ï¸"},{"id":"way-218489810","lat":25.0315697,"lon":121.5774275,"name":"æ°¸æ˜¥å´—å…¬åœ’","decorType":"park","decorName":"å…¬åœ’","decorIcon":"ğŸ€"},{"id":"way-218489814","lat":25.0322557,"lon":121.5761682,"name":"ç¦å¾·å®®","decorType":"shrine","decorName":"ç¥ç¤¾","decorIcon":"â›©ï¸"},{"id":"way-218489815","lat":25.0325041,"lon":121.5764547,"name":"é¡å­å»Ÿ","decorType":"shrine","decorName":"ç¥ç¤¾","decorIcon":"â›©ï¸"},{"id":"way-218491167","lat":25.0372413,"lon":121.5846303,"name":"æ¾å±±å¥‰å¤©å®®","decorType":"shrine","decorName":"ç¥ç¤¾","decorIcon":"â›©ï¸"},{"id":"way-218906239","lat":25.0312273,"lon":121.5747042,"name":"è™æ—å…¬åœ’","decorType":"park","decorName":"å…¬åœ’","decorIcon":"ğŸ€"},{"id":"way-226858960","lat":25.0259924,"lon":121.5778283,"name":"åŒ—æ˜Ÿå¯¶å®®","decorType":"shrine","decorName":"ç¥ç¤¾","decorIcon":"â›©ï¸"},{"id":"way-226858962","lat":25.0353216,"lon":121.5818512,"name":"å‰ç¦å®®","decorType":"shrine","decorName":"ç¥ç¤¾","decorIcon":"â›©ï¸"},{"id":"way-226858963","lat":25.0266297,"lon":121.5791254,"name":"å¤©å¯¶è–é“é™¢","decorType":"shrine","decorName":"ç¥ç¤¾","decorIcon":"â›©ï¸"},{"id":"way-226858965","lat":25.029047,"lon":121.5836874,"name":"ç‘¤æ± å®®","decorType":"shrine","decorName":"ç¥ç¤¾","decorIcon":"â›©ï¸"},{"id":"way-249528278","lat":25.0383853,"lon":121.5838409,"name":"ç¦å¾·å…¬åœ’","decorType":"park","decorName":"å…¬åœ’","decorIcon":"ğŸ€"},{"id":"way-258816694","lat":25.0338611,"lon":121.5762838,"name":"æ¾å‹å…¬åœ’","decorType":"park","decorName":"å…¬åœ’","decorIcon":"ğŸ€"},{"id":"way-258816697","lat":25.0307573,"lon":121.5828733,"name":"æœªå‘½åæ°´é‚Š","decorType":"waterside","decorName":"æ°´é‚Š","decorIcon":"ğŸŒŠ"},{"id":"way-259072392","lat":25.0332164,"lon":121.5869709,"name":"å—å¤©å®®","decorType":"shrine","decorName":"ç¥ç¤¾","decorIcon":"â›©ï¸"},{"id":"way-259072398","lat":25.0319592,"lon":121.586584,"name":"å£½å¤©å®®","decorType":"shrine","decorName":"ç¥ç¤¾","decorIcon":"â›©ï¸"},{"id":"way-259072404","lat":25.0300773,"lon":121.5861733,"name":"æ˜å±±å¯º","decorType":"shrine","decorName":"ç¥ç¤¾","decorIcon":"â›©ï¸"},{"id":"way-259072406","lat":25.0343205,"lon":121.587275,"name":"æ¸…é€£åœ’","decorType":"park","decorName":"å…¬åœ’","decorIcon":"ğŸ€"},{"id":"way-259072408","lat":25.0361709,"lon":121.585153,"name":"ç¦å£½å®®","decorType":"shrine","decorName":"ç¥ç¤¾","decorIcon":"â›©ï¸"},{"id":"way-259072411","lat":25.0342039,"lon":121.5860215,"name":"ç¿ è¯å®®","decorType":"shrine","decorName":"ç¥ç¤¾","decorIcon":"â›©ï¸"},{"id":"way-259072413","lat":25.0332731,"lon":121.5865061,"name":"èˆˆå—åºœ","decorType":"shrine","decorName":"ç¥ç¤¾","decorIcon":"â›©ï¸"},{"id":"way-261647345","lat":25.0299955,"lon":121.5775333,"name":"è¨±æ°å®—ç¥ ","decorType":"shrine","decorName":"ç¥ç¤¾","decorIcon":"â›©ï¸"},{"id":"way-261647346","lat":25.0302922,"lon":121.5780718,"name":"æœªå‘½åå…¬åœ’","decorType":"park","decorName":"å…¬åœ’","decorIcon":"ğŸ€"},{"id":"way-261656000","lat":25.0360412,"lon":121.5852157,"name":"è¬å–„å…¬åª½ç¥ ","decorType":"shrine","decorName":"ç¥ç¤¾","decorIcon":"â›©ï¸"},{"id":"way-261673073","lat":25.0262554,"lon":121.5791655,"name":"ä¿®è–å¯º","decorType":"shrine","decorName":"ç¥ç¤¾","decorIcon":"â›©ï¸"},{"id":"way-261673080","lat":25.0250355,"lon":121.5815213,"name":"æ¾å±±éˆéš±å¯º","decorType":"shrine","decorName":"ç¥ç¤¾","decorIcon":"â›©ï¸"},{"id":"way-261684009","lat":25.0301532,"lon":121.5814013,"name":"è±¹å±±æºªæ­¥é“","decorType":"bridge","decorName":"æ©‹æ¨‘","decorIcon":"ğŸŒ‰"},{"id":"way-261688225","lat":25.0289869,"lon":121.5816308,"name":"è±¹å±±æºªæ­¥é“","decorType":"bridge","decorName":"æ©‹æ¨‘","decorIcon":"ğŸŒ‰"},{"id":"way-261711345","lat":25.0266277,"lon":121.5813463,"name":"å¯’å±±å¯º","decorType":"shrine","decorName":"ç¥ç¤¾","decorIcon":"â›©ï¸"},{"id":"way-261711348","lat":25.026479,"lon":121.581425,"name":"æœªå‘½åæ©‹æ¨‘","decorType":"bridge","decorName":"æ©‹æ¨‘","decorIcon":"ğŸŒ‰"},{"id":"way-261776699","lat":25.0348499,"lon":121.5796964,"name":"ä¿¡ç¾©316æ¾éš†ç¶ åœ°","decorType":"park","decorName":"å…¬åœ’","decorIcon":"ğŸ€"},{"id":"way-319737767","lat":25.0257209,"lon":121.5832515,"name":"æ…ˆèˆªå¯º","decorType":"shrine","decorName":"ç¥ç¤¾","decorIcon":"â›©ï¸"},{"id":"way-319737769","lat":25.025922,"lon":121.5826494,"name":"æ…ˆèˆªå¯ºå¤§æ‚²æ®¿","decorType":"shrine","decorName":"ç¥ç¤¾","decorIcon":"â›©ï¸"},{"id":"way-319737772","lat":25.0260625,"lon":121.5829855,"name":"æ™®é™€å¯º","decorType":"shrine","decorName":"ç¥ç¤¾","decorIcon":"â›©ï¸"},{"id":"way-319737774","lat":25.0253538,"lon":121.5842828,"name":"é³³å±±å¯º","decorType":"shrine","decorName":"ç¥ç¤¾","decorIcon":"â›©ï¸"},{"id":"way-343890066","lat":25.034142,"lon":121.5783815,"name":"æœªå‘½åé«”è‚²é¤¨","decorType":"stadium","decorName":"é«”è‚²é¤¨","decorIcon":"ğŸŸï¸"},{"id":"way-366972819","lat":25.0313198,"lon":121.5805718,"name":"æœªå‘½åæ©‹æ¨‘","decorType":"bridge","decorName":"æ©‹æ¨‘","decorIcon":"ğŸŒ‰"},{"id":"way-372089053","lat":25.0264462,"lon":121.5825502,"name":"çš‡æ¯å®®","decorType":"shrine","decorName":"ç¥ç¤¾","decorIcon":"â›©ï¸"},{"id":"way-372366227","lat":25.0285913,"lon":121.5840099,"name":"æ¥Šè–å®®","decorType":"shrine","decorName":"ç¥ç¤¾","decorIcon":"â›©ï¸"},{"id":"way-396908993","lat":25.0318907,"lon":121.5775487,"name":"æœªå‘½åå…¬åœ’","decorType":"park","decorName":"å…¬åœ’","decorIcon":"ğŸ€"},{"id":"way-397030627","lat":25.0295826,"lon":121.5744248,"name":"å½©è™¹æ©‹","decorType":"bridge","decorName":"æ©‹æ¨‘","decorIcon":"ğŸŒ‰"},{"id":"way-420981031","lat":25.0281322,"lon":121.5781325,"name":"è§€éŸ³å²©","decorType":"shrine","decorName":"ç¥ç¤¾","decorIcon":"â›©ï¸"},{"id":"way-420981032","lat":25.0283095,"lon":121.578211,"name":"è¬å£½å®®","decorType":"shrine","decorName":"ç¥ç¤¾","decorIcon":"â›©ï¸"},{"id":"way-420981035","lat":25.0283319,"lon":121.5784851,"name":"å±±ç¥æ´","decorType":"shrine","decorName":"ç¥ç¤¾","decorIcon":"â›©ï¸"},{"id":"way-420981036","lat":25.0281216,"lon":121.5786063,"name":"è§€éŸ³å»Ÿ","decorType":"shrine","decorName":"ç¥ç¤¾","decorIcon":"â›©ï¸"},{"id":"way-420981037","lat":25.028005,"lon":121.578407,"name":"ä¸»æ¯æ®¿","decorType":"shrine","decorName":"ç¥ç¤¾","decorIcon":"â›©ï¸"},{"id":"way-420981038","lat":25.0281726,"lon":121.5788807,"name":"å¤©ç‰å¯º","decorType":"shrine","decorName":"ç¥ç¤¾","decorIcon":"â›©ï¸"},{"id":"way-420981039","lat":25.0283755,"lon":121.5789217,"name":"ç¦å¾·å®®","decorType":"shrine","decorName":"ç¥ç¤¾","decorIcon":"â›©ï¸"},{"id":"way-420992750","lat":25.0261474,"lon":121.5784206,"name":"ç¦å¾·å®®","decorType":"shrine","decorName":"ç¥ç¤¾","decorIcon":"â›©ï¸"},{"id":"way-420992752","lat":25.0261592,"lon":121.5789056,"name":"æœªå‘½åç¥ç¤¾","decorType":"shrine","decorName":"ç¥ç¤¾","decorIcon":"â›©ï¸"},{"id":"way-420992753","lat":25.0260336,"lon":121.5794303,"name":"æœªå‘½åç¥ç¤¾","decorType":"shrine","decorName":"ç¥ç¤¾","decorIcon":"â›©ï¸"},{"id":"way-421020260","lat":25.0251212,"lon":121.5811473,"name":"è§€éŸ³åƒ","decorType":"shrine","decorName":"ç¥ç¤¾","decorIcon":"â›©ï¸"},{"id":"way-421573193","lat":25.0266046,"lon":121.5755391,"name":"æœªå‘½åå…¬åœ’","decorType":"park","decorName":"å…¬åœ’","decorIcon":"ğŸ€"},{"id":"way-421711850","lat":25.0251906,"lon":121.5811724,"name":"è§€éŸ³èˆ‡åå…«ç¾…æ¼¢ç¾¤åƒ","decorType":"park","decorName":"å…¬åœ’","decorIcon":"ğŸ€"},{"id":"way-421711860","lat":25.0264406,"lon":121.5783936,"name":"æœªå‘½åæ©‹æ¨‘","decorType":"bridge","decorName":"æ©‹æ¨‘","decorIcon":"ğŸŒ‰"},{"id":"way-518082285","lat":25.0366278,"lon":121.5753869,"name":"å®‰å¼·å…¬åœ’","decorType":"park","decorName":"å…¬åœ’","decorIcon":"ğŸ€"},{"id":"way-532713296","lat":25.0311443,"lon":121.586864,"name":"å¾©èˆˆåœ’","decorType":"park","decorName":"å…¬åœ’","decorIcon":"ğŸ€"},{"id":"way-542936130","lat":25.0288746,"lon":121.5844953,"name":"ä¹äº”èŒ…è“¬","decorType":"shrine","decorName":"ç¥ç¤¾","decorIcon":"â›©ï¸"},{"id":"way-553200712","lat":25.0312687,"lon":121.5861875,"name":"æ…ˆå¤©å®®","decorType":"shrine","decorName":"ç¥ç¤¾","decorIcon":"â›©ï¸"},{"id":"way-553208251","lat":25.0310441,"lon":121.5866719,"name":"æœç„å®®","decorType":"shrine","decorName":"ç¥ç¤¾","decorIcon":"â›©ï¸"},{"id":"way-553208252","lat":25.0310225,"lon":121.5863921,"name":"å¿ ç¾©å®®","decorType":"shrine","decorName":"ç¥ç¤¾","decorIcon":"â›©ï¸"},{"id":"way-699650774","lat":25.0290241,"lon":121.5805905,"name":"æœªå‘½åå±±ä¸˜","decorType":"mountain","decorName":"å±±ä¸˜","decorIcon":"â›°ï¸"},{"id":"way-699650775","lat":25.0305368,"lon":121.5820764,"name":"æœªå‘½åå±±ä¸˜","decorType":"mountain","decorName":"å±±ä¸˜","decorIcon":"â›°ï¸"},{"id":"way-699650778","lat":25.0310031,"lon":121.5802475,"name":"æœªå‘½åæ©‹æ¨‘","decorType":"bridge","decorName":"æ©‹æ¨‘","decorIcon":"ğŸŒ‰"},{"id":"way-700650794","lat":25.0281988,"lon":121.5826402,"name":"æœªå‘½åæ°´é‚Š","decorType":"waterside","decorName":"æ°´é‚Š","decorIcon":"ğŸŒŠ"},{"id":"way-829704006","lat":25.0336108,"lon":121.5808822,"name":"ç…å±±æºª","decorType":"waterside","decorName":"æ°´é‚Š","decorIcon":"ğŸŒŠ"},{"id":"way-829704007","lat":25.0334575,"lon":121.5808037,"name":"ç…å±±æºª","decorType":"waterside","decorName":"æ°´é‚Š","decorIcon":"ğŸŒŠ"},{"id":"way-829704011","lat":25.0331992,"lon":121.5799727,"name":"æœªå‘½åæ©‹æ¨‘","decorType":"bridge","decorName":"æ©‹æ¨‘","decorIcon":"ğŸŒ‰"},{"id":"way-829704017","lat":25.0332344,"lon":121.5803078,"name":"æœªå‘½åæ©‹æ¨‘","decorType":"bridge","decorName":"æ©‹æ¨‘","decorIcon":"ğŸŒ‰"},{"id":"way-829704032","lat":25.033219,"lon":121.5800935,"name":"æœªå‘½åæ©‹æ¨‘","decorType":"bridge","decorName":"æ©‹æ¨‘","decorIcon":"ğŸŒ‰"},{"id":"way-829704034","lat":25.0332887,"lon":121.580142,"name":"ç…å±±æºª","decorType":"waterside","decorName":"æ°´é‚Š","decorIcon":"ğŸŒŠ"},{"id":"way-829704036","lat":25.0332963,"lon":121.5802673,"name":"æœªå‘½åæ©‹æ¨‘","decorType":"bridge","decorName":"æ©‹æ¨‘","decorIcon":"ğŸŒ‰"},{"id":"way-829704037","lat":25.0324595,"lon":121.579654,"name":"ç…å±±æºª","decorType":"waterside","decorName":"æ°´é‚Š","decorIcon":"ğŸŒŠ"},{"id":"way-829704038","lat":25.0326513,"lon":121.579738,"name":"ç…å±±æºª","decorType":"waterside","decorName":"æ°´é‚Š","decorIcon":"ğŸŒŠ"},{"id":"way-829704043","lat":25.0330922,"lon":121.5798753,"name":"ç…å±±æºª","decorType":"waterside","decorName":"æ°´é‚Š","decorIcon":"ğŸŒŠ"},{"id":"way-829704044","lat":25.0331083,"lon":121.5798597,"name":"ç…å±±æºª","decorType":"waterside","decorName":"æ°´é‚Š","decorIcon":"ğŸŒŠ"},{"id":"way-829704048","lat":25.0338018,"lon":121.5807905,"name":"æœªå‘½åæ©‹æ¨‘","decorType":"bridge","decorName":"æ©‹æ¨‘","decorIcon":"ğŸŒ‰"},{"id":"way-853823883","lat":25.0314328,"lon":121.5821809,"name":"æœªå‘½åæ°´é‚Š","decorType":"waterside","decorName":"æ°´é‚Š","decorIcon":"ğŸŒŠ"},{"id":"way-1323275631","lat":25.0385024,"lon":121.5839044,"name":"æœªå‘½åå…¬åœ’","decorType":"park","decorName":"å…¬åœ’","decorIcon":"ğŸ€"},{"id":"way-1341472300","lat":25.0290089,"lon":121.5747626,"name":"æœªå‘½åæ£®æ—","decorType":"forest","decorName":"æ£®æ—","decorIcon":"ğŸŒ²"},{"id":"way-1341472302","lat":25.0289917,"lon":121.5746405,"name":"æœªå‘½åæ°´é‚Š","decorType":"waterside","decorName":"æ°´é‚Š","decorIcon":"ğŸŒŠ"},{"id":"way-1341472303","lat":25.0289532,"lon":121.5747512,"name":"æœªå‘½åæ°´é‚Š","decorType":"waterside","decorName":"æ°´é‚Š","decorIcon":"ğŸŒŠ"},{"id":"way-1341472307","lat":25.0290605,"lon":121.5746784,"name":"æœªå‘½åæ£®æ—","decorType":"forest","decorName":"æ£®æ—","decorIcon":"ğŸŒ²"},{"id":"way-1341472309","lat":25.0293141,"lon":121.5749183,"name":"æœªå‘½åæ£®æ—","decorType":"forest","decorName":"æ£®æ—","decorIcon":"ğŸŒ²"},{"id":"way-1341472311","lat":25.0296297,"lon":121.5745957,"name":"æœªå‘½åæ£®æ—","decorType":"forest","decorName":"æ£®æ—","decorIcon":"ğŸŒ²"},{"id":"way-1341472312","lat":25.0298951,"lon":121.5755066,"name":"æœªå‘½åæ£®æ—","decorType":"forest","decorName":"æ£®æ—","decorIcon":"ğŸŒ²"},{"id":"way-1341554072","lat":25.0314069,"lon":121.5748483,"name":"æœªå‘½åå…¬åœ’","decorType":"park","decorName":"å…¬åœ’","decorIcon":"ğŸ€"},{"id":"way-1341564301","lat":25.0310871,"lon":121.5773677,"name":"æœªå‘½åæ£®æ—","decorType":"forest","decorName":"æ£®æ—","decorIcon":"ğŸŒ²"},{"id":"way-1341564302","lat":25.0309011,"lon":121.576857,"name":"æœªå‘½åæ£®æ—","decorType":"forest","decorName":"æ£®æ—","decorIcon":"ğŸŒ²"},{"id":"way-1341564322","lat":25.0312633,"lon":121.5772888,"name":"æœªå‘½åå…¬åœ’","decorType":"park","decorName":"å…¬åœ’","decorIcon":"ğŸ€"},{"id":"way-1341564323","lat":25.0314081,"lon":121.5772485,"name":"æœªå‘½åå…¬åœ’","decorType":"park","decorName":"å…¬åœ’","decorIcon":"ğŸ€"},{"id":"way-1341564324","lat":25.0315252,"lon":121.5773886,"name":"æœªå‘½åå…¬åœ’","decorType":"park","decorName":"å…¬åœ’","decorIcon":"ğŸ€"},{"id":"way-1341564326","lat":25.0315621,"lon":121.5772065,"name":"æœªå‘½åæ£®æ—","decorType":"forest","decorName":"æ£®æ—","decorIcon":"ğŸŒ²"},{"id":"way-1341564347","lat":25.0308791,"lon":121.5771778,"name":"æœªå‘½åæ°´é‚Š","decorType":"waterside","decorName":"æ°´é‚Š","decorIcon":"ğŸŒŠ"},{"id":"way-1341564350","lat":25.0310741,"lon":121.577113,"name":"æœªå‘½åæ£®æ—","decorType":"forest","decorName":"æ£®æ—","decorIcon":"ğŸŒ²"},{"id":"way-1343412708","lat":25.0310948,"lon":121.5792319,"name":"æœªå‘½åæ©‹æ¨‘","decorType":"bridge","decorName":"æ©‹æ¨‘","decorIcon":"ğŸŒ‰"},{"id":"way-1343412716","lat":25.0310453,"lon":121.5809122,"name":"æœªå‘½åæ©‹æ¨‘","decorType":"bridge","decorName":"æ©‹æ¨‘","decorIcon":"ğŸŒ‰"},{"id":"way-1343412718","lat":25.0312276,"lon":121.5806397,"name":"æœªå‘½åæ©‹æ¨‘","decorType":"bridge","decorName":"æ©‹æ¨‘","decorIcon":"ğŸŒ‰"},{"id":"way-1343412720","lat":25.0271494,"lon":121.5817481,"name":"è±¹å±±æºª","decorType":"waterside","decorName":"æ°´é‚Š","decorIcon":"ğŸŒŠ"}]}