{"bbox":{"south":25.023125,"north":25.038731,"west":121.574281,"east":121.587313},"pois":[{"id":"way-1454346013","lat":25.023347,"lon":121.576506,"name":"未命名森林","decorType":"forest"},{"id":"node-274937904","lat":25.026541,"lon":121.575542,"name":"象山","decorType":"mountain"},{"id":"node-1502690945","lat":25.026226,"lon":121.58645,"name":"九五峰","decorType":"mountain"},{"id":"node-2137518609","lat":25.037747,"lon":121.577941,"name":"施家麻油腰花","decorType":"restaurant"},{"id":"node-2355932377","lat":25.03576,"lon":121.582077,"name":"應善公廟","decorType":"shrine"},{"id":"node-2355932378","lat":25.026408,"lon":121.580606,"name":"獅山","decorType":"mountain"},{"id":"node-2355932381","lat":25.027609,"lon":121.58267,"name":"福德宮","decorType":"shrine"},{"id":"node-2355932530","lat":25.031301,"lon":121.583614,"name":"虎山峰","decorType":"mountain"},{"id":"node-2355932679","lat":25.029284,"lon":121.582644,"name":"豹山","decorType":"mountain"},{"id":"node-2641343860","lat":25.035069,"lon":121.57902,"name":"路地基陰公佳城","decorType":"shrine"},{"id":"node-2672482476","lat":25.033396,"lon":121.579788,"name":"永春高中","decorType":"bus_stop"},{"id":"node-2672482479","lat":25.031336,"lon":121.579226,"name":"台北南天宮五府千歲","decorType":"shrine"},{"id":"node-2672482481","lat":25.036907,"lon":121.581179,"name":"松友新村","decorType":"bus_stop"},{"id":"node-2672482484","lat":25.036784,"lon":121.580863,"name":"未命名郵局","decorType":"post_office"},{"id":"node-2672482485","lat":25.036687,"lon":121.580651,"name":"南文宮","decorType":"shrine"},{"id":"node-2672489306","lat":25.035291,"lon":121.579624,"name":"未命名公園","decorType":"park"},{"id":"node-2672577768","lat":25.037133,"lon":121.581702,"name":"未命名郵局","decorType":"post_office"},{"id":"node-2672864421","lat":25.035823,"lon":121.578565,"name":"7-Eleven","decorType":"convenience"},{"id":"node-2673095233","lat":25.028454,"lon":121.579554,"name":"久長山恩主洞","decorType":"shrine"},{"id":"node-2673946522","lat":25.036374,"lon":121.580146,"name":"福德智慧圖書館","decorType":"library"},{"id":"node-2673946535","lat":25.035281,"lon":121.579659,"name":"未命名公園","decorType":"park"},{"id":"node-2673946536","lat":25.035266,"lon":121.579681,"name":"未命名公園","decorType":"park"},{"id":"node-2673946537","lat":25.03533,"lon":121.57956,"name":"未命名公園","decorType":"park"},{"id":"node-2713562379","lat":25.03255,"lon":121.574491,"name":"松德站","decorType":"bus_stop"},{"id":"node-2713562380","lat":25.032377,"lon":121.574679,"name":"松德站","decorType":"bus_stop"},{"id":"node-3024920770","lat":25.038713,"lon":121.585996,"name":"7-Eleven","decorType":"convenience"},{"id":"node-3024920771","lat":25.03771,"lon":121.583325,"name":"7-Eleven","decorType":"convenience"},{"id":"node-3024920772","lat":25.037689,"lon":121.583284,"name":"信義行政中心 (奉天宮)","decorType":"bus_stop"},{"id":"node-3024920809","lat":25.038211,"lon":121.584324,"name":"屈臣氏","decorType":"pharmacy"},{"id":"node-3028959476","lat":25.037826,"lon":121.583085,"name":"信義行政中心 (奉天宮)","decorType":"bus_stop"},{"id":"node-3145303946","lat":25.034294,"lon":121.575665,"name":"國稅局宿舍","decorType":"bus_stop"},{"id":"node-3145303947","lat":25.033952,"lon":121.574943,"name":"國稅局宿舍","decorType":"bus_stop"},{"id":"node-3145303952","lat":25.037022,"lon":121.580921,"name":"松友新村","decorType":"bus_stop"},{"id":"node-3145303953","lat":25.035686,"lon":121.577261,"name":"國業里","decorType":"bus_stop"},{"id":"node-3145303954","lat":25.035912,"lon":121.577819,"name":"松山商職(信義)","decorType":"bus_stop"},{"id":"node-3145303955","lat":25.036168,"lon":121.578709,"name":"松山商職(福德)","decorType":"bus_stop"},{"id":"node-3145303956","lat":25.036403,"lon":121.578783,"name":"松山商職(福德)","decorType":"bus_stop"},{"id":"node-3188323162","lat":25.035947,"lon":121.57863,"name":"松山商職(松山)","decorType":"bus_stop"},{"id":"node-3188323163","lat":25.036533,"lon":121.578366,"name":"松山商職(松山)","decorType":"bus_stop"},{"id":"node-3188323171","lat":25.033464,"lon":121.579728,"name":"永春高中","decorType":"bus_stop"},{"id":"node-3514374814","lat":25.037795,"lon":121.57465,"name":"漢堡大師","decorType":"burger"},{"id":"node-3514374815","lat":25.037927,"lon":121.574552,"name":"萊爾富","decorType":"convenience"},{"id":"node-3514374816","lat":25.03775,"lon":121.574482,"name":"川味牛肉麵","decorType":"restaurant"},{"id":"node-3514374824","lat":25.036285,"lon":121.574316,"name":"弘麗衛浴","decorType":"laundry"},{"id":"node-3633921319","lat":25.034442,"lon":121.575532,"name":"7-Eleven","decorType":"convenience"},{"id":"node-3633921418","lat":25.033982,"lon":121.574896,"name":"星巴克","decorType":"cafe"},{"id":"node-3738821430","lat":25.037372,"lon":121.575138,"name":"7-Eleven","decorType":"convenience"},{"id":"node-3939158510","lat":25.037295,"lon":121.578359,"name":"鮮豆漿","decorType":"restaurant"},{"id":"node-3997541428","lat":25.032509,"lon":121.574652,"name":"全家便利商店","decorType":"convenience"},{"id":"node-3997541430","lat":25.033301,"lon":121.574691,"name":"松德永和豆漿","decorType":"restaurant"},{"id":"node-3997541443","lat":25.032805,"lon":121.574659,"name":"7-Eleven","decorType":"convenience"},{"id":"node-4058075211","lat":25.034897,"lon":121.574361,"name":"信義松德路口","decorType":"bus_stop"},{"id":"node-4058075212","lat":25.035285,"lon":121.574699,"name":"興雅國中","decorType":"bus_stop"},{"id":"node-4058075213","lat":25.035179,"lon":121.577014,"name":"全家便利商店","decorType":"convenience"},{"id":"node-4058075217","lat":25.037893,"lon":121.575619,"name":"土地銀行","decorType":"bus_stop"},{"id":"node-4058075218","lat":25.038006,"lon":121.575433,"name":"土地銀行","decorType":"bus_stop"},{"id":"node-4058075222","lat":25.03353,"lon":121.575828,"name":"未命名郵局","decorType":"post_office"},{"id":"node-4058075224","lat":25.038245,"lon":121.576268,"name":"未命名郵局","decorType":"post_office"},{"id":"node-4208419806","lat":25.02798,"lon":121.578343,"name":"無極老君岩壁雕像","decorType":"shrine"},{"id":"node-4208719455","lat":25.02543,"lon":121.581825,"name":"18羅漢雕像","decorType":"shrine"},{"id":"node-4325693429","lat":25.035719,"lon":121.578611,"name":"佳樂佳","decorType":"restaurant"},{"id":"node-4325693480","lat":25.037094,"lon":121.578181,"name":"屈臣氏","decorType":"pharmacy"},{"id":"node-4325693917","lat":25.037732,"lon":121.577867,"name":"松德宮","decorType":"shrine"},{"id":"node-4325693937","lat":25.03667,"lon":121.578219,"name":"清心福全","decorType":"cafe"},{"id":"node-4325694150","lat":25.03583,"lon":121.578693,"name":"未命名郵局","decorType":"post_office"},{"id":"node-4325694177","lat":25.035902,"lon":121.57876,"name":"自助郵局","decorType":"post_office"},{"id":"node-4325694180","lat":25.038685,"lon":121.577545,"name":"艾美人","decorType":"hair_salon"},{"id":"node-4325694185","lat":25.03782,"lon":121.578264,"name":"萊爾富","decorType":"convenience"},{"id":"node-4325694195","lat":25.037956,"lon":121.577505,"name":"路德會松山教會","decorType":"shrine"},{"id":"node-4464905693","lat":25.038335,"lon":121.579201,"name":"兄弟鹽酥雞","decorType":"restaurant"},{"id":"node-4725956629","lat":25.037218,"lon":121.581352,"name":"均合素食點心坊","decorType":"restaurant"},{"id":"node-5585727570","lat":25.025599,"lon":121.586236,"name":"南港山","decorType":"mountain"},{"id":"node-5617368752","lat":25.037327,"lon":121.577143,"name":"宋記美食小吃","decorType":"restaurant"},{"id":"node-5941564186","lat":25.034304,"lon":121.574716,"name":"Loving Hut","decorType":"restaurant"},{"id":"node-7211419021","lat":25.038637,"lon":121.584893,"name":"觀世音素食","decorType":"restaurant"},{"id":"node-7211419028","lat":25.038284,"lon":121.585068,"name":"寶樂咩海苔飯捲","decorType":"restaurant"},{"id":"node-7211419036","lat":25.037877,"lon":121.583854,"name":"鵝媽媽の店","decorType":"restaurant"},{"id":"node-7211419037","lat":25.03804,"lon":121.579484,"name":"鵝肉龍","decorType":"restaurant"},{"id":"node-7211419039","lat":25.037551,"lon":121.579357,"name":"雙醬麵","decorType":"restaurant"},{"id":"node-7211419047","lat":25.036996,"lon":121.579076,"name":"彌勒佛素食","decorType":"restaurant"},{"id":"node-7211419051","lat":25.036317,"lon":121.578051,"name":"蕭園餅麵","decorType":"restaurant"},{"id":"node-7211419052","lat":25.037298,"lon":121.577302,"name":"蕭家老麵饅頭","decorType":"restaurant"},{"id":"node-7211419055","lat":25.036191,"lon":121.578807,"name":"燒肉龍","decorType":"restaurant"},{"id":"node-7211419068","lat":25.03854,"lon":121.585229,"name":"澳門氹仔燒臘店","decorType":"restaurant"},{"id":"node-7211419074","lat":25.03815,"lon":121.579358,"name":"辣極麻辣燙","decorType":"restaurant"},{"id":"node-7211419079","lat":25.037843,"lon":121.579182,"name":"滷味王","decorType":"restaurant"},{"id":"node-7211419080","lat":25.036044,"lon":121.578102,"name":"廣誠素食","decorType":"restaurant"},{"id":"node-7211419082","lat":25.038539,"lon":121.584705,"name":"福德街素食水煎包","decorType":"restaurant"},{"id":"node-7211419083","lat":25.038682,"lon":121.585218,"name":"福德手工素食包子店","decorType":"restaurant"},{"id":"node-7211425500","lat":25.035686,"lon":121.577642,"name":"新亞鐵板燒","decorType":"restaurant"},{"id":"node-7211425502","lat":25.036558,"lon":121.57931,"name":"愛弘速食連鎖","decorType":"restaurant"},{"id":"node-7211425504","lat":25.035629,"lon":121.578719,"name":"媽媽早餐吧","decorType":"restaurant"},{"id":"node-7211425507","lat":25.038531,"lon":121.585062,"name":"圓滿川湘菜海鮮","decorType":"restaurant"},{"id":"node-7211425512","lat":25.037813,"lon":121.579317,"name":"順第水餃","decorType":"restaurant"},{"id":"node-7211425513","lat":25.036979,"lon":121.57942,"name":"雲林台子港","decorType":"restaurant"},{"id":"node-7211425514","lat":25.036102,"lon":121.578722,"name":"雅加達早餐店","decorType":"restaurant"},{"id":"node-7211425517","lat":25.033772,"lon":121.575177,"name":"越南東家餐廳","decorType":"restaurant"},{"id":"node-7211425518","lat":25.033952,"lon":121.575331,"name":"越南東家鮮物羊肉爐","decorType":"restaurant"},{"id":"node-7211425519","lat":25.038488,"lon":121.584982,"name":"越南小吃","decorType":"restaurant"},{"id":"node-7211425521","lat":25.037522,"lon":121.579437,"name":"賀加食堂","decorType":"restaurant"},{"id":"node-7211425525","lat":25.037678,"lon":121.578028,"name":"粥師傅廣東粥","decorType":"restaurant"},{"id":"node-7211425539","lat":25.034691,"lon":121.576387,"name":"喝一杯","decorType":"restaurant"},{"id":"node-7211425543","lat":25.03796,"lon":121.584809,"name":"鹿記壽桃壽麵專賣店","decorType":"restaurant"},{"id":"node-7211425557","lat":25.038366,"lon":121.577103,"name":"晨間美味","decorType":"restaurant"},{"id":"node-7211425569","lat":25.038025,"lon":121.584876,"name":"素食美濃客家粄條","decorType":"restaurant"},{"id":"node-7211425571","lat":25.038485,"lon":121.584665,"name":"秦菲菲傳統豆漿店","decorType":"restaurant"},{"id":"node-7211425578","lat":25.03804,"lon":121.584915,"name":"徐家素食麵","decorType":"restaurant"},{"id":"node-7211425580","lat":25.038027,"lon":121.584079,"name":"孫家牛肉麵","decorType":"restaurant"},{"id":"node-7211425581","lat":25.035593,"lon":121.577502,"name":"孫東寶","decorType":"restaurant"},{"id":"node-7211425586","lat":25.03871,"lon":121.578145,"name":"胖老爹美式炸雞","decorType":"burger"},{"id":"node-7211425593","lat":25.034276,"lon":121.575786,"name":"美好時光Bistro","decorType":"restaurant"},{"id":"node-7211425597","lat":25.03807,"lon":121.579484,"name":"紅心甜品","decorType":"restaurant"},{"id":"node-7211425598","lat":25.03796,"lon":121.579201,"name":"珍香鍋貼水餃專賣店","decorType":"restaurant"},{"id":"node-7211425600","lat":25.037548,"lon":121.578146,"name":"炸鷄大獅","decorType":"restaurant"},{"id":"node-7211425601","lat":25.038248,"lon":121.579195,"name":"活醉蝦海產","decorType":"restaurant"},{"id":"node-7211425604","lat":25.03435,"lon":121.575844,"name":"春發汕頭乾拌麵","decorType":"restaurant"},{"id":"node-7211425613","lat":25.037621,"lon":121.57752,"name":"品記雞肉飯","decorType":"restaurant"},{"id":"node-7211425618","lat":25.037926,"lon":121.579145,"name":"林媽媽鹽水雞","decorType":"restaurant"},{"id":"node-7211425619","lat":25.037247,"lon":121.579138,"name":"林家羊肉羹","decorType":"restaurant"},{"id":"node-7211425620","lat":25.038198,"lon":121.579525,"name":"林口街拉麵","decorType":"restaurant"},{"id":"node-7211425621","lat":25.036481,"lon":121.579044,"name":"易家鯊魚麵","decorType":"restaurant"},{"id":"node-7211425622","lat":25.034819,"lon":121.574716,"name":"拉亞漢堡","decorType":"burger"},{"id":"node-7211425630","lat":25.037805,"lon":121.576109,"name":"玫瑰木42號","decorType":"restaurant"},{"id":"node-7211425631","lat":25.037622,"lon":121.577598,"name":"炒翻天點心坊","decorType":"restaurant"},{"id":"node-7211425637","lat":25.037732,"lon":121.579238,"name":"松旺臭豆腐","decorType":"restaurant"},{"id":"node-7211425638","lat":25.038599,"lon":121.584933,"name":"松川現滷滷味","decorType":"restaurant"},{"id":"node-7211425650","lat":25.037589,"lon":121.58303,"name":"呷飽味","decorType":"restaurant"},{"id":"node-7211425653","lat":25.034321,"lon":121.575356,"name":"呷尚寶","decorType":"burger"},{"id":"node-7211425663","lat":25.03848,"lon":121.578418,"name":"阿根早點","decorType":"restaurant"},{"id":"node-7211425664","lat":25.038723,"lon":121.578823,"name":"阿娟素食","decorType":"restaurant"},{"id":"node-7211425671","lat":25.03774,"lon":121.577586,"name":"阿幸鮮打果汁","decorType":"restaurant"},{"id":"node-7211425674","lat":25.036447,"lon":121.579356,"name":"阿民控肉飯","decorType":"restaurant"},{"id":"node-7211425676","lat":25.036519,"lon":121.579369,"name":"阿卡拉專業炸雞連鎖","decorType":"restaurant"},{"id":"node-7211425678","lat":25.038469,"lon":121.579428,"name":"阿三食堂","decorType":"restaurant"},{"id":"node-7211425679","lat":25.03748,"lon":121.577716,"name":"豆花，綠豆，薏仁。","decorType":"restaurant"},{"id":"node-7211425681","lat":25.037468,"lon":121.579201,"name":"花田樂野台壽司","decorType":"restaurant"},{"id":"node-7211425685","lat":25.03801,"lon":121.578003,"name":"弍弎麻辣｜豚骨麻辣燙專門","decorType":"restaurant"},{"id":"node-7211425688","lat":25.0362,"lon":121.578968,"name":"何家鴨庄","decorType":"restaurant"},{"id":"node-7211425690","lat":25.03785,"lon":121.575898,"name":"老饕肉舖","decorType":"restaurant"},{"id":"node-7211425692","lat":25.036662,"lon":121.579767,"name":"老地方小豪華餐盒","decorType":"restaurant"},{"id":"node-7211425693","lat":25.038608,"lon":121.585065,"name":"自助餐，快餐","decorType":"restaurant"},{"id":"node-7211425694","lat":25.038154,"lon":121.584999,"name":"肉燥餛飩麵","decorType":"restaurant"},{"id":"node-7211425708","lat":25.036759,"lon":121.579347,"name":"好吃王雞肉","decorType":"restaurant"},{"id":"node-7211425716","lat":25.037727,"lon":121.577781,"name":"北港小吃","decorType":"restaurant"},{"id":"node-7211425718","lat":25.036317,"lon":121.57812,"name":"禾順豐湯包館","decorType":"restaurant"},{"id":"node-7211425719","lat":25.03813,"lon":121.584157,"name":"石鱻養生石頭火鍋","decorType":"restaurant"},{"id":"node-7211425720","lat":25.037999,"lon":121.579174,"name":"石碇公臭臭鍋","decorType":"restaurant"},{"id":"node-7211425726","lat":25.03844,"lon":121.584822,"name":"正慈素食","decorType":"restaurant"},{"id":"node-7211425728","lat":25.037778,"lon":121.57829,"name":"正宗專業潤餅","decorType":"restaurant"},{"id":"node-7211425733","lat":25.037562,"lon":121.577244,"name":"外星人小舖-啊賀現做捲餅舖","decorType":"restaurant"},{"id":"node-7211425737","lat":25.038418,"lon":121.578216,"name":"台灣第一棧","decorType":"restaurant"},{"id":"node-7211425738","lat":25.038305,"lon":121.584947,"name":"台中脆皮臭豆腐","decorType":"restaurant"},{"id":"node-7211425742","lat":25.037769,"lon":121.586074,"name":"包記饅頭","decorType":"restaurant"},{"id":"node-7211425750","lat":25.038651,"lon":121.584787,"name":"方家鹽酥雞","decorType":"restaurant"},{"id":"node-7211425754","lat":25.036108,"lon":121.578357,"name":"巨林美而美","decorType":"burger"},{"id":"node-7211425755","lat":25.035757,"lon":121.577308,"name":"巨人新鐵板燒料理","decorType":"restaurant"},{"id":"node-7211425759","lat":25.036553,"lon":121.580771,"name":"天邊的家","decorType":"restaurant"},{"id":"node-7211425760","lat":25.038069,"lon":121.585111,"name":"天香素食","decorType":"restaurant"},{"id":"node-7211425763","lat":25.03869,"lon":121.579422,"name":"香雞排鹽酥雞串烤","decorType":"restaurant"},{"id":"node-7211425767","lat":25.036329,"lon":121.578323,"name":"丐幫滷味","decorType":"restaurant"},{"id":"node-7211425776","lat":25.038245,"lon":121.5782,"name":"小竹屋日式料理","decorType":"restaurant"},{"id":"node-7211425781","lat":25.037189,"lon":121.579383,"name":"大溪紅油抄手","decorType":"restaurant"},{"id":"node-7211425782","lat":25.036659,"lon":121.577681,"name":"大喜豆漿韭菜盒子","decorType":"restaurant"},{"id":"node-7211425786","lat":25.036169,"lon":121.577741,"name":"大方冰品","decorType":"restaurant"},{"id":"node-7211425787","lat":25.036414,"lon":121.578979,"name":"上海蟹殼黃燒餅","decorType":"restaurant"},{"id":"node-7211425788","lat":25.038326,"lon":121.584532,"name":"上海鮮肉包","decorType":"restaurant"},{"id":"node-7211425797","lat":25.036057,"lon":121.577681,"name":"八方雲集","decorType":"burger"},{"id":"node-7211425802","lat":25.036726,"lon":121.579384,"name":"九份芋圓臭豆腐肉圓","decorType":"restaurant"},{"id":"node-7211425805","lat":25.037449,"lon":121.577244,"name":"一樂料理","decorType":"restaurant"},{"id":"node-7211425806","lat":25.037131,"lon":121.579403,"name":"一品味碳烤","decorType":"restaurant"},{"id":"node-7211425809","lat":25.038101,"lon":121.576086,"name":"Queen's Ring 手工牛軋酥","decorType":"restaurant"},{"id":"node-7211425812","lat":25.035445,"lon":121.577348,"name":"PIZZA HUT必勝客","decorType":"restaurant"},{"id":"node-7211425830","lat":25.034663,"lon":121.575886,"name":"29號中西複合式早餐","decorType":"restaurant"},{"id":"node-7700136993","lat":25.034607,"lon":121.575829,"name":"味屋咖哩","decorType":"restaurant"},{"id":"node-7798228804","lat":25.037608,"lon":121.583131,"name":"好兆頭","decorType":"restaurant"},{"id":"node-7805829402","lat":25.024739,"lon":121.577601,"name":"慈鑾宮","decorType":"shrine"},{"id":"node-7836938823","lat":25.033444,"lon":121.574699,"name":"不貽樣湯包排骨酥","decorType":"restaurant"},{"id":"node-8074572151","lat":25.035538,"lon":121.577431,"name":"梁社漢排骨","decorType":"restaurant"},{"id":"node-8118273002","lat":25.037173,"lon":121.577144,"name":"7-Eleven","decorType":"convenience"},{"id":"node-9565748538","lat":25.037833,"lon":121.579415,"name":"萊爾富","decorType":"convenience"},{"id":"node-9802699422","lat":25.037735,"lon":121.583582,"name":"青枝綠葉蔬食餐館","decorType":"restaurant"},{"id":"node-9832879822","lat":25.035005,"lon":121.57623,"name":"蝦皮店到店","decorType":"convenience"},{"id":"node-12244968179","lat":25.038607,"lon":121.585436,"name":"伊品園烘焙坊","decorType":"bakery"},{"id":"node-12244968200","lat":25.038329,"lon":121.58457,"name":"古早味蔥油餅","decorType":"restaurant"},{"id":"node-12244968202","lat":25.037912,"lon":121.582274,"name":"廣慈分館","decorType":"library"},{"id":"node-12307149309","lat":25.038351,"lon":121.583639,"name":"信義行政中心（奉天宮）","decorType":"bus_stop"},{"id":"node-12308964613","lat":25.038322,"lon":121.583583,"name":"信義行政中心（奉天宮）","decorType":"bus_stop"},{"id":"node-12407595899","lat":25.031804,"lon":121.574458,"name":"未命名郵局","decorType":"post_office"},{"id":"node-12407756629","lat":25.030567,"lon":121.575006,"name":"松德院區 (接駁車)","decorType":"bus_stop"},{"id":"node-12430203444","lat":25.033095,"lon":121.582764,"name":"未命名山丘","decorType":"mountain"},{"id":"node-12430206715","lat":25.035644,"lon":121.582105,"name":"五分埔山","decorType":"mountain"},{"id":"node-12430206800","lat":25.029842,"lon":121.580123,"name":"未命名山丘","decorType":"mountain"},{"id":"node-12430207715","lat":25.024868,"lon":121.575606,"name":"清靜山福德宮","decorType":"shrine"},{"id":"node-13047779801","lat":25.037607,"lon":121.575461,"name":"烘焙者咖啡","decorType":"cafe"},{"id":"node-13413775741","lat":25.035742,"lon":121.576536,"name":"萊爾富","decorType":"convenience"},{"id":"way-135744364","lat":25.031597,"lon":121.579731,"name":"未命名橋樑","decorType":"bridge"},{"id":"way-136977237","lat":25.036644,"lon":121.587079,"name":"未命名水邊","decorType":"waterside"},{"id":"way-203755088","lat":25.038529,"lon":121.57508,"name":"中全公園","decorType":"park"},{"id":"way-218489808","lat":25.027957,"lon":121.579249,"name":"天寶聖道宮","decorType":"shrine"},{"id":"way-218489810","lat":25.03157,"lon":121.577428,"name":"永春崗公園","decorType":"park"},{"id":"way-218489814","lat":25.032256,"lon":121.576168,"name":"福德宮","decorType":"shrine"},{"id":"way-218489815","lat":25.032504,"lon":121.576455,"name":"顏子廟","decorType":"shrine"},{"id":"way-218491167","lat":25.037241,"lon":121.58463,"name":"松山奉天宮","decorType":"shrine"},{"id":"way-218906239","lat":25.031227,"lon":121.574704,"name":"虎林公園","decorType":"park"},{"id":"way-226858960","lat":25.025992,"lon":121.577828,"name":"北星寶宮","decorType":"shrine"},{"id":"way-226858962","lat":25.035322,"lon":121.581851,"name":"吉福宮","decorType":"shrine"},{"id":"way-226858963","lat":25.02663,"lon":121.579125,"name":"天寶聖道院","decorType":"shrine"},{"id":"way-226858965","lat":25.029047,"lon":121.583687,"name":"瑤池宮","decorType":"shrine"},{"id":"way-249528278","lat":25.038385,"lon":121.583841,"name":"福德公園","decorType":"park"},{"id":"way-258816694","lat":25.033861,"lon":121.576284,"name":"松友公園","decorType":"park"},{"id":"way-258816697","lat":25.030757,"lon":121.582873,"name":"未命名水邊","decorType":"waterside"},{"id":"way-259072392","lat":25.033216,"lon":121.586971,"name":"南天宮","decorType":"shrine"},{"id":"way-259072398","lat":25.031959,"lon":121.586584,"name":"壽天宮","decorType":"shrine"},{"id":"way-259072404","lat":25.030077,"lon":121.586173,"name":"明山寺","decorType":"shrine"},{"id":"way-259072406","lat":25.034321,"lon":121.587275,"name":"清連園","decorType":"park"},{"id":"way-259072408","lat":25.036171,"lon":121.585153,"name":"福壽宮","decorType":"shrine"},{"id":"way-259072411","lat":25.034204,"lon":121.586022,"name":"翠華宮","decorType":"shrine"},{"id":"way-259072413","lat":25.033273,"lon":121.586506,"name":"興南府","decorType":"shrine"},{"id":"way-261647345","lat":25.029996,"lon":121.577533,"name":"許氏宗祠","decorType":"shrine"},{"id":"way-261647346","lat":25.030292,"lon":121.578072,"name":"未命名公園","decorType":"park"},{"id":"way-261656000","lat":25.036041,"lon":121.585216,"name":"萬善公媽祠","decorType":"shrine"},{"id":"way-261673073","lat":25.026255,"lon":121.579166,"name":"修聖寺","decorType":"shrine"},{"id":"way-261673080","lat":25.025036,"lon":121.581521,"name":"松山靈隱寺","decorType":"shrine"},{"id":"way-261684009","lat":25.030153,"lon":121.581401,"name":"豹山溪步道","decorType":"bridge"},{"id":"way-261688225","lat":25.028987,"lon":121.581631,"name":"豹山溪步道","decorType":"bridge"},{"id":"way-261711345","lat":25.026628,"lon":121.581346,"name":"寒山寺","decorType":"shrine"},{"id":"way-261711348","lat":25.026479,"lon":121.581425,"name":"未命名橋樑","decorType":"bridge"},{"id":"way-261776699","lat":25.03485,"lon":121.579696,"name":"信義316松隆綠地","decorType":"park"},{"id":"way-319737767","lat":25.025721,"lon":121.583252,"name":"慈航寺","decorType":"shrine"},{"id":"way-319737769","lat":25.025922,"lon":121.582649,"name":"慈航寺大悲殿","decorType":"shrine"},{"id":"way-319737772","lat":25.026063,"lon":121.582986,"name":"普陀寺","decorType":"shrine"},{"id":"way-319737774","lat":25.025354,"lon":121.584283,"name":"鳳山寺","decorType":"shrine"},{"id":"way-343890066","lat":25.034142,"lon":121.578382,"name":"未命名體育館","decorType":"stadium"},{"id":"way-366972819","lat":25.03132,"lon":121.580572,"name":"未命名橋樑","decorType":"bridge"},{"id":"way-372089053","lat":25.026446,"lon":121.58255,"name":"皇母宮","decorType":"shrine"},{"id":"way-372366227","lat":25.028591,"lon":121.58401,"name":"楊聖宮","decorType":"shrine"},{"id":"way-396908993","lat":25.031891,"lon":121.577549,"name":"未命名公園","decorType":"park"},{"id":"way-397030627","lat":25.029583,"lon":121.574425,"name":"彩虹橋","decorType":"bridge"},{"id":"way-420981031","lat":25.028132,"lon":121.578133,"name":"觀音岩","decorType":"shrine"},{"id":"way-420981032","lat":25.02831,"lon":121.578211,"name":"萬壽宮","decorType":"shrine"},{"id":"way-420981035","lat":25.028332,"lon":121.578485,"name":"山神洞","decorType":"shrine"},{"id":"way-420981036","lat":25.028122,"lon":121.578606,"name":"觀音廟","decorType":"shrine"},{"id":"way-420981037","lat":25.028005,"lon":121.578407,"name":"主母殿","decorType":"shrine"},{"id":"way-420981038","lat":25.028173,"lon":121.578881,"name":"天玉寺","decorType":"shrine"},{"id":"way-420981039","lat":25.028376,"lon":121.578922,"name":"福德宮","decorType":"shrine"},{"id":"way-420992750","lat":25.026147,"lon":121.578421,"name":"福德宮","decorType":"shrine"},{"id":"way-420992752","lat":25.026159,"lon":121.578906,"name":"未命名神社","decorType":"shrine"},{"id":"way-420992753","lat":25.026034,"lon":121.57943,"name":"未命名神社","decorType":"shrine"},{"id":"way-421020260","lat":25.025121,"lon":121.581147,"name":"觀音像","decorType":"shrine"},{"id":"way-421573193","lat":25.026605,"lon":121.575539,"name":"未命名公園","decorType":"park"},{"id":"way-421711850","lat":25.025191,"lon":121.581172,"name":"觀音與十八羅漢群像","decorType":"park"},{"id":"way-421711860","lat":25.026441,"lon":121.578394,"name":"未命名橋樑","decorType":"bridge"},{"id":"way-518082285","lat":25.036628,"lon":121.575387,"name":"安強公園","decorType":"park"},{"id":"way-532713296","lat":25.031144,"lon":121.586864,"name":"復興園","decorType":"park"},{"id":"way-542936130","lat":25.028875,"lon":121.584495,"name":"九五茅蓬","decorType":"shrine"},{"id":"way-553200712","lat":25.031269,"lon":121.586188,"name":"慈天宮","decorType":"shrine"},{"id":"way-553208251","lat":25.031044,"lon":121.586672,"name":"朝玄宮","decorType":"shrine"},{"id":"way-553208252","lat":25.031023,"lon":121.586392,"name":"忠義宮","decorType":"shrine"},{"id":"way-699650774","lat":25.029024,"lon":121.580591,"name":"未命名山丘","decorType":"mountain"},{"id":"way-699650775","lat":25.030537,"lon":121.582076,"name":"未命名山丘","decorType":"mountain"},{"id":"way-699650778","lat":25.031003,"lon":121.580248,"name":"未命名橋樑","decorType":"bridge"},{"id":"way-700650794","lat":25.028199,"lon":121.58264,"name":"未命名水邊","decorType":"waterside"},{"id":"way-829704006","lat":25.033611,"lon":121.580882,"name":"獅山溪","decorType":"waterside"},{"id":"way-829704007","lat":25.033458,"lon":121.580804,"name":"獅山溪","decorType":"waterside"},{"id":"way-829704011","lat":25.033199,"lon":121.579973,"name":"未命名橋樑","decorType":"bridge"},{"id":"way-829704017","lat":25.033234,"lon":121.580308,"name":"未命名橋樑","decorType":"bridge"},{"id":"way-829704032","lat":25.033219,"lon":121.580094,"name":"未命名橋樑","decorType":"bridge"},{"id":"way-829704034","lat":25.033289,"lon":121.580142,"name":"獅山溪","decorType":"waterside"},{"id":"way-829704036","lat":25.033296,"lon":121.580267,"name":"未命名橋樑","decorType":"bridge"},{"id":"way-829704037","lat":25.03246,"lon":121.579654,"name":"獅山溪","decorType":"waterside"},{"id":"way-829704038","lat":25.032651,"lon":121.579738,"name":"獅山溪","decorType":"waterside"},{"id":"way-829704043","lat":25.033092,"lon":121.579875,"name":"獅山溪","decorType":"waterside"},{"id":"way-829704044","lat":25.033108,"lon":121.57986,"name":"獅山溪","decorType":"waterside"},{"id":"way-829704048","lat":25.033802,"lon":121.580791,"name":"未命名橋樑","decorType":"bridge"},{"id":"way-853823883","lat":25.031433,"lon":121.582181,"name":"未命名水邊","decorType":"waterside"},{"id":"way-1323275631","lat":25.038502,"lon":121.583904,"name":"未命名公園","decorType":"park"},{"id":"way-1341472300","lat":25.029009,"lon":121.574763,"name":"未命名森林","decorType":"forest"},{"id":"way-1341472302","lat":25.028992,"lon":121.574641,"name":"未命名水邊","decorType":"waterside"},{"id":"way-1341472303","lat":25.028953,"lon":121.574751,"name":"未命名水邊","decorType":"waterside"},{"id":"way-1341472307","lat":25.029061,"lon":121.574678,"name":"未命名森林","decorType":"forest"},{"id":"way-1341472309","lat":25.029314,"lon":121.574918,"name":"未命名森林","decorType":"forest"},{"id":"way-1341472311","lat":25.02963,"lon":121.574596,"name":"未命名森林","decorType":"forest"},{"id":"way-1341472312","lat":25.029895,"lon":121.575507,"name":"未命名森林","decorType":"forest"},{"id":"way-1341554072","lat":25.031407,"lon":121.574848,"name":"未命名公園","decorType":"park"},{"id":"way-1341564301","lat":25.031087,"lon":121.577368,"name":"未命名森林","decorType":"forest"},{"id":"way-1341564302","lat":25.030901,"lon":121.576857,"name":"未命名森林","decorType":"forest"},{"id":"way-1341564322","lat":25.031263,"lon":121.577289,"name":"未命名公園","decorType":"park"},{"id":"way-1341564323","lat":25.031408,"lon":121.577249,"name":"未命名公園","decorType":"park"},{"id":"way-1341564324","lat":25.031525,"lon":121.577389,"name":"未命名公園","decorType":"park"},{"id":"way-1341564326","lat":25.031562,"lon":121.577207,"name":"未命名森林","decorType":"forest"},{"id":"way-1341564347","lat":25.030879,"lon":121.577178,"name":"未命名水邊","decorType":"waterside"},{"id":"way-1341564350","lat":25.031074,"lon":121.577113,"name":"未命名森林","decorType":"forest"},{"id":"way-1343412708","lat":25.031095,"lon":121.579232,"name":"未命名橋樑","decorType":"bridge"},{"id":"way-1343412716","lat":25.031045,"lon":121.580912,"name":"未命名橋樑","decorType":"bridge"},{"id":"way-1343412718","lat":25.031228,"lon":121.58064,"name":"未命名橋樑","decorType":"bridge"},{"id":"way-1343412720","lat":25.027149,"lon":121.581748,"name":"豹山溪","decorType":"waterside"}]}