{"bbox":{"south":25.023125,"north":25.038731249999998,"west":121.53518749999999,"east":121.54821874999999},"pois":[{"id":"way-347251052","lat":25.0231604,"lon":121.5356848,"name":"游泳池","decorType":"stadium"},{"id":"way-583425394","lat":25.0231755,"lon":121.5481,"name":"未命名公園","decorType":"park"},{"id":"node-689489025","lat":25.0256834,"lon":121.5436866,"name":"麥當勞","decorType":"burger"},{"id":"node-689560111","lat":25.0262454,"lon":121.543691,"name":"7-Eleven","decorType":"convenience"},{"id":"node-1281234333","lat":25.0361253,"lon":121.5471216,"name":"曜日","decorType":"restaurant"},{"id":"node-1282483919","lat":25.0342102,"lon":121.5438956,"name":"台北美侖大飯店","decorType":"hotel"},{"id":"node-1982299403","lat":25.0234984,"lon":121.5435893,"name":"自家烘焙咖啡館","decorType":"cafe"},{"id":"node-2056021917","lat":25.0360928,"lon":121.5459206,"name":"北平半畝園","decorType":"restaurant"},{"id":"node-2056021919","lat":25.0359443,"lon":121.5456414,"name":"泰美泰國原始料理","decorType":"restaurant"},{"id":"node-2056021920","lat":25.036086,"lon":121.5466944,"name":"潮肉壽喜燒東豐本店","decorType":"restaurant"},{"id":"node-2079533602","lat":25.0254227,"lon":121.538415,"name":"龍門國中(和平)","decorType":"bus_stop"},{"id":"node-2079533606","lat":25.0249166,"lon":121.5420799,"name":"復興南路口","decorType":"bus_stop"},{"id":"node-2079533609","lat":25.0260474,"lon":121.5436443,"name":"捷運科技大樓站","decorType":"bus_stop"},{"id":"node-2079533617","lat":25.0315936,"lon":121.5436891,"name":"大安高工","decorType":"bus_stop"},{"id":"node-2079533619","lat":25.0346262,"lon":121.5437693,"name":"捷運大安站 (復興)","decorType":"bus_stop"},{"id":"node-2079533624","lat":25.0385899,"lon":121.5438635,"name":"聯合醫院仁愛院區","decorType":"bus_stop"},{"id":"node-2079533638","lat":25.0257139,"lon":121.536236,"name":"大安森林公園","decorType":"bus_stop"},{"id":"node-2128931498","lat":25.0359214,"lon":121.5439017,"name":"好食圓滿","decorType":"restaurant"},{"id":"node-2137219932","lat":25.0335768,"lon":121.5438371,"name":"星巴克","decorType":"cafe"},{"id":"node-2159143915","lat":25.0263201,"lon":121.5380242,"name":"和平建國路口","decorType":"bus_stop"},{"id":"node-2160602730","lat":25.0336575,"lon":121.5392022,"name":"鄭惠中布衣 - 時喜人文","decorType":"clothing"},{"id":"node-2160602742","lat":25.032864,"lon":121.5405766,"name":"四季羽毛","decorType":"clothing"},{"id":"node-2183209941","lat":25.0337787,"lon":121.5383939,"name":"穗川小農鍋物","decorType":"restaurant"},{"id":"node-2188231670","lat":25.0235554,"lon":121.542933,"name":"7-Eleven","decorType":"convenience"},{"id":"node-2188231676","lat":25.0235292,"lon":121.5432095,"name":"全國素食","decorType":"restaurant"},{"id":"node-2307668500","lat":25.0254026,"lon":121.5406554,"name":"國北教大實小","decorType":"bus_stop"},{"id":"node-2307668505","lat":25.0251558,"lon":121.5422527,"name":"復興南路口","decorType":"bus_stop"},{"id":"node-2307668510","lat":25.0248675,"lon":121.5448098,"name":"國立臺北教育大學","decorType":"bus_stop"},{"id":"node-2307668538","lat":25.0246995,"lon":121.5475584,"name":"臥龍街","decorType":"bus_stop"},{"id":"node-2307668542","lat":25.0255627,"lon":121.5391609,"name":"龍門國中(和平)","decorType":"bus_stop"},{"id":"node-2315948157","lat":25.0246403,"lon":121.5451952,"name":"國立臺北教育大學","decorType":"bus_stop"},{"id":"node-2315948158","lat":25.0245163,"lon":121.547448,"name":"臥龍街","decorType":"bus_stop"},{"id":"node-2396085350","lat":25.0359489,"lon":121.5439935,"name":"餃子樂餃子館","decorType":"restaurant"},{"id":"node-2400372302","lat":25.032147,"lon":121.5385749,"name":"宇宙小艇","decorType":"restaurant"},{"id":"node-2402502240","lat":25.0337341,"lon":121.5381161,"name":"未命名郵局","decorType":"post_office"},{"id":"node-2410011026","lat":25.0272221,"lon":121.5456501,"name":"家樂福超市","decorType":"convenience"},{"id":"node-2410088474","lat":25.0342244,"lon":121.5460776,"name":"檸檬草火鍋店","decorType":"restaurant"},{"id":"node-2418674188","lat":25.0264208,"lon":121.5456917,"name":"成功郵局","decorType":"post_office"},{"id":"node-2420798959","lat":25.0244599,"lon":121.543297,"name":"國立臺北教育大學","decorType":"bus_stop"},{"id":"node-2422620751","lat":25.0256812,"lon":121.5385764,"name":"龍門國中(和平)","decorType":"bus_stop"},{"id":"node-2422620752","lat":25.0259584,"lon":121.5362917,"name":"大安森林公園","decorType":"bus_stop"},{"id":"node-2426954474","lat":25.0333633,"lon":121.5462255,"name":"信義大安路口","decorType":"bus_stop"},{"id":"node-2426954477","lat":25.0333044,"lon":121.5457011,"name":"信義大安路口","decorType":"bus_stop"},{"id":"node-2426954485","lat":25.0333614,"lon":121.5432548,"name":"捷運大安站(信義)","decorType":"bus_stop"},{"id":"node-2426954487","lat":25.033521,"lon":121.5355884,"name":"捷運大安森林公園站","decorType":"bus_stop"},{"id":"node-2426954488","lat":25.0334593,"lon":121.542131,"name":"師大附中","decorType":"bus_stop"},{"id":"node-2426954490","lat":25.033531,"lon":121.5382955,"name":"信義建國路口","decorType":"bus_stop"},{"id":"node-2426954491","lat":25.0334227,"lon":121.5392329,"name":"信義建國路口","decorType":"bus_stop"},{"id":"node-2426954493","lat":25.0335887,"lon":121.5361263,"name":"捷運大安森林公園站","decorType":"bus_stop"},{"id":"node-2426954505","lat":25.0334083,"lon":121.5439503,"name":"捷運大安站(信義)","decorType":"bus_stop"},{"id":"node-2435590493","lat":25.037985,"lon":121.5369915,"name":"仁愛建國路口一","decorType":"bus_stop"},{"id":"node-2435590495","lat":25.0380003,"lon":121.5473699,"name":"仁愛敦化路口(圓環)","decorType":"bus_stop"},{"id":"node-2435590496","lat":25.0377828,"lon":121.5476475,"name":"仁愛敦化路口(圓環)","decorType":"bus_stop"},{"id":"node-2435590500","lat":25.0381709,"lon":121.5393437,"name":"仁愛建國路口一","decorType":"bus_stop"},{"id":"node-2435590501","lat":25.0379151,"lon":121.5409336,"name":"仁愛建國路口二","decorType":"bus_stop"},{"id":"node-2435590502","lat":25.0380749,"lon":121.5439216,"name":"仁愛復興路口(福華飯店)","decorType":"bus_stop"},{"id":"node-2435590503","lat":25.0378204,"lon":121.5458541,"name":"仁愛大安路口(仁愛醫院)","decorType":"bus_stop"},{"id":"node-2470163462","lat":25.0386724,"lon":121.5466285,"name":"Cross Cafe","decorType":"cafe"},{"id":"node-2470176170","lat":25.0387092,"lon":121.5470685,"name":"享Cafe","decorType":"cafe"},{"id":"node-2473232917","lat":25.0234141,"lon":121.5429528,"name":"Belém Bakery","decorType":"bakery"},{"id":"node-2473232920","lat":25.023755,"lon":121.5427597,"name":"Le Cep","decorType":"restaurant"},{"id":"node-2473232927","lat":25.0241335,"lon":121.5428167,"name":"發現義大利麵","decorType":"restaurant"},{"id":"node-2473232937","lat":25.0248772,"lon":121.5415446,"name":"加拿大黑熊有機咖啡","decorType":"cafe"},{"id":"node-2473232949","lat":25.0233436,"lon":121.5412094,"name":"台越美食","decorType":"restaurant"},{"id":"node-2473232953","lat":25.0233962,"lon":121.5410135,"name":"噹食麵","decorType":"restaurant"},{"id":"node-2495367441","lat":25.0358437,"lon":121.5435416,"name":"東豐復興路口","decorType":"bus_stop"},{"id":"node-2495367444","lat":25.0358034,"lon":121.5438065,"name":"東豐復興路口","decorType":"bus_stop"},{"id":"node-2495367447","lat":25.0324451,"lon":121.5434811,"name":"大安高工","decorType":"bus_stop"},{"id":"node-2495367451","lat":25.0267227,"lon":121.5433473,"name":"捷運科技大樓站","decorType":"bus_stop"},{"id":"node-2495367454","lat":25.0295298,"lon":121.5433431,"name":"開平餐飲學校","decorType":"bus_stop"},{"id":"node-2495367458","lat":25.0369093,"lon":121.543553,"name":"聯合醫院仁愛院區","decorType":"bus_stop"},{"id":"node-2517658788","lat":25.0341417,"lon":121.5381344,"name":"信義市場","decorType":"bus_stop"},{"id":"node-2517658847","lat":25.0364823,"lon":121.5383445,"name":"延平中學","decorType":"bus_stop"},{"id":"node-2597965516","lat":25.0309699,"lon":121.5433145,"name":"7-Eleven","decorType":"convenience"},{"id":"node-2620553279","lat":25.0282998,"lon":121.5437179,"name":"全家便利商店","decorType":"convenience"},{"id":"node-2620554680","lat":25.0267308,"lon":121.5432161,"name":"捷運科技大樓站","decorType":"station"},{"id":"node-2724667931","lat":25.0335681,"lon":121.5439419,"name":"全家便利商店","decorType":"convenience"},{"id":"node-2813030301","lat":25.023684,"lon":121.5430126,"name":"卡帛咖啡素食烘焙坊．義式廚房","decorType":"restaurant"},{"id":"node-2826002442","lat":25.033695,"lon":121.5387863,"name":"采岳軒重慶抄手麵食","decorType":"restaurant"},{"id":"node-2962738779","lat":25.0255745,"lon":121.5436781,"name":"星巴克","decorType":"cafe"},{"id":"node-2962738780","lat":25.0259747,"lon":121.5438303,"name":"全聯福利中心","decorType":"supermarket"},{"id":"node-2962738781","lat":25.0245612,"lon":121.543597,"name":"大埔鐵板燒","decorType":"restaurant"},{"id":"node-2962739570","lat":25.0234165,"lon":121.5435798,"name":"MONO CAFE","decorType":"cafe"},{"id":"node-3012324261","lat":25.025437,"lon":121.5416642,"name":"姐妹小吃","decorType":"restaurant"},{"id":"node-3027219944","lat":25.0249669,"lon":121.5450258,"name":"八方雲集","decorType":"burger"},{"id":"node-3076221612","lat":25.0265884,"lon":121.5418892,"name":"紅牌牛肉麵","decorType":"restaurant"},{"id":"node-3076262006","lat":25.0264749,"lon":121.5417215,"name":"全家便利商店","decorType":"convenience"},{"id":"node-3076284829","lat":25.0285131,"lon":121.5410301,"name":"7-Eleven","decorType":"convenience"},{"id":"node-3077524845","lat":25.0285632,"lon":121.5414758,"name":"瑞安豆漿大王","decorType":"restaurant"},{"id":"node-3077603063","lat":25.0286504,"lon":121.5393122,"name":"全家便利商店","decorType":"convenience"},{"id":"node-3077657902","lat":25.0330395,"lon":121.5393873,"name":"全家便利商店","decorType":"convenience"},{"id":"node-3077657903","lat":25.0328071,"lon":121.5433611,"name":"全家便利商店","decorType":"convenience"},{"id":"node-3077695264","lat":25.0280787,"lon":121.5477608,"name":"全家便利商店","decorType":"convenience"},{"id":"node-3077695265","lat":25.025,"lon":121.5439309,"name":"全家便利商店","decorType":"convenience"},{"id":"node-3077753873","lat":25.0248465,"lon":121.54176,"name":"全家便利商店","decorType":"convenience"},{"id":"node-3077768710","lat":25.0257628,"lon":121.5386597,"name":"7-Eleven","decorType":"convenience"},{"id":"node-3077768711","lat":25.0286709,"lon":121.5382726,"name":"7-Eleven","decorType":"convenience"},{"id":"node-3078276696","lat":25.0297961,"lon":121.5432948,"name":"永和豆漿","decorType":"restaurant"},{"id":"node-3154666481","lat":25.0232653,"lon":121.5409696,"name":"香料廚房","decorType":"restaurant"},{"id":"node-3191365379","lat":25.0246729,"lon":121.5444817,"name":"未命名郵局","decorType":"post_office"},{"id":"node-3210306542","lat":25.025452,"lon":121.54501,"name":"香港金葉港式燒臘","decorType":"restaurant"},{"id":"node-3210313411","lat":25.0255086,"lon":121.54525,"name":"全聯福利中心","decorType":"supermarket"},{"id":"node-3210313412","lat":25.025352,"lon":121.5449967,"name":"芝鄉涼麵","decorType":"restaurant"},{"id":"node-3210313415","lat":25.0250392,"lon":121.5450239,"name":"羅胖子倉鍋麵","decorType":"restaurant"},{"id":"node-3210314679","lat":25.0255665,"lon":121.5450078,"name":"全家便利商店","decorType":"convenience"},{"id":"node-3210314680","lat":25.0254,"lon":121.5453532,"name":"成功民眾閱覽室","decorType":"library"},{"id":"node-3210314681","lat":25.025135,"lon":121.5450269,"name":"吉美小吃","decorType":"restaurant"},{"id":"node-3224928306","lat":25.0246019,"lon":121.5443259,"name":"形咖啡","decorType":"cafe"},{"id":"node-3245675058","lat":25.0241341,"lon":121.5373335,"name":"龍門國中(辛亥路口)","decorType":"bus_stop"},{"id":"node-3257173965","lat":25.0254647,"lon":121.5372871,"name":"星巴克","decorType":"cafe"},{"id":"node-3262687079","lat":25.028447,"lon":121.5453857,"name":"7-Eleven","decorType":"convenience"},{"id":"node-3270336880","lat":25.0332477,"lon":121.5362939,"name":"未命名車站","decorType":"station"},{"id":"node-3270339880","lat":25.0331592,"lon":121.5355779,"name":"未命名車站","decorType":"station"},{"id":"node-3270339881","lat":25.0338462,"lon":121.5360234,"name":"未命名車站","decorType":"station"},{"id":"node-3270356063","lat":25.0298586,"lon":121.5380372,"name":"大安國宅","decorType":"bus_stop"},{"id":"node-3273406580","lat":25.0260244,"lon":121.5436981,"name":"未命名車站","decorType":"station"},{"id":"node-3275610392","lat":25.0280885,"lon":121.5475712,"name":"7-Eleven","decorType":"convenience"},{"id":"node-3355534993","lat":25.0329033,"lon":121.5438665,"name":"捷運大安站5號出口","decorType":"station"},{"id":"node-3355535193","lat":25.0330604,"lon":121.5439863,"name":"捷運大安站4號出口","decorType":"station"},{"id":"node-3355535194","lat":25.0336366,"lon":121.5419974,"name":"捷運大安站1號出口","decorType":"station"},{"id":"node-3355535293","lat":25.0341819,"lon":121.5437804,"name":"大安站6號出口","decorType":"station"},{"id":"node-3355535493","lat":25.0336466,"lon":121.5416244,"name":"捷運大安站2號出口","decorType":"station"},{"id":"node-3377063669","lat":25.026625,"lon":121.5417313,"name":"森之豆","decorType":"burger"},{"id":"node-3377063671","lat":25.0267741,"lon":121.5418907,"name":"La Clé D'or","decorType":"restaurant"},{"id":"node-3377063672","lat":25.0267209,"lon":121.5417431,"name":"Vitalita義式廚房","decorType":"restaurant"},{"id":"node-3377079807","lat":25.0269731,"lon":121.5418817,"name":"瑞麟美而美","decorType":"burger"},{"id":"node-3377079808","lat":25.0253836,"lon":121.5416703,"name":"萬家鄉","decorType":"burger"},{"id":"node-3403899627","lat":25.0274865,"lon":121.5436902,"name":"信義書局","decorType":"library"},{"id":"node-3438496860","lat":25.025007,"lon":121.544255,"name":"中國基督教會信義會靈光堂","decorType":"shrine"},{"id":"node-3494960748","lat":25.0333294,"lon":121.5435546,"name":"大安","decorType":"station"},{"id":"node-3494960749","lat":25.0335619,"lon":121.5352793,"name":"大安森林公園","decorType":"station"},{"id":"node-3497302604","lat":25.0261012,"lon":121.5434596,"name":"科技大樓","decorType":"station"},{"id":"node-3592556104","lat":25.0381844,"lon":121.5473921,"name":"7-Eleven","decorType":"convenience"},{"id":"node-3596859088","lat":25.0374163,"lon":121.5429523,"name":"羅浮宮","decorType":"restaurant"},{"id":"node-3720751144","lat":25.0269358,"lon":121.5417732,"name":"Heima Cafe","decorType":"restaurant"},{"id":"node-3720758453","lat":25.0268953,"lon":121.5418848,"name":"漫高三明治","decorType":"restaurant"},{"id":"node-3720758454","lat":25.0270591,"lon":121.5419196,"name":"國榮桌球","decorType":"stadium"},{"id":"node-3721291639","lat":25.0275977,"lon":121.5417559,"name":"天主教靈醫會聖嘉民之家","decorType":"shrine"},{"id":"node-3721291640","lat":25.0277115,"lon":121.5416843,"name":"天主教靈醫會會院","decorType":"shrine"},{"id":"node-3721304896","lat":25.0279645,"lon":121.540768,"name":"龍門客棧餃子館","decorType":"restaurant"},{"id":"node-3721304897","lat":25.0279129,"lon":121.5408543,"name":"協和切麵店","decorType":"restaurant"},{"id":"node-3721304898","lat":25.028041,"lon":121.5406348,"name":"香港大中華燒臘","decorType":"restaurant"},{"id":"node-3721398571","lat":25.0281245,"lon":121.5406978,"name":"Guoguo","decorType":"clothing"},{"id":"node-3721398572","lat":25.0281647,"lon":121.5407418,"name":"xai xing de","decorType":"restaurant"},{"id":"node-3721398573","lat":25.0281984,"lon":121.5407732,"name":"采真時裝","decorType":"clothing"},{"id":"node-3721398575","lat":25.0282756,"lon":121.5408321,"name":"雅典剪燙工作坊","decorType":"hair_salon"},{"id":"node-3721407942","lat":25.0284433,"lon":121.5409829,"name":"協成中藥行","decorType":"pharmacy"},{"id":"node-3721407943","lat":25.0284014,"lon":121.5409508,"name":"廣生堂","decorType":"pharmacy"},{"id":"node-3721407946","lat":25.0283716,"lon":121.5409193,"name":"瑞安早餐吧","decorType":"restaurant"},{"id":"node-3722128695","lat":25.02871,"lon":121.5410957,"name":"瑞安雅廚","decorType":"restaurant"},{"id":"node-3722128696","lat":25.0286873,"lon":121.5411307,"name":"老圓環","decorType":"restaurant"},{"id":"node-3722681651","lat":25.0273032,"lon":121.5401276,"name":"食為先餐坊","decorType":"restaurant"},{"id":"node-3722705745","lat":25.0274244,"lon":121.5401081,"name":"我愛你學田","decorType":"supermarket"},{"id":"node-3722705746","lat":25.0273394,"lon":121.540032,"name":"小地方","decorType":"restaurant"},{"id":"node-3722747320","lat":25.0287409,"lon":121.5416742,"name":"俊美髮沙龍","decorType":"hair_salon"},{"id":"node-3722747321","lat":25.0287073,"lon":121.5416264,"name":"心路洗衣坊","decorType":"laundry"},{"id":"node-3722747322","lat":25.0286664,"lon":121.5415786,"name":"麗如小吃","decorType":"restaurant"},{"id":"node-3722754930","lat":25.0266037,"lon":121.5436786,"name":"爭鮮","decorType":"restaurant"},{"id":"node-3723976539","lat":25.0272463,"lon":121.5436861,"name":"大連風味館","decorType":"restaurant"},{"id":"node-3723976549","lat":25.0271933,"lon":121.54369,"name":"長庚生物科技","decorType":"pharmacy"},{"id":"node-3723976551","lat":25.0269398,"lon":121.5436745,"name":"台灣大哥大","decorType":"electronics"},{"id":"node-3723976552","lat":25.0268788,"lon":121.5436772,"name":"得正","decorType":"cafe"},{"id":"node-3723983306","lat":25.0268281,"lon":121.5436761,"name":"這味泰泰","decorType":"restaurant"},{"id":"node-3723983307","lat":25.0267862,"lon":121.5436761,"name":"肯德基","decorType":"burger"},{"id":"node-3723983308","lat":25.026743,"lon":121.5436768,"name":"The House Taipei","decorType":"restaurant"},{"id":"node-3723983309","lat":25.0266495,"lon":121.5436788,"name":"橘子乾洗","decorType":"laundry"},{"id":"node-3724051663","lat":25.0275416,"lon":121.5436872,"name":"Onni韓食堂","decorType":"restaurant"},{"id":"node-3724051664","lat":25.0274397,"lon":121.5436933,"name":"Giorgio Sedra","decorType":"clothing"},{"id":"node-3724512046","lat":25.0265905,"lon":121.542044,"name":"屏東空軍涼麵","decorType":"restaurant"},{"id":"node-3724512049","lat":25.0266032,"lon":121.5423929,"name":"車樂美縫紉機","decorType":"clothing"},{"id":"node-3724512050","lat":25.0266008,"lon":121.5424667,"name":"Raw Cafe","decorType":"cafe"},{"id":"node-3724523224","lat":25.0276769,"lon":121.5437009,"name":"Eva Boutique","decorType":"clothing"},{"id":"node-3724526025","lat":25.0276468,"lon":121.5436977,"name":"凡帝時尚","decorType":"clothing"},{"id":"node-3724529047","lat":25.0277808,"lon":121.5436946,"name":"So Nice","decorType":"clothing"},{"id":"node-3725502452","lat":25.0265918,"lon":121.542797,"name":"艾華","decorType":"clothing"},{"id":"node-3725502458","lat":25.026578,"lon":121.5430458,"name":"紫苑","decorType":"clothing"},{"id":"node-3725668855","lat":25.0254121,"lon":121.5431893,"name":"Mr. Smile好吃雞排","decorType":"burger"},{"id":"node-3732188577","lat":25.0309109,"lon":121.5383444,"name":"2J CAFE","decorType":"cafe"},{"id":"node-3743056087","lat":25.027484,"lon":121.5400176,"name":"水牛書店","decorType":"library"},{"id":"node-3743063130","lat":25.027034,"lon":121.539948,"name":"Dream house","decorType":"hair_salon"},{"id":"node-3743063131","lat":25.0269534,"lon":121.5398812,"name":"Pillow Cage","decorType":"cafe"},{"id":"node-3743063132","lat":25.0269465,"lon":121.539699,"name":"米食韓國餐廳","decorType":"cafe"},{"id":"node-3743078430","lat":25.0286465,"lon":121.539497,"name":"路易莎咖啡","decorType":"cafe"},{"id":"node-3743078431","lat":25.0286399,"lon":121.5404601,"name":"瑞安自助餐","decorType":"restaurant"},{"id":"node-3748632776","lat":25.0265848,"lon":121.539602,"name":"the Diner樂子","decorType":"restaurant"},{"id":"node-3748632788","lat":25.026627,"lon":121.5396194,"name":"萬春堂藥房","decorType":"pharmacy"},{"id":"node-3748632789","lat":25.0270084,"lon":121.5397374,"name":"仙薇髮型工作坊","decorType":"hair_salon"},{"id":"node-3750223147","lat":25.0249602,"lon":121.5466471,"name":"找餐 店","decorType":"burger"},{"id":"node-3785977777","lat":25.0336577,"lon":121.5391377,"name":"歐客佬咖啡信義店","decorType":"cafe"},{"id":"node-3787970995","lat":25.0251839,"lon":121.5426451,"name":"西藏廚房","decorType":"restaurant"},{"id":"node-3811447091","lat":25.0331925,"lon":121.5424673,"name":"7-Eleven","decorType":"convenience"},{"id":"node-3832655082","lat":25.0255016,"lon":121.5372293,"name":"丹提咖啡","decorType":"cafe"},{"id":"node-3923847438","lat":25.0280207,"lon":121.5406073,"name":"Angle Cafe","decorType":"cafe"},{"id":"node-3923847439","lat":25.0244053,"lon":121.5372604,"name":"Casa del Fresco","decorType":"cafe"},{"id":"node-3923847440","lat":25.0268913,"lon":121.5396455,"name":"N'Z HAIR SALON","decorType":"hair_salon"},{"id":"node-3923847441","lat":25.0252625,"lon":121.5421001,"name":"良果精緻烘培坊","decorType":"bakery"},{"id":"node-3923847443","lat":25.0256207,"lon":121.5362992,"name":"全家便利商店","decorType":"convenience"},{"id":"node-3923847446","lat":25.0271382,"lon":121.5389134,"name":"大新書局","decorType":"library"},{"id":"node-3923847450","lat":25.0278427,"lon":121.5406228,"name":"小公園牛肉麵","decorType":"restaurant"},{"id":"node-3923847451","lat":25.0252235,"lon":121.5423103,"name":"能量先生水煮餐盒","decorType":"restaurant"},{"id":"node-3923847452","lat":25.0316402,"lon":121.5374907,"name":"建國南路","decorType":"bus_stop"},{"id":"node-3923847456","lat":25.0271055,"lon":121.5398071,"name":"松安自助洗衣","decorType":"laundry"},{"id":"node-3923847458","lat":25.0251353,"lon":121.543657,"name":"玉欣珍傳統美食坊","decorType":"restaurant"},{"id":"node-3923847464","lat":25.0256715,"lon":121.5364505,"name":"未命名郵局","decorType":"post_office"},{"id":"node-3923847465","lat":25.0258999,"lon":121.5379794,"name":"未命名郵局","decorType":"post_office"},{"id":"node-3923847474","lat":25.0256288,"lon":121.5362281,"name":"躍獅新生藥局","decorType":"pharmacy"},{"id":"node-3923847475","lat":25.0235715,"lon":121.5379031,"name":"龍門國中(辛亥路口)","decorType":"bus_stop"},{"id":"node-3923847476","lat":25.0256679,"lon":121.5357488,"name":"靈糧書房","decorType":"library"},{"id":"node-3927461877","lat":25.0297844,"lon":121.5374433,"name":"大安國宅","decorType":"bus_stop"},{"id":"node-3937135659","lat":25.0342232,"lon":121.537525,"name":"信義市場","decorType":"bus_stop"},{"id":"node-3937135663","lat":25.0361862,"lon":121.5373779,"name":"延平中學","decorType":"bus_stop"},{"id":"node-3937135677","lat":25.0363671,"lon":121.5373121,"name":"7-Eleven","decorType":"convenience"},{"id":"node-3939157997","lat":25.0252251,"lon":121.5393311,"name":"全國電子","decorType":"electronics"},{"id":"node-3939158052","lat":25.0283253,"lon":121.5414816,"name":"法國當代會館","decorType":"restaurant"},{"id":"node-4034043337","lat":25.0310649,"lon":121.5475556,"name":"Yuppy Book Store","decorType":"library"},{"id":"node-4089408089","lat":25.0323308,"lon":121.5440914,"name":"Wine café","decorType":"restaurant"},{"id":"node-4102517189","lat":25.0316813,"lon":121.5442636,"name":"理想。時光","decorType":"cafe"},{"id":"node-4107002491","lat":25.025259,"lon":121.545222,"name":"越南牛肉河粉","decorType":"restaurant"},{"id":"node-4107045990","lat":25.0255636,"lon":121.5455354,"name":"原川火鍋","decorType":"restaurant"},{"id":"node-4111630897","lat":25.0337317,"lon":121.5460806,"name":"書田文化廣場","decorType":"library"},{"id":"node-4115555989","lat":25.0238134,"lon":121.5435904,"name":"茶曉伊","decorType":"cafe"},{"id":"node-4116017190","lat":25.0238176,"lon":121.5429573,"name":"格芮潘義式創意廚房","decorType":"restaurant"},{"id":"node-4116861389","lat":25.0249784,"lon":121.5442363,"name":"佳興福州魚丸店","decorType":"restaurant"},{"id":"node-4196871121","lat":25.0351777,"lon":121.544584,"name":"Pig & Pepper","decorType":"restaurant"},{"id":"node-4239440499","lat":25.0329199,"lon":121.5475931,"name":"這一鍋","decorType":"restaurant"},{"id":"node-4241242790","lat":25.0273253,"lon":121.5430496,"name":"Water Moon Thé","decorType":"cafe"},{"id":"node-4254654885","lat":25.0248502,"lon":121.5426264,"name":"未命名郵局","decorType":"post_office"},{"id":"node-4254654887","lat":25.0236569,"lon":121.5432128,"name":"胖胖原味麻辣","decorType":"restaurant"},{"id":"node-4254655289","lat":25.0245697,"lon":121.5432296,"name":"阿英海產粥","decorType":"restaurant"},{"id":"node-4280130633","lat":25.0255283,"lon":121.5364477,"name":"臺北靈糧堂","decorType":"shrine"},{"id":"node-4344472250","lat":25.033052,"lon":121.538248,"name":"林記紅燒牛肉麵","decorType":"restaurant"},{"id":"node-4344472253","lat":25.0376583,"lon":121.5368746,"name":"未命名郵局","decorType":"post_office"},{"id":"node-4344472255","lat":25.0385336,"lon":121.5356157,"name":"未命名郵局","decorType":"post_office"},{"id":"node-4344472256","lat":25.032898,"lon":121.538245,"name":"路易莎","decorType":"cafe"},{"id":"node-4360380423","lat":25.0232294,"lon":121.5427324,"name":"HIMARI葵","decorType":"restaurant"},{"id":"node-4360380433","lat":25.0238541,"lon":121.5429767,"name":"松田日式飯糰","decorType":"restaurant"},{"id":"node-4360380435","lat":25.0232948,"lon":121.5411936,"name":"甲吧麵飯","decorType":"restaurant"},{"id":"node-4360380440","lat":25.0244641,"lon":121.5428258,"name":"食義大安店","decorType":"restaurant"},{"id":"node-4360380441","lat":25.0231404,"lon":121.5417554,"name":"臺北市教會第三十九聚會所","decorType":"shrine"},{"id":"node-4360380442","lat":25.02408,"lon":121.5428095,"name":"樂和牛排","decorType":"restaurant"},{"id":"node-4360380447","lat":25.0239097,"lon":121.5429292,"name":"Barbershop 男生理髮","decorType":"hair_salon"},{"id":"node-4427375471","lat":25.025608,"lon":121.5471958,"name":"真光福音教會","decorType":"shrine"},{"id":"node-4427396476","lat":25.0239894,"lon":121.5467436,"name":"香葉泰式料理","decorType":"restaurant"},{"id":"node-4427396479","lat":25.0248584,"lon":121.5469182,"name":"康是美","decorType":"pharmacy"},{"id":"node-4430972992","lat":25.036699,"lon":121.5450183,"name":"鈾咖啡","decorType":"cafe"},{"id":"node-4430972993","lat":25.0375796,"lon":121.5391806,"name":"悄悄好食","decorType":"bakery"},{"id":"node-4432479636","lat":25.0347024,"lon":121.5461379,"name":"包仔的店","decorType":"restaurant"},{"id":"node-4481939001","lat":25.0252846,"lon":121.5419321,"name":"瀧厚炙燒熟成牛排","decorType":"restaurant"},{"id":"node-4487228173","lat":25.0372948,"lon":121.5435364,"name":"福華飯店","decorType":"bus_stop"},{"id":"node-4524863567","lat":25.0282897,"lon":121.5432286,"name":"萊爾富","decorType":"convenience"},{"id":"node-4524863569","lat":25.0361063,"lon":121.5461177,"name":"Le Blanc","decorType":"restaurant"},{"id":"node-4524863571","lat":25.0252327,"lon":121.5422673,"name":"7-Eleven","decorType":"convenience"},{"id":"node-4524863572","lat":25.0258942,"lon":121.5391531,"name":"馬祖麵館","decorType":"restaurant"},{"id":"node-4524863585","lat":25.0358914,"lon":121.5439163,"name":"周記麵館","decorType":"restaurant"},{"id":"node-4524863586","lat":25.0358544,"lon":121.5439138,"name":"富興園","decorType":"restaurant"},{"id":"node-4524863587","lat":25.0358045,"lon":121.5439153,"name":"好棒棒平價快炒","decorType":"restaurant"},{"id":"node-4524863588","lat":25.0357646,"lon":121.5439176,"name":"溫州大餛飩","decorType":"restaurant"},{"id":"node-4524863589","lat":25.0368868,"lon":121.5441351,"name":"信義會恩光堂","decorType":"shrine"},{"id":"node-4524863590","lat":25.0352599,"lon":121.5457791,"name":"舒旅築旅","decorType":"restaurant"},{"id":"node-4524863635","lat":25.0244558,"lon":121.5470842,"name":"躍獅安和藥局","decorType":"pharmacy"},{"id":"node-4524863854","lat":25.0331448,"lon":121.5444327,"name":"屈臣氏","decorType":"pharmacy"},{"id":"node-4524863972","lat":25.032222,"lon":121.5438041,"name":"7-Eleven","decorType":"convenience"},{"id":"node-4524863974","lat":25.0371671,"lon":121.5438944,"name":"丹提咖啡","decorType":"cafe"},{"id":"node-4524864048","lat":25.0284892,"lon":121.5433947,"name":"未命名郵局","decorType":"post_office"},{"id":"node-4524864051","lat":25.0294327,"lon":121.543247,"name":"通化街米粉湯","decorType":"restaurant"},{"id":"node-4524864052","lat":25.0329361,"lon":121.5433666,"name":"吉野家","decorType":"burger"},{"id":"node-4524864184","lat":25.0341286,"lon":121.5460788,"name":"橘毛涮涮鍋","decorType":"restaurant"},{"id":"node-4524864553","lat":25.0277309,"lon":121.5432507,"name":"提拉米蘇","decorType":"bakery"},{"id":"node-4524864556","lat":25.0331866,"lon":121.5442225,"name":"未命名郵局","decorType":"post_office"},{"id":"node-4524864557","lat":25.0311393,"lon":121.5446948,"name":"浸宣大安教會","decorType":"shrine"},{"id":"node-4524864559","lat":25.0343599,"lon":121.5456097,"name":"日幕里","decorType":"restaurant"},{"id":"node-4524864560","lat":25.034351,"lon":121.5460953,"name":"夠夠肉火鍋","decorType":"restaurant"},{"id":"node-4524864561","lat":25.0359333,"lon":121.5458512,"name":"循禮會台北教會","decorType":"shrine"},{"id":"node-4524864563","lat":25.0363758,"lon":121.5462657,"name":"春日日本料理","decorType":"restaurant"},{"id":"node-4524864565","lat":25.0262042,"lon":121.5436832,"name":"屈臣氏","decorType":"pharmacy"},{"id":"node-4524864566","lat":25.0253315,"lon":121.5384389,"name":"8鍋臭臭鍋","decorType":"restaurant"},{"id":"node-4524864577","lat":25.0343535,"lon":121.5458301,"name":"7-Eleven","decorType":"convenience"},{"id":"node-4538276222","lat":25.0331481,"lon":121.5443456,"name":"永和豆漿","decorType":"restaurant"},{"id":"node-4563914090","lat":25.0334773,"lon":121.5481321,"name":"Savour Cafe","decorType":"cafe"},{"id":"node-4605333184","lat":25.0281792,"lon":121.5415157,"name":"打醬油","decorType":"restaurant"},{"id":"node-4605333185","lat":25.0280568,"lon":121.5416616,"name":"The Unique","decorType":"restaurant"},{"id":"node-4609097291","lat":25.0382099,"lon":121.5446631,"name":"FiFi Bar","decorType":"restaurant"},{"id":"node-4622733193","lat":25.027934,"lon":121.5424659,"name":"Leslie Pâtisserie & Bistro","decorType":"cafe"},{"id":"node-4659929791","lat":25.036115,"lon":121.5464884,"name":"7-Eleven","decorType":"convenience"},{"id":"node-4712595189","lat":25.0293937,"lon":121.5389605,"name":"全聯福利中心","decorType":"supermarket"},{"id":"node-4754476220","lat":25.037529,"lon":121.5477626,"name":"春申食府","decorType":"restaurant"},{"id":"node-4754476721","lat":25.0232091,"lon":121.5432176,"name":"點亮咖啡","decorType":"cafe"},{"id":"node-4771231228","lat":25.0371619,"lon":121.5468712,"name":"香港廣東粥","decorType":"restaurant"},{"id":"node-4798992021","lat":25.0286457,"lon":121.5396369,"name":"早安薬局","decorType":"pharmacy"},{"id":"node-4837986332","lat":25.0244146,"lon":121.5477114,"name":"義美食品","decorType":"convenience"},{"id":"node-4837986339","lat":25.0316827,"lon":121.5437781,"name":"義美食品","decorType":"convenience"},{"id":"node-4837986340","lat":25.0244459,"lon":121.5472379,"name":"溫溫時尚名品","decorType":"clothing"},{"id":"node-4837986342","lat":25.0244139,"lon":121.5474378,"name":"小林髮廊","decorType":"hair_salon"},{"id":"node-4837986345","lat":25.0244045,"lon":121.5477996,"name":"瑞麟美而美","decorType":"burger"},{"id":"node-4837986347","lat":25.0252188,"lon":121.542371,"name":"Subway","decorType":"burger"},{"id":"node-4837986468","lat":25.0348384,"lon":121.5482181,"name":"全聯福利中心","decorType":"supermarket"},{"id":"node-4837986469","lat":25.0370651,"lon":121.5469057,"name":"全家便利商店","decorType":"convenience"},{"id":"node-4837986470","lat":25.0364926,"lon":121.5471479,"name":"Toko Indo","decorType":"convenience"},{"id":"node-4837986471","lat":25.0359919,"lon":121.5435045,"name":"未命名郵局","decorType":"post_office"},{"id":"node-4837986528","lat":25.0290759,"lon":121.5460591,"name":"未命名郵局","decorType":"post_office"},{"id":"node-4837986570","lat":25.0257627,"lon":121.538557,"name":"屈臣氏","decorType":"pharmacy"},{"id":"node-4837986587","lat":25.0334685,"lon":121.5481673,"name":"赤肉羹魷魚羹","decorType":"restaurant"},{"id":"node-4921839019","lat":25.0352031,"lon":121.5358141,"name":"全聯福利中心","decorType":"supermarket"},{"id":"node-4921859508","lat":25.0350549,"lon":121.5357604,"name":"臺北市客委會 客家藝文中心","decorType":"art_gallery"},{"id":"node-4978451935","lat":25.0381975,"lon":121.5464048,"name":"摩斯漢堡","decorType":"burger"},{"id":"node-5061734721","lat":25.0255072,"lon":121.5371932,"name":"Key Wear","decorType":"clothing"},{"id":"node-5110348657","lat":25.0262591,"lon":121.5477547,"name":"餘記麵館","decorType":"restaurant"},{"id":"node-5110348658","lat":25.0263413,"lon":121.5478659,"name":"福皇宴港式小館","decorType":"restaurant"},{"id":"node-5110348659","lat":25.026351,"lon":121.5476832,"name":"救世軍台北中央堂","decorType":"shrine"},{"id":"node-5110348782","lat":25.0338687,"lon":121.5457246,"name":"仁慈宮","decorType":"shrine"},{"id":"node-5128183221","lat":25.0242763,"lon":121.5373627,"name":"未命名郵局","decorType":"post_office"},{"id":"node-5257642642","lat":25.0336404,"lon":121.543816,"name":"大戸屋","decorType":"restaurant"},{"id":"node-5369304260","lat":25.0232158,"lon":121.5429235,"name":"米多麗小館","decorType":"restaurant"},{"id":"node-5436859493","lat":25.0328108,"lon":121.5430192,"name":"le corner","decorType":"restaurant"},{"id":"node-5463352821","lat":25.0326778,"lon":121.5433381,"name":"大安煎包","decorType":"restaurant"},{"id":"node-5483729836","lat":25.0329539,"lon":121.5439019,"name":"義美食品","decorType":"convenience"},{"id":"node-5483729837","lat":25.032844,"lon":121.5447247,"name":"Subway","decorType":"burger"},{"id":"node-5483729838","lat":25.0331362,"lon":121.5447467,"name":"7-Eleven","decorType":"convenience"},{"id":"node-5483729839","lat":25.0331541,"lon":121.5445887,"name":"路易莎咖啡","decorType":"cafe"},{"id":"node-5483729840","lat":25.0331471,"lon":121.5445415,"name":"餵我早餐","decorType":"cafe"},{"id":"node-5483729841","lat":25.0331495,"lon":121.54439,"name":"鬍鬚張","decorType":"restaurant"},{"id":"node-5551815826","lat":25.033191,"lon":121.5422759,"name":"cow banana","decorType":"cafe"},{"id":"node-5551835422","lat":25.0332053,"lon":121.5420438,"name":"越南河粉","decorType":"restaurant"},{"id":"node-5551835424","lat":25.033198,"lon":121.542101,"name":"彼得好咖啡","decorType":"cafe"},{"id":"node-5551835425","lat":25.0331688,"lon":121.5419841,"name":"alphaBlack","decorType":"cafe"},{"id":"node-5551835426","lat":25.0335806,"lon":121.5425527,"name":"丹堤咖啡","decorType":"cafe"},{"id":"node-5551844221","lat":25.0332014,"lon":121.542132,"name":"cama現烘咖啡專門店","decorType":"cafe"},{"id":"node-5551847522","lat":25.0332563,"lon":121.5425799,"name":"捷運大安站3號出口","decorType":"station"},{"id":"node-5551857322","lat":25.0331262,"lon":121.543255,"name":"Birkenstock","decorType":"clothing"},{"id":"node-5551865624","lat":25.0330727,"lon":121.5419758,"name":"岩谷新鐵板料理","decorType":"restaurant"},{"id":"node-5551865625","lat":25.0331917,"lon":121.5417776,"name":"意莉名店","decorType":"clothing"},{"id":"node-5551867521","lat":25.0329646,"lon":121.5418372,"name":"給力盒子","decorType":"restaurant"},{"id":"node-5551867527","lat":25.0332007,"lon":121.5412423,"name":"隱城•小城外","decorType":"restaurant"},{"id":"node-5551870923","lat":25.033236,"lon":121.5409587,"name":"名旺精品陽傘","decorType":"clothing"},{"id":"node-5551870924","lat":25.0304478,"lon":121.5433334,"name":"ELITA","decorType":"clothing"},{"id":"node-5551873823","lat":25.0329724,"lon":121.5407676,"name":"桔梗三明治","decorType":"restaurant"},{"id":"node-5551874021","lat":25.0331871,"lon":121.5416668,"name":"智慧文具","decorType":"library"},{"id":"node-5551876236","lat":25.0306304,"lon":121.5433237,"name":"crush誇許早午餐下午茶","decorType":"cafe"},{"id":"node-5551876253","lat":25.0332585,"lon":121.5390307,"name":"Columbia","decorType":"clothing"},{"id":"node-5551876255","lat":25.0333633,"lon":121.5395833,"name":"Salomon S","decorType":"laundry"},{"id":"node-5551876521","lat":25.0308395,"lon":121.5433208,"name":"天辣麻辣","decorType":"restaurant"},{"id":"node-5551877226","lat":25.0332519,"lon":121.5388527,"name":"行家之旅","decorType":"clothing"},{"id":"node-5551877227","lat":25.0327693,"lon":121.5381856,"name":"清心福全","decorType":"cafe"},{"id":"node-5551887923","lat":25.0329023,"lon":121.5381993,"name":"建國手工水餃雲吞麵食館","decorType":"restaurant"},{"id":"node-5551891022","lat":25.0332519,"lon":121.5384418,"name":"非常量販","decorType":"clothing"},{"id":"node-5551893021","lat":25.0329812,"lon":121.5382014,"name":"林家米粉湯","decorType":"restaurant"},{"id":"node-5551897815","lat":25.0254343,"lon":121.5436799,"name":"康是美","decorType":"pharmacy"},{"id":"node-5551897905","lat":25.0275836,"lon":121.543688,"name":"謝記珍寶食品莊","decorType":"restaurant"},{"id":"node-5551899795","lat":25.0343137,"lon":121.5439032,"name":"未命名咖啡廳","decorType":"cafe"},{"id":"node-5551899824","lat":25.0330637,"lon":121.5381952,"name":"小辣椒 魷魚羹 美濃粄條","decorType":"restaurant"},{"id":"node-5551902823","lat":25.0345815,"lon":121.5382856,"name":"Lotteria","decorType":"burger"},{"id":"node-5551907221","lat":25.0342665,"lon":121.5382487,"name":"萊爾富","decorType":"convenience"},{"id":"node-5551907222","lat":25.0336567,"lon":121.5392458,"name":"米盒子","decorType":"restaurant"},{"id":"node-5551907224","lat":25.0338512,"lon":121.542299,"name":"你好咖啡旅館","decorType":"hotel"},{"id":"node-5551909602","lat":25.033897,"lon":121.543881,"name":"頂好榕樹下小吃店","decorType":"restaurant"},{"id":"node-5551909605","lat":25.0342572,"lon":121.5436956,"name":"大安站6號出口","decorType":"station"},{"id":"node-5551910322","lat":25.0336573,"lon":121.5391711,"name":"老虎醬溫州大餛飩","decorType":"restaurant"},{"id":"node-5551910930","lat":25.0337201,"lon":121.5386903,"name":"7-Eleven","decorType":"convenience"},{"id":"node-5551914393","lat":25.0340457,"lon":121.5438818,"name":"名店街","decorType":"convenience"},{"id":"node-5551916159","lat":25.034147,"lon":121.5433693,"name":"YUI","decorType":"clothing"},{"id":"node-5551919184","lat":25.0248772,"lon":121.5465054,"name":"屈臣氏","decorType":"pharmacy"},{"id":"node-5551928250","lat":25.0254947,"lon":121.543677,"name":"梁社漢排骨","decorType":"restaurant"},{"id":"node-5551928422","lat":25.0345151,"lon":121.5433681,"name":"布言布語","decorType":"clothing"},{"id":"node-5551928424","lat":25.0282403,"lon":121.5437211,"name":"好農市","decorType":"supermarket"},{"id":"node-5551928426","lat":25.0285169,"lon":121.5438164,"name":"Loranzo","decorType":"clothing"},{"id":"node-5551931022","lat":25.0285538,"lon":121.5438111,"name":"31well","decorType":"electronics"},{"id":"node-5551931024","lat":25.035285,"lon":121.5438819,"name":"綠原品","decorType":"supermarket"},{"id":"node-5551936079","lat":25.0339935,"lon":121.5439041,"name":"T_shirt","decorType":"clothing"},{"id":"node-5551938425","lat":25.0281975,"lon":121.5437223,"name":"聖德科斯","decorType":"supermarket"},{"id":"node-5551938427","lat":25.0249793,"lon":121.5443112,"name":"陳記腸蚵麵線","decorType":"restaurant"},{"id":"node-5551938751","lat":25.0249645,"lon":121.545347,"name":"盛味豐貼爐燒餅","decorType":"restaurant"},{"id":"node-5551944273","lat":25.0278415,"lon":121.5432526,"name":"大埔鐵板燒","decorType":"restaurant"},{"id":"node-5551944276","lat":25.0249663,"lon":121.545187,"name":"巧房餡餅蔥油餅","decorType":"restaurant"},{"id":"node-5551950658","lat":25.0285238,"lon":121.5440923,"name":"麗泰藥局","decorType":"pharmacy"},{"id":"node-5589700022","lat":25.0371361,"lon":121.5477488,"name":"秦家餅店","decorType":"burger"},{"id":"node-5695162347","lat":25.0352225,"lon":121.5439739,"name":"燒味堂","decorType":"restaurant"},{"id":"node-5698897064","lat":25.0326173,"lon":121.5437852,"name":"林居","decorType":"restaurant"},{"id":"node-5699174871","lat":25.0288163,"lon":121.5407167,"name":"香吧佬","decorType":"restaurant"},{"id":"node-5699174872","lat":25.0339867,"lon":121.5426761,"name":"台北市召會第十七聚會所","decorType":"shrine"},{"id":"node-5699174873","lat":25.0344922,"lon":121.543745,"name":"未命名郵局","decorType":"post_office"},{"id":"node-5699174874","lat":25.0282938,"lon":121.5426654,"name":"米克斯咖啡","decorType":"cafe"},{"id":"node-5699174877","lat":25.0293716,"lon":121.5421209,"name":"七里亭瑞安店","decorType":"restaurant"},{"id":"node-5699174878","lat":25.0294786,"lon":121.5422416,"name":"台北護靈宮","decorType":"shrine"},{"id":"node-5699174879","lat":25.0296803,"lon":121.5425527,"name":"Munchies Gastropub","decorType":"restaurant"},{"id":"node-5699174881","lat":25.0330948,"lon":121.5448728,"name":"大安健康人生藥局","decorType":"pharmacy"},{"id":"node-5699174886","lat":25.0328589,"lon":121.5446075,"name":"元氣家族麵飯館","decorType":"restaurant"},{"id":"node-5699174887","lat":25.0329091,"lon":121.5446104,"name":"光復牛肉麵","decorType":"restaurant"},{"id":"node-5699174889","lat":25.0331874,"lon":121.5442369,"name":"未命名郵局","decorType":"post_office"},{"id":"node-5699174893","lat":25.0326343,"lon":121.5439971,"name":"饞食坊","decorType":"restaurant"},{"id":"node-5699174894","lat":25.0273484,"lon":121.543234,"name":"50嵐","decorType":"cafe"},{"id":"node-5699174896","lat":25.0263799,"lon":121.543688,"name":"How Sweet","decorType":"bakery"},{"id":"node-5699174897","lat":25.0264011,"lon":121.54369,"name":"奇威服飾","decorType":"clothing"},{"id":"node-5699174907","lat":25.0292161,"lon":121.5441486,"name":"未命名神社","decorType":"shrine"},{"id":"node-5699174910","lat":25.0308298,"lon":121.5439609,"name":"印加媽媽祕魯餐館","decorType":"restaurant"},{"id":"node-5699174911","lat":25.0308626,"lon":121.5439354,"name":"老哥水煎包麵線","decorType":"restaurant"},{"id":"node-5699180230","lat":25.0319323,"lon":121.5438201,"name":"すき家","decorType":"burger"},{"id":"node-5699180231","lat":25.0322959,"lon":121.5439012,"name":"丰食堂","decorType":"restaurant"},{"id":"node-5699180232","lat":25.0324581,"lon":121.5437865,"name":"享樂咖啡","decorType":"cafe"},{"id":"node-5699180233","lat":25.0324983,"lon":121.5437867,"name":"大安站那邊精緻熱炒","decorType":"restaurant"},{"id":"node-5699180234","lat":25.0325523,"lon":121.5437865,"name":"黑小串燒","decorType":"restaurant"},{"id":"node-5699180235","lat":25.0325833,"lon":121.5437872,"name":"Nuttea Nut Milk Tea","decorType":"cafe"},{"id":"node-5835453711","lat":25.026588,"lon":121.5469357,"name":"7-Eleven","decorType":"convenience"},{"id":"node-5839491736","lat":25.0386741,"lon":121.5452692,"name":"7-Eleven","decorType":"convenience"},{"id":"node-5839491741","lat":25.0387029,"lon":121.5461465,"name":"橘毛涮涮鍋","decorType":"restaurant"},{"id":"node-5839491742","lat":25.0387078,"lon":121.5462423,"name":"台北商旅","decorType":"hotel"},{"id":"node-5839491743","lat":25.0382952,"lon":121.54621,"name":"EPL Steakhouse & Lounge","decorType":"restaurant"},{"id":"node-5839638859","lat":25.0244204,"lon":121.5473291,"name":"Flavor of India \"Tasty Traditional Vegetarian\"","decorType":"restaurant"},{"id":"node-5839763026","lat":25.0356751,"lon":121.5434074,"name":"La Giara","decorType":"restaurant"},{"id":"node-5839790179","lat":25.0284901,"lon":121.5442981,"name":"大水缸","decorType":"restaurant"},{"id":"node-5839790180","lat":25.0284737,"lon":121.5443968,"name":"杏友藥局","decorType":"pharmacy"},{"id":"node-5839792243","lat":25.0275547,"lon":121.5459249,"name":"大漢堡早餐店","decorType":"restaurant"},{"id":"node-5839797913","lat":25.0267371,"lon":121.5459646,"name":"博昱連鎖大藥局","decorType":"pharmacy"},{"id":"node-5839808686","lat":25.0274472,"lon":121.5459131,"name":"綺綺乾洗","decorType":"laundry"},{"id":"node-5839953126","lat":25.0354698,"lon":121.5438838,"name":"悅華軒酒樓","decorType":"restaurant"},{"id":"node-5839973229","lat":25.0252313,"lon":121.5436555,"name":"聖瑪麗","decorType":"bakery"},{"id":"node-5842743664","lat":25.025881,"lon":121.5468509,"name":"老龍牛肉麵大王","decorType":"restaurant"},{"id":"node-5845066129","lat":25.026262,"lon":121.547353,"name":"Johnson's","decorType":"restaurant"},{"id":"node-5845066130","lat":25.0262659,"lon":121.5475147,"name":"蘇江川小館","decorType":"restaurant"},{"id":"node-5845066131","lat":25.0262643,"lon":121.5471199,"name":"蔣記家薌麵","decorType":"restaurant"},{"id":"node-5845071457","lat":25.0282863,"lon":121.5474178,"name":"赤崁樓","decorType":"restaurant"},{"id":"node-5845287990","lat":25.024853,"lon":121.5469818,"name":"三槍宜而爽","decorType":"clothing"},{"id":"node-5845316854","lat":25.0249575,"lon":121.5456868,"name":"溫州大餛飩阿婆乾麵","decorType":"restaurant"},{"id":"node-5845316855","lat":25.0249649,"lon":121.5453892,"name":"劉家飯糰","decorType":"restaurant"},{"id":"node-5845316856","lat":25.0248952,"lon":121.5462311,"name":"土托魚羹","decorType":"restaurant"},{"id":"node-5845316857","lat":25.0249608,"lon":121.5456308,"name":"辛川屋","decorType":"restaurant"},{"id":"node-5845316859","lat":25.0249396,"lon":121.545897,"name":"和美台式自助餐","decorType":"restaurant"},{"id":"node-5845316860","lat":25.0249657,"lon":121.5455697,"name":"澳客炙燒牛排","decorType":"restaurant"},{"id":"node-5845347535","lat":25.0258063,"lon":121.5450724,"name":"豆漿燒餅油條","decorType":"burger"},{"id":"node-5853563029","lat":25.027932,"lon":121.5432578,"name":"熱翻天生猛海鮮","decorType":"restaurant"},{"id":"node-5853563030","lat":25.0278861,"lon":121.5432536,"name":"春喜炭火燒肉","decorType":"restaurant"},{"id":"node-5856220174","lat":25.0244325,"lon":121.5480831,"name":"十三香","decorType":"restaurant"},{"id":"node-5856283860","lat":25.0244172,"lon":121.5476026,"name":"丹堤咖啡","decorType":"cafe"},{"id":"node-5858751909","lat":25.0327796,"lon":121.5479607,"name":"奧瑞岡義大利餐廳","decorType":"restaurant"},{"id":"node-5864552975","lat":25.0271416,"lon":121.5461562,"name":"菜圃","decorType":"supermarket"},{"id":"node-5864552976","lat":25.0271456,"lon":121.5461143,"name":"易家香Q飯糰","decorType":"burger"},{"id":"node-5864552977","lat":25.0271534,"lon":121.5460416,"name":"呷尚寶早餐店","decorType":"burger"},{"id":"node-5864569029","lat":25.0271468,"lon":121.5460784,"name":"雞師父雞排鹽酥雞","decorType":"burger"},{"id":"node-5884543609","lat":25.0340669,"lon":121.5460771,"name":"摩斯漢堡","decorType":"burger"},{"id":"node-5884543610","lat":25.033692,"lon":121.5460799,"name":"櫻的小屋","decorType":"clothing"},{"id":"node-5884543611","lat":25.0336636,"lon":121.5460825,"name":"鼎旺鴛蛇麻辣鍋","decorType":"restaurant"},{"id":"node-5884543616","lat":25.0348106,"lon":121.5458894,"name":"馬丁咖啡","decorType":"cafe"},{"id":"node-5925683885","lat":25.0327177,"lon":121.5393652,"name":"The Whale","decorType":"restaurant"},{"id":"node-5992007285","lat":25.0385089,"lon":121.547243,"name":"胡同燒肉","decorType":"restaurant"},{"id":"node-5997594189","lat":25.0263256,"lon":121.541697,"name":"曬貓咖啡","decorType":"cafe"},{"id":"node-6055904186","lat":25.0367528,"lon":121.5439924,"name":"博多拉麵","decorType":"restaurant"},{"id":"node-6149991085","lat":25.0367289,"lon":121.54426,"name":"Plants","decorType":"restaurant"},{"id":"node-6153748461","lat":25.0348227,"lon":121.5448809,"name":"Tuttle Aroma","decorType":"cafe"},{"id":"node-6153748462","lat":25.0346453,"lon":121.5457459,"name":"永隆乾洗商店","decorType":"laundry"},{"id":"node-6153748464","lat":25.0350317,"lon":121.5456024,"name":"仁愛長老教會","decorType":"shrine"},{"id":"node-6153748476","lat":25.038471,"lon":121.5464969,"name":"東帝士男士理髮名店","decorType":"hair_salon"},{"id":"node-6153748477","lat":25.0258434,"lon":121.5450747,"name":"寶島扁食","decorType":"restaurant"},{"id":"node-6153989173","lat":25.0297295,"lon":121.5432635,"name":"一流清粥小菜","decorType":"restaurant"},{"id":"node-6159039441","lat":25.0326638,"lon":121.5381841,"name":"一路","decorType":"cafe"},{"id":"node-6165716353","lat":25.031977,"lon":121.539369,"name":"來吧Cafe'","decorType":"cafe"},{"id":"node-6165766447","lat":25.0330564,"lon":121.5433711,"name":"塩°パン 手作麵包本舖","decorType":"bakery"},{"id":"node-6165772973","lat":25.0340202,"lon":121.5433694,"name":"聖保羅烘焙花園","decorType":"bakery"},{"id":"node-6165778484","lat":25.0335852,"lon":121.5442733,"name":"相撲涮涮鍋","decorType":"restaurant"},{"id":"node-6165782097","lat":25.0328332,"lon":121.5450517,"name":"山玖鍋貼水餃","decorType":"restaurant"},{"id":"node-6172401985","lat":25.0270086,"lon":121.5380904,"name":"棉花田生機園地","decorType":"supermarket"},{"id":"node-6189925709","lat":25.02516,"lon":121.5427921,"name":"好安心藥局","decorType":"pharmacy"},{"id":"node-6189925710","lat":25.0252387,"lon":121.5422281,"name":"195 Fan Aily Cafe","decorType":"cafe"},{"id":"node-6222359586","lat":25.0279315,"lon":121.5481488,"name":"法式修頌","decorType":"cafe"},{"id":"node-6279619785","lat":25.0375694,"lon":121.5389694,"name":"忠南飯館","decorType":"restaurant"},{"id":"node-6323456711","lat":25.0336331,"lon":121.5463614,"name":"咖站","decorType":"cafe"},{"id":"node-6367036687","lat":25.0364531,"lon":121.5477719,"name":"原點","decorType":"bakery"},{"id":"node-6367049185","lat":25.0365667,"lon":121.5469866,"name":"卡菲米朗坊精品咖啡","decorType":"cafe"},{"id":"node-6376059483","lat":25.0316304,"lon":121.5437765,"name":"小樽早餐店","decorType":"restaurant"},{"id":"node-6376059484","lat":25.0316584,"lon":121.543777,"name":"Trust Me","decorType":"clothing"},{"id":"node-6376062385","lat":25.0317131,"lon":121.5438132,"name":"FINE CLothing & Accessories","decorType":"clothing"},{"id":"node-6376062387","lat":25.0252631,"lon":121.5436531,"name":"Kezza","decorType":"clothing"},{"id":"node-6376062389","lat":25.0251938,"lon":121.5425534,"name":"真芳","decorType":"burger"},{"id":"node-6454457189","lat":25.0354343,"lon":121.5431642,"name":"川湘號","decorType":"restaurant"},{"id":"node-6571077021","lat":25.0283381,"lon":121.5468085,"name":"牛莊園牛肉麵","decorType":"restaurant"},{"id":"node-6585779686","lat":25.0328649,"lon":121.541837,"name":"NoName咖哩","decorType":"restaurant"},{"id":"node-6585779785","lat":25.0353518,"lon":121.5444196,"name":"Moon Baking studio","decorType":"bakery"},{"id":"node-6601666488","lat":25.0236611,"lon":121.5435808,"name":"胖老爹美式炸雞","decorType":"burger"},{"id":"node-6604262834","lat":25.0266022,"lon":121.5431783,"name":"復興教會","decorType":"shrine"},{"id":"node-6604320350","lat":25.0268866,"lon":121.5432212,"name":"金城便當","decorType":"restaurant"},{"id":"node-6604320351","lat":25.0266293,"lon":121.5432159,"name":"七棧茶","decorType":"cafe"},{"id":"node-6679978785","lat":25.0283255,"lon":121.5467667,"name":"牛莊園蔬果湯頭牛肉麵","decorType":"restaurant"},{"id":"node-6703646973","lat":25.0252266,"lon":121.5426533,"name":"麒雲餐廳","decorType":"restaurant"},{"id":"node-6769597890","lat":25.0246081,"lon":121.5431052,"name":"TCOC 台灣國際基督教會","decorType":"shrine"},{"id":"node-6775539322","lat":25.0256734,"lon":121.5446578,"name":"Louisa Cafe","decorType":"cafe"},{"id":"node-6775539323","lat":25.0256853,"lon":121.543896,"name":"7-Eleven","decorType":"convenience"},{"id":"node-6780734597","lat":25.0284541,"lon":121.5479694,"name":"神樂屋日式料理","decorType":"restaurant"},{"id":"node-6843933721","lat":25.0272114,"lon":121.5455262,"name":"j-cut專業剪燙沙龍","decorType":"hair_salon"},{"id":"node-7021849194","lat":25.0253239,"lon":121.5385053,"name":"伍陸時尚","decorType":"clothing"},{"id":"node-7056032338","lat":25.0238802,"lon":121.5435719,"name":"樂町屋","decorType":"restaurant"},{"id":"node-7066831585","lat":25.0357291,"lon":121.54701,"name":"四知堂TUA攤","decorType":"restaurant"},{"id":"node-7095347114","lat":25.0385185,"lon":121.5453483,"name":"橘色涮涮屋","decorType":"restaurant"},{"id":"node-7150030202","lat":25.0346502,"lon":121.5474799,"name":"秋料理","decorType":"restaurant"},{"id":"node-7175334730","lat":25.0312158,"lon":121.5479454,"name":"展翔早餐吧","decorType":"restaurant"},{"id":"node-7175334735","lat":25.0313752,"lon":121.5461473,"name":"韓風館","decorType":"restaurant"},{"id":"node-7175334745","lat":25.0342622,"lon":121.5386988,"name":"家鄉自助餐","decorType":"restaurant"},{"id":"node-7175334750","lat":25.0340551,"lon":121.5388272,"name":"越蓮料理坊","decorType":"restaurant"},{"id":"node-7175334775","lat":25.0281265,"lon":121.5466799,"name":"赤牛城","decorType":"restaurant"},{"id":"node-7175334781","lat":25.0281373,"lon":121.5465979,"name":"滿樂鐵板吐司","decorType":"restaurant"},{"id":"node-7175344500","lat":25.0306726,"lon":121.5432741,"name":"誇許早午餐","decorType":"restaurant"},{"id":"node-7175344505","lat":25.0303913,"lon":121.5458291,"name":"大安大安18","decorType":"restaurant"},{"id":"node-7175344517","lat":25.0351135,"lon":121.5373911,"name":"弍兩日式炭火燒肉","decorType":"restaurant"},{"id":"node-7175344522","lat":25.0338087,"lon":121.5390115,"name":"范姜川味牛肉麵","decorType":"restaurant"},{"id":"node-7175344527","lat":25.0336593,"lon":121.5390924,"name":"小勇士德州炸雞","decorType":"burger"},{"id":"node-7175344549","lat":25.0272077,"lon":121.5455561,"name":"亞果早午廚坊","decorType":"restaurant"},{"id":"node-7175344556","lat":25.0284358,"lon":121.5462521,"name":"金霸臭臭鍋","decorType":"restaurant"},{"id":"node-7175344562","lat":25.0284527,"lon":121.5458619,"name":"珍品佳盒餐","decorType":"restaurant"},{"id":"node-7175344569","lat":25.0333068,"lon":121.5389877,"name":"朱記餡餅粥店","decorType":"restaurant"},{"id":"node-7175344575","lat":25.0306602,"lon":121.5433236,"name":"山嵐拉麵","decorType":"restaurant"},{"id":"node-7175344582","lat":25.0300862,"lon":121.5459212,"name":"我家牛排","decorType":"restaurant"},{"id":"node-7175344588","lat":25.0271544,"lon":121.5460649,"name":"易家香Q飯糰","decorType":"restaurant"},{"id":"node-7175344594","lat":25.0350469,"lon":121.5372898,"name":"安娜法蘭法式蔬食","decorType":"restaurant"},{"id":"node-7175344626","lat":25.0272056,"lon":121.5460103,"name":"呷尚寶","decorType":"burger"},{"id":"node-7175344631","lat":25.0283013,"lon":121.5469085,"name":"木子日青","decorType":"restaurant"},{"id":"node-7175344643","lat":25.028451,"lon":121.5452173,"name":"欽豪燒腊盒餐","decorType":"restaurant"},{"id":"node-7175344649","lat":25.0326446,"lon":121.5393916,"name":"幸福麵食餃子館","decorType":"restaurant"},{"id":"node-7175344655","lat":25.0311053,"lon":121.5479492,"name":"四維路麵攤","decorType":"restaurant"},{"id":"node-7175344662","lat":25.0287317,"lon":121.5460897,"name":"瑞麟美而美","decorType":"burger"},{"id":"node-7175344668","lat":25.0339955,"lon":121.5360508,"name":"真書軒 The Jen Library","decorType":"cafe"},{"id":"node-7175344674","lat":25.0341656,"lon":121.5387313,"name":"耘華居素食茶葉","decorType":"restaurant"},{"id":"node-7175344707","lat":25.0283497,"lon":121.5467466,"name":"海福岡日本料理海鮮熱炒","decorType":"restaurant"},{"id":"node-7175344713","lat":25.0285096,"lon":121.5459842,"name":"角屋關東煮","decorType":"restaurant"},{"id":"node-7175344724","lat":25.0327544,"lon":121.5392745,"name":"餵我早餐","decorType":"restaurant"},{"id":"node-7175344730","lat":25.031073,"lon":121.5474809,"name":"原涮 樂活鍋物 Love Pot","decorType":"restaurant"},{"id":"node-7175344736","lat":25.029823,"lon":121.5459028,"name":"麥味登","decorType":"restaurant"},{"id":"node-7175344742","lat":25.034239,"lon":121.537431,"name":"池上木片便當","decorType":"restaurant"},{"id":"node-7175344747","lat":25.0343132,"lon":121.5386634,"name":"好朋友早餐吧","decorType":"restaurant"},{"id":"node-7175344752","lat":25.033701,"lon":121.5387432,"name":"八麵玲瓏","decorType":"restaurant"},{"id":"node-7175344778","lat":25.0281236,"lon":121.5467233,"name":"四維紅麵線","decorType":"restaurant"},{"id":"node-7175344782","lat":25.0283602,"lon":121.5461466,"name":"哥萊早餐屋","decorType":"restaurant"},{"id":"node-7175344795","lat":25.0337712,"lon":121.5393125,"name":"菊乃屋","decorType":"restaurant"},{"id":"node-7200280624","lat":25.0265792,"lon":121.5477508,"name":"床邊圖書館","decorType":"library"},{"id":"node-7213007938","lat":25.0273869,"lon":121.5403587,"name":"上海大安理髮廳","decorType":"hair_salon"},{"id":"node-7213007939","lat":25.0269704,"lon":121.539546,"name":"韓國時間","decorType":"restaurant"},{"id":"node-7213007941","lat":25.0263683,"lon":121.5394514,"name":"黑川日本料理","decorType":"restaurant"},{"id":"node-7213007942","lat":25.0263969,"lon":121.5394662,"name":"嘰嘰喳喳","decorType":"restaurant"},{"id":"node-7213007943","lat":25.0264783,"lon":121.5395138,"name":"巴薩克咖啡","decorType":"cafe"},{"id":"node-7213007944","lat":25.0263361,"lon":121.5392174,"name":"上鼎豐小籠湯包","decorType":"restaurant"},{"id":"node-7213007945","lat":25.0259545,"lon":121.5391691,"name":"越南河粉","decorType":"restaurant"},{"id":"node-7213007947","lat":25.025998,"lon":121.5391755,"name":"溫州大混沌","decorType":"restaurant"},{"id":"node-7213007949","lat":25.026042,"lon":121.5390873,"name":"吉富早餐","decorType":"restaurant"},{"id":"node-7213007952","lat":25.025288,"lon":121.538752,"name":"山林美食館","decorType":"restaurant"},{"id":"node-7213007982","lat":25.0231322,"lon":121.542951,"name":"Barkers","decorType":"restaurant"},{"id":"node-7213007983","lat":25.0231766,"lon":121.5429497,"name":"118巷自助洗衣","decorType":"laundry"},{"id":"node-7213007984","lat":25.023261,"lon":121.5429383,"name":"湄賽雲泰料理","decorType":"restaurant"},{"id":"node-7213037285","lat":25.0239349,"lon":121.5429289,"name":"魯心麵","decorType":"restaurant"},{"id":"node-7213037286","lat":25.0238146,"lon":121.5427706,"name":"裸湯拉麵 雞白湯","decorType":"restaurant"},{"id":"node-7213037287","lat":25.0241064,"lon":121.5428253,"name":"小姊妹麻辣食堂","decorType":"restaurant"},{"id":"node-7384220349","lat":25.0337329,"lon":121.5366656,"name":"7-Eleven","decorType":"convenience"},{"id":"node-7384458590","lat":25.0342069,"lon":121.536012,"name":"全家便利商店","decorType":"convenience"},{"id":"node-7594595992","lat":25.0265779,"lon":121.5439957,"name":"本山拉麵","decorType":"restaurant"},{"id":"node-7647240944","lat":25.0314532,"lon":121.5461428,"name":"必勝客","decorType":"restaurant"},{"id":"node-7647240953","lat":25.0316112,"lon":121.5445282,"name":"饞食堂","decorType":"restaurant"},{"id":"node-7647240954","lat":25.0318007,"lon":121.5445268,"name":"杯盃","decorType":"cafe"},{"id":"node-7647240955","lat":25.0316871,"lon":121.544545,"name":"吉米樂狗 Jimmy's Hotdog Club","decorType":"burger"},{"id":"node-7647240956","lat":25.0330207,"lon":121.5447213,"name":"素食","decorType":"restaurant"},{"id":"node-7647240957","lat":25.0329417,"lon":121.5447588,"name":"熊熊吃到飽早餐","decorType":"restaurant"},{"id":"node-7647240958","lat":25.0329442,"lon":121.5447226,"name":"炒飯","decorType":"restaurant"},{"id":"node-7647240959","lat":25.0329004,"lon":121.5447213,"name":"Kyoto Koji精肉店","decorType":"restaurant"},{"id":"node-7647240960","lat":25.0329563,"lon":121.5445966,"name":"飯麵","decorType":"restaurant"},{"id":"node-7695463324","lat":25.0266487,"lon":121.5417248,"name":"森之豆","decorType":"restaurant"},{"id":"node-7695463325","lat":25.0273198,"lon":121.5400965,"name":"巧巧香雞排","decorType":"restaurant"},{"id":"node-7695463326","lat":25.0267165,"lon":121.5396868,"name":"ANTICO FORNO","decorType":"restaurant"},{"id":"node-7695463327","lat":25.0280932,"lon":121.5385404,"name":"四川蜀渝小吃","decorType":"restaurant"},{"id":"node-7695463328","lat":25.02869,"lon":121.538656,"name":"八方雲集","decorType":"burger"},{"id":"node-7695463329","lat":25.0286643,"lon":121.5385764,"name":"仁里居","decorType":"restaurant"},{"id":"node-7695463330","lat":25.0286651,"lon":121.5386262,"name":"壹伍壹麵食館","decorType":"restaurant"},{"id":"node-7695706061","lat":25.0385749,"lon":121.5462273,"name":"橘色涮涮屋","decorType":"restaurant"},{"id":"node-7695706062","lat":25.0382372,"lon":121.5468305,"name":"永和豆漿大王","decorType":"restaurant"},{"id":"node-7695706063","lat":25.0382475,"lon":121.5469651,"name":"九如商號","decorType":"restaurant"},{"id":"node-7695706064","lat":25.0382629,"lon":121.5472383,"name":"Winona葡萄酒餐廳","decorType":"restaurant"},{"id":"node-7695706065","lat":25.0382707,"lon":121.5473985,"name":"沾美西餐廳","decorType":"restaurant"},{"id":"node-7695706069","lat":25.0387303,"lon":121.54761,"name":"樂軒和牛專門店","decorType":"restaurant"},{"id":"node-7695801660","lat":25.0300368,"lon":121.545922,"name":"麻吉迷你鯛魚燒","decorType":"restaurant"},{"id":"node-7695801662","lat":25.0321703,"lon":121.5458623,"name":"胖老爹美式炸雞","decorType":"burger"},{"id":"node-7695801663","lat":25.0323507,"lon":121.5460937,"name":"阿嬌海鮮料理","decorType":"restaurant"},{"id":"node-7695801664","lat":25.0323756,"lon":121.5458879,"name":"小南鄭記","decorType":"restaurant"},{"id":"node-7695801665","lat":25.0325827,"lon":121.5458651,"name":"圓圓小籠湯包","decorType":"restaurant"},{"id":"node-7695801666","lat":25.0327167,"lon":121.5458579,"name":"王家刀切麵","decorType":"restaurant"},{"id":"node-7695801667","lat":25.0326523,"lon":121.54586,"name":"粥師傅廣東粥","decorType":"restaurant"},{"id":"node-7695801668","lat":25.032776,"lon":121.5458509,"name":"江蘇老趙刀切麵","decorType":"restaurant"},{"id":"node-7695801669","lat":25.0328336,"lon":121.545848,"name":"老鄒刀切麵","decorType":"restaurant"},{"id":"node-7695801670","lat":25.0328938,"lon":121.5458424,"name":"小北方美食館","decorType":"restaurant"},{"id":"node-7695801671","lat":25.032978,"lon":121.5458329,"name":"東家美食館","decorType":"restaurant"},{"id":"node-7695801672","lat":25.0330928,"lon":121.5458365,"name":"信維市場米粉湯","decorType":"restaurant"},{"id":"node-7695801673","lat":25.0331461,"lon":121.5458118,"name":"草菩提素食拉麵","decorType":"restaurant"},{"id":"node-7728028467","lat":25.035937,"lon":121.5460928,"name":"東大麵線","decorType":"restaurant"},{"id":"node-7728028469","lat":25.0358644,"lon":121.5460878,"name":"薇朵","decorType":"clothing"},{"id":"node-7749841906","lat":25.0360754,"lon":121.547592,"name":"陸光小吃館","decorType":"restaurant"},{"id":"node-7749841907","lat":25.0360986,"lon":121.547499,"name":"黑武士餐坊","decorType":"restaurant"},{"id":"node-7749841908","lat":25.0362739,"lon":121.5471254,"name":"咪咪小館","decorType":"restaurant"},{"id":"node-7749841909","lat":25.0362799,"lon":121.5469822,"name":"昭和食堂","decorType":"restaurant"},{"id":"node-7749841910","lat":25.0361278,"lon":121.5469632,"name":"KIKI 餐廳","decorType":"restaurant"},{"id":"node-7749841911","lat":25.0361124,"lon":121.5468343,"name":"當心上癮","decorType":"restaurant"},{"id":"node-7749841912","lat":25.0363607,"lon":121.5461136,"name":"台南周氏冰鎮滷味","decorType":"restaurant"},{"id":"node-7749841913","lat":25.036683,"lon":121.5456109,"name":"陳鐵心","decorType":"restaurant"},{"id":"node-7749841914","lat":25.036683,"lon":121.5454165,"name":"陳記豬肝湯","decorType":"restaurant"},{"id":"node-7749841915","lat":25.036689,"lon":121.5452563,"name":"麥軒早餐店","decorType":"restaurant"},{"id":"node-7749841916","lat":25.0365348,"lon":121.5452872,"name":"達美樂","decorType":"restaurant"},{"id":"node-7749841918","lat":25.0365664,"lon":121.545931,"name":"晴光紅豆餅","decorType":"restaurant"},{"id":"node-7749841919","lat":25.0369449,"lon":121.546142,"name":"少小白大安旗艦店","decorType":"restaurant"},{"id":"node-7749841920","lat":25.0371387,"lon":121.5443015,"name":"手串本舖串燒","decorType":"restaurant"},{"id":"node-7749841921","lat":25.0374777,"lon":121.544382,"name":"瑞麟美而美","decorType":"burger"},{"id":"node-7765187600","lat":25.0375151,"lon":121.5391886,"name":"Hawkeye Taipei","decorType":"restaurant"},{"id":"node-7765187689","lat":25.0360054,"lon":121.5425293,"name":"成都老么牛肉麵","decorType":"restaurant"},{"id":"node-7765187690","lat":25.0375907,"lon":121.5390109,"name":"奪愛Dazzle","decorType":"restaurant"},{"id":"node-7765187777","lat":25.0375899,"lon":121.5388989,"name":"烤蘋果派的方法","decorType":"restaurant"},{"id":"node-7765187791","lat":25.0251377,"lon":121.5391993,"name":"呂巷仔口麵食館","decorType":"restaurant"},{"id":"node-7765187801","lat":25.0361166,"lon":121.5354643,"name":"素食","decorType":"restaurant"},{"id":"node-7765187805","lat":25.0339828,"lon":121.5429403,"name":"品牌空間","decorType":"restaurant"},{"id":"node-7765187811","lat":25.0360011,"lon":121.542426,"name":"仁愛魚丸冬粉","decorType":"restaurant"},{"id":"node-7765187901","lat":25.0293665,"lon":121.5406598,"name":"田中園 (大安店)","decorType":"cafe"},{"id":"node-7765188004","lat":25.0245131,"lon":121.5413853,"name":"成口香","decorType":"restaurant"},{"id":"node-7765188037","lat":25.0359987,"lon":121.5428283,"name":"賈糊塗小吃","decorType":"restaurant"},{"id":"node-7765188390","lat":25.0367126,"lon":121.5356682,"name":"居樂堂甜鋪","decorType":"restaurant"},{"id":"node-7765188437","lat":25.024956,"lon":121.5391913,"name":"麵攤","decorType":"restaurant"},{"id":"node-7765188441","lat":25.0375759,"lon":121.5388412,"name":"幸福麵食餃子館","decorType":"restaurant"},{"id":"node-7765188471","lat":25.029118,"lon":121.5407101,"name":"日日香小館","decorType":"restaurant"},{"id":"node-7772769994","lat":25.0355382,"lon":121.535465,"name":"金龍餐飲店","decorType":"restaurant"},{"id":"node-7773737838","lat":25.035033,"lon":121.5469474,"name":"蘭亭燒肉 和牛極緻料理","decorType":"restaurant"},{"id":"node-7775054467","lat":25.0366141,"lon":121.5357064,"name":"麥味登","decorType":"restaurant"},{"id":"node-7787593822","lat":25.0286844,"lon":121.5381596,"name":"男仕理髮","decorType":"hair_salon"},{"id":"node-7787593823","lat":25.0286683,"lon":121.5387752,"name":"格拉齊義大利麵食館","decorType":"restaurant"},{"id":"node-7787593826","lat":25.0286441,"lon":121.5391237,"name":"明德素食園","decorType":"restaurant"},{"id":"node-7787593827","lat":25.0286476,"lon":121.5392076,"name":"濟安國際","decorType":"supermarket"},{"id":"node-7787823099","lat":25.0286032,"lon":121.5400511,"name":"魚韻日式料理","decorType":"restaurant"},{"id":"node-7787823100","lat":25.0288239,"lon":121.5400409,"name":"中保無限家","decorType":"cafe"},{"id":"node-7787823102","lat":25.0286143,"lon":121.5404062,"name":"小林髮廊","decorType":"hair_salon"},{"id":"node-7787823104","lat":25.0285757,"lon":121.5406172,"name":"杏一藥局","decorType":"pharmacy"},{"id":"node-7791613826","lat":25.0286217,"lon":121.5402549,"name":"山西御品刀削麵館","decorType":"restaurant"},{"id":"node-7791617593","lat":25.0256927,"lon":121.5358572,"name":"樂饕","decorType":"restaurant"},{"id":"node-7791617607","lat":25.0284993,"lon":121.5446276,"name":"杏友藥局","decorType":"pharmacy"},{"id":"node-7791617608","lat":25.0285008,"lon":121.5447286,"name":"鴻恩老麵饅頭","decorType":"restaurant"},{"id":"node-7817910516","lat":25.0321862,"lon":121.5445522,"name":"龍華燒臘","decorType":"restaurant"},{"id":"node-7817910517","lat":25.0323062,"lon":121.5445487,"name":"新康洗衣店","decorType":"laundry"},{"id":"node-7817910518","lat":25.032142,"lon":121.544547,"name":"Big Table","decorType":"restaurant"},{"id":"node-7817910519","lat":25.0322525,"lon":121.5445505,"name":"貳店虹吸咖啡專門店","decorType":"cafe"},{"id":"node-7817910520","lat":25.031793,"lon":121.5446916,"name":"這間咖啡","decorType":"cafe"},{"id":"node-7817910521","lat":25.032033,"lon":121.5447091,"name":"在家咖啡手沖咖啡專門店","decorType":"cafe"},{"id":"node-7827965769","lat":25.0349576,"lon":121.5404217,"name":"未命名餐廳","decorType":"restaurant"},{"id":"node-8118207169","lat":25.0306812,"lon":121.5459713,"name":"7-Eleven","decorType":"convenience"},{"id":"node-8145497484","lat":25.0340872,"lon":121.5374209,"name":"幸福七角棧","decorType":"restaurant"},{"id":"node-8145680552","lat":25.0329466,"lon":121.5409253,"name":"運鈍根湯","decorType":"restaurant"},{"id":"node-8145680553","lat":25.033062,"lon":121.5418372,"name":"吉鴙拉麵","decorType":"restaurant"},{"id":"node-8145680554","lat":25.0361776,"lon":121.5440494,"name":"玖五牛肉麵","decorType":"restaurant"},{"id":"node-8145680555","lat":25.0369415,"lon":121.5463203,"name":"三牛日本料理","decorType":"restaurant"},{"id":"node-8145680556","lat":25.0369535,"lon":121.5470306,"name":"廊香Les Champs","decorType":"restaurant"},{"id":"node-8145680557","lat":25.0369028,"lon":121.5478215,"name":"興美切仔麵","decorType":"restaurant"},{"id":"node-8145680558","lat":25.0369217,"lon":121.5479286,"name":"芯","decorType":"restaurant"},{"id":"node-8145680559","lat":25.0370025,"lon":121.5480007,"name":"龍翔園餐廳","decorType":"restaurant"},{"id":"node-8145680560","lat":25.0370979,"lon":121.5479846,"name":"老饕食堂","decorType":"restaurant"},{"id":"node-8145680561","lat":25.0371279,"lon":121.5475512,"name":"一期一會","decorType":"restaurant"},{"id":"node-8145680562","lat":25.0365463,"lon":121.5471681,"name":"十方長私廚料理","decorType":"restaurant"},{"id":"node-8145680563","lat":25.0366932,"lon":121.5475417,"name":"凱恩斯岩燒餐廳","decorType":"restaurant"},{"id":"node-8145680564","lat":25.0366922,"lon":121.5478789,"name":"Cafe By Juicy Diary","decorType":"restaurant"},{"id":"node-8145680565","lat":25.0363015,"lon":121.5480405,"name":"MUME","decorType":"restaurant"},{"id":"node-8145680566","lat":25.0361733,"lon":121.5480512,"name":"a.Bistro","decorType":"restaurant"},{"id":"node-8145680567","lat":25.0359248,"lon":121.5464875,"name":"樵","decorType":"restaurant"},{"id":"node-8145680568","lat":25.0359394,"lon":121.5469126,"name":"HANCHU","decorType":"restaurant"},{"id":"node-8145680569","lat":25.0352059,"lon":121.5473312,"name":"chinois","decorType":"restaurant"},{"id":"node-8145680570","lat":25.0351887,"lon":121.5471823,"name":"牡丹 天ぷら","decorType":"restaurant"},{"id":"node-8145680571","lat":25.0350242,"lon":121.546776,"name":"木子31咖啡餐飲","decorType":"restaurant"},{"id":"node-8145680572","lat":25.0350538,"lon":121.5465327,"name":"21料理所","decorType":"restaurant"},{"id":"node-8145680573","lat":25.0350263,"lon":121.546308,"name":"老鼎旺","decorType":"restaurant"},{"id":"node-8145680574","lat":25.0346092,"lon":121.5461439,"name":"茉莉漢堡","decorType":"restaurant"},{"id":"node-8145680575","lat":25.0344773,"lon":121.5461956,"name":"鼎旺麻辣鍋","decorType":"restaurant"},{"id":"node-8145680576","lat":25.0344275,"lon":121.5450591,"name":"婷婷咖啡簡餐","decorType":"restaurant"},{"id":"node-8145680577","lat":25.0343768,"lon":121.5388752,"name":"清粥小菜","decorType":"restaurant"},{"id":"node-8145680578","lat":25.0351095,"lon":121.5382924,"name":"甜10工作室","decorType":"restaurant"},{"id":"node-8145680579","lat":25.03457,"lon":121.5385106,"name":"珍品魯肉飯","decorType":"restaurant"},{"id":"node-8145680580","lat":25.0337802,"lon":121.5384191,"name":"爭鮮","decorType":"restaurant"},{"id":"node-8237768564","lat":25.0385907,"lon":121.5482102,"name":"BAPE","decorType":"clothing"},{"id":"node-8280854457","lat":25.0355153,"lon":121.5450498,"name":"oncepoon","decorType":"restaurant"},{"id":"node-8280854458","lat":25.0359455,"lon":121.5455058,"name":"脂一の鍋","decorType":"restaurant"},{"id":"node-8378684491","lat":25.0352289,"lon":121.544887,"name":"極膳頂級草本鍋","decorType":"restaurant"},{"id":"node-8385313541","lat":25.025728,"lon":121.535711,"name":"八方雲集","decorType":"burger"},{"id":"node-8385313630","lat":25.032171,"lon":121.546103,"name":"八方雲集","decorType":"burger"},{"id":"node-8420400116","lat":25.0260575,"lon":121.5436445,"name":"捷運科技大樓站","decorType":"bus_stop"},{"id":"node-8421027757","lat":25.026739,"lon":121.5433473,"name":"捷運科技大樓站","decorType":"bus_stop"},{"id":"node-8518273543","lat":25.0378604,"lon":121.5434029,"name":"仁愛復興路口(福華飯店)","decorType":"bus_stop"},{"id":"node-8779146710","lat":25.036359,"lon":121.5454513,"name":"迷你咖啡館","decorType":"cafe"},{"id":"node-8973186970","lat":25.0257151,"lon":121.5450634,"name":"和平食光","decorType":"restaurant"},{"id":"node-9049616158","lat":25.0318532,"lon":121.5458611,"name":"HWC黑沃咖啡 大安瑞安店","decorType":"cafe"},{"id":"node-9049640646","lat":25.0244593,"lon":121.5480244,"name":"HWC黑沃咖啡","decorType":"cafe"},{"id":"node-9217530580","lat":25.0376124,"lon":121.5462173,"name":"福利麵包食品有限公司-仁愛店","decorType":"bakery"},{"id":"node-9362998874","lat":25.0292599,"lon":121.5420343,"name":"蝦皮店到店","decorType":"convenience"},{"id":"node-9894794483","lat":25.0332741,"lon":121.5383088,"name":"路易莎咖啡","decorType":"cafe"},{"id":"node-10161168318","lat":25.0234795,"lon":121.5429278,"name":"唯雞館","decorType":"restaurant"},{"id":"node-10185290573","lat":25.0249622,"lon":121.5448657,"name":"烏弄原生茶飲","decorType":"cafe"},{"id":"node-10226938268","lat":25.0280523,"lon":121.5479105,"name":"路易莎咖啡","decorType":"cafe"},{"id":"node-10569191071","lat":25.0332923,"lon":121.5361392,"name":"未命名車站","decorType":"station"},{"id":"node-10826522735","lat":25.0364756,"lon":121.5472122,"name":"M17 cafe & lab 中途貓咪咖啡館實驗室","decorType":"cafe"},{"id":"node-10880147216","lat":25.0247763,"lon":121.546468,"name":"未命名郵局","decorType":"post_office"},{"id":"node-11035547977","lat":25.035467,"lon":121.5481906,"name":"巷子龍家常菜","decorType":"restaurant"},{"id":"node-11207310293","lat":25.0281629,"lon":121.5468157,"name":"春桂雞肉","decorType":"restaurant"},{"id":"node-11387164680","lat":25.0332977,"lon":121.535582,"name":"未命名車站","decorType":"station"},{"id":"node-11898785426","lat":25.0339447,"lon":121.5407125,"name":"合作社","decorType":"convenience"},{"id":"node-11951580629","lat":25.0266307,"lon":121.5393809,"name":"拉麵 らぁ麺-魚堺","decorType":"restaurant"},{"id":"node-12064212785","lat":25.025845,"lon":121.5468491,"name":"媽媽米亞","decorType":"burger"},{"id":"node-12064212786","lat":25.0262742,"lon":121.546911,"name":"成功乾洗","decorType":"laundry"},{"id":"node-12064212787","lat":25.0261977,"lon":121.5469086,"name":"37號海鮮粥","decorType":"restaurant"},{"id":"node-12198744451","lat":25.0339503,"lon":121.5405996,"name":"南樓熱食部","decorType":"restaurant"},{"id":"node-12198801992","lat":25.0331291,"lon":121.5426865,"name":"摩斯漢堡(附中店)","decorType":"burger"},{"id":"node-12235762035","lat":25.0235554,"lon":121.5427292,"name":"未命名公園","decorType":"park"},{"id":"node-12395478201","lat":25.0255707,"lon":121.5399429,"name":"拿坡里披薩","decorType":"burger"},{"id":"node-12475356603","lat":25.0255013,"lon":121.5405625,"name":"早安有喜-大安和平店","decorType":"restaurant"},{"id":"node-12590080872","lat":25.0354031,"lon":121.5452031,"name":"77opèt","decorType":"restaurant"},{"id":"node-12827757101","lat":25.0341127,"lon":121.5352298,"name":"Sucré Beans","decorType":"cafe"},{"id":"node-12840260252","lat":25.0235137,"lon":121.5432117,"name":"大安米粉湯","decorType":"restaurant"},{"id":"node-12848662837","lat":25.0373062,"lon":121.5463999,"name":"蒝山拉麵","decorType":"restaurant"},{"id":"node-12852320142","lat":25.0352133,"lon":121.5434078,"name":"全家便利商店","decorType":"convenience"},{"id":"node-12852378830","lat":25.0341064,"lon":121.5438692,"name":"Bros Coffee","decorType":"cafe"},{"id":"node-12856801179","lat":25.0362872,"lon":121.5470121,"name":"Chun Ramen Shop","decorType":"restaurant"},{"id":"node-12856801180","lat":25.036859,"lon":121.5471305,"name":"Fifteen","decorType":"cafe"},{"id":"node-12860053876","lat":25.0353974,"lon":121.5461079,"name":"強記港式小館","decorType":"burger"},{"id":"node-12860086003","lat":25.0353248,"lon":121.5460835,"name":"Our Owl","decorType":"cafe"},{"id":"node-12860086004","lat":25.0356554,"lon":121.5461033,"name":"Martin Coffee","decorType":"cafe"},{"id":"node-12860417498","lat":25.0371449,"lon":121.5461485,"name":"杏 一 Medfirst","decorType":"pharmacy"},{"id":"node-12861757712","lat":25.0369431,"lon":121.5438882,"name":"7-Eleven","decorType":"convenience"},{"id":"node-12882720201","lat":25.0234732,"lon":121.5412425,"name":"和日一五號","decorType":"restaurant"},{"id":"node-12976937917","lat":25.0250087,"lon":121.5437877,"name":"路易莎咖啡","decorType":"cafe"},{"id":"node-12976937919","lat":25.028664,"lon":121.5437587,"name":"倍邱室咖啡","decorType":"cafe"},{"id":"node-13094471759","lat":25.0335918,"lon":121.5446727,"name":"榮榮園浙寧餐廳","decorType":"restaurant"},{"id":"node-13108188460","lat":25.0258677,"lon":121.5431354,"name":"未命名車站","decorType":"station"},{"id":"node-13108188462","lat":25.0264175,"lon":121.5431801,"name":"東京巴黎甜點","decorType":"sweetshop"},{"id":"node-13108188463","lat":25.0327681,"lon":121.5437993,"name":"KURE8 - 8酵茶","decorType":"burger"},{"id":"node-13119688701","lat":25.0359344,"lon":121.544402,"name":"大未來林舍畫廊","decorType":"art_gallery"},{"id":"node-13149217922","lat":25.0328761,"lon":121.5447241,"name":"農粹","decorType":"restaurant"},{"id":"node-13149231938","lat":25.0332023,"lon":121.5427476,"name":"好想見麵 大安信義店","decorType":"restaurant"},{"id":"node-13175236401","lat":25.0262727,"lon":121.5474046,"name":"Weiyang Coffee","decorType":"cafe"},{"id":"node-13180604827","lat":25.0338575,"lon":121.5423184,"name":"你好咖啡旅館","decorType":"cafe"},{"id":"node-13183361810","lat":25.0249772,"lon":121.544593,"name":"輕燒臘","decorType":"restaurant"},{"id":"node-13344369801","lat":25.036087,"lon":121.5471635,"name":"Miznon Taipei","decorType":"restaurant"},{"id":"node-13346947014","lat":25.0335439,"lon":121.5456647,"name":"未命名服飾店","decorType":"clothing"},{"id":"node-13404055801","lat":25.0316329,"lon":121.544545,"name":"識食餐室","decorType":"restaurant"},{"id":"node-13404078401","lat":25.0283428,"lon":121.5414034,"name":"吃你豆腐","decorType":"restaurant"},{"id":"way-49695698","lat":25.0244406,"lon":121.5377388,"name":"建國快速道路","decorType":"bridge"},{"id":"way-49695699","lat":25.0244521,"lon":121.5375658,"name":"建國快速道路","decorType":"bridge"},{"id":"way-55227272","lat":25.0235165,"lon":121.5425518,"name":"和平公園","decorType":"park"},{"id":"way-55228247","lat":25.02923,"lon":121.5424886,"name":"龍陣二號公園","decorType":"park"},{"id":"way-131473137","lat":25.0386384,"lon":121.5355448,"name":"臺北仁愛路郵局","decorType":"post_office"},{"id":"way-139123645","lat":25.0355507,"lon":121.540096,"name":"圖書館","decorType":"library"},{"id":"way-205900064","lat":25.0291832,"lon":121.5383235,"name":"台北市立圖書館總館","decorType":"library"},{"id":"way-206062024","lat":25.0339247,"lon":121.5383863,"name":"臺北大安郵局","decorType":"post_office"},{"id":"way-232609548","lat":25.0266931,"lon":121.5462744,"name":"草地","decorType":"park"},{"id":"way-232610956","lat":25.0261298,"lon":121.5458425,"name":"未命名公園","decorType":"park"},{"id":"way-232617277","lat":25.0265683,"lon":121.5469632,"name":"大安教會","decorType":"shrine"},{"id":"way-232628886","lat":25.0253858,"lon":121.5465523,"name":"群賢公園","decorType":"park"},{"id":"way-232664022","lat":25.0271605,"lon":121.5463085,"name":"草地","decorType":"park"},{"id":"way-232674052","lat":25.0374747,"lon":121.5430682,"name":"福華飯店","decorType":"hotel"},{"id":"way-251587734","lat":25.0382639,"lon":121.5391078,"name":"未命名森林","decorType":"forest"},{"id":"way-251587735","lat":25.0378533,"lon":121.5390994,"name":"未命名森林","decorType":"forest"},{"id":"way-251587736","lat":25.0382302,"lon":121.5410202,"name":"未命名森林","decorType":"forest"},{"id":"way-251587737","lat":25.03782,"lon":121.5409638,"name":"未命名森林","decorType":"forest"},{"id":"way-251587764","lat":25.038325,"lon":121.535692,"name":"未命名森林","decorType":"forest"},{"id":"way-251587765","lat":25.0379219,"lon":121.5356871,"name":"未命名森林","decorType":"forest"},{"id":"way-252990945","lat":25.0364607,"lon":121.5395692,"name":"中庭花園","decorType":"park"},{"id":"way-264726963","lat":25.0345451,"lon":121.5427418,"name":"安祥公園","decorType":"park"},{"id":"way-270790285","lat":25.0348779,"lon":121.5404213,"name":"新北池","decorType":"waterside"},{"id":"way-284359015","lat":25.0306376,"lon":121.5453307,"name":"四維公園","decorType":"park"},{"id":"way-303274379","lat":25.0260332,"lon":121.5414419,"name":"龍生公園","decorType":"park"},{"id":"way-303275607","lat":25.0276504,"lon":121.5401271,"name":"新龍公園","decorType":"park"},{"id":"way-303420866","lat":25.0276185,"lon":121.5425469,"name":"龍陣一號公園","decorType":"park"},{"id":"way-303666711","lat":25.0253077,"lon":121.5402071,"name":"未命名橋樑","decorType":"bridge"},{"id":"way-303845484","lat":25.0304671,"lon":121.5416524,"name":"龍圖公園","decorType":"park"},{"id":"way-303852587","lat":25.0348611,"lon":121.5477763,"name":"德安公園","decorType":"park"},{"id":"way-304566637","lat":25.0345419,"lon":121.5445075,"name":"和安公園","decorType":"park"},{"id":"way-304566638","lat":25.03582,"lon":121.5448725,"name":"東豐公園","decorType":"park"},{"id":"way-313229276","lat":25.0245669,"lon":121.5443851,"name":"北師美術館","decorType":"art_gallery"},{"id":"way-324901025","lat":25.0234583,"lon":121.5463349,"name":"學生活動中心","decorType":"university"},{"id":"way-324901026","lat":25.0240982,"lon":121.5460599,"name":"至善樓","decorType":"university"},{"id":"way-324901027","lat":25.0240208,"lon":121.5455377,"name":"科學館","decorType":"university"},{"id":"way-324901028","lat":25.0237745,"lon":121.5454494,"name":"視聽教育館","decorType":"university"},{"id":"way-324901029","lat":25.0240902,"lon":121.5449603,"name":"行政大樓","decorType":"university"},{"id":"way-324901030","lat":25.0238698,"lon":121.5449486,"name":"圖書館","decorType":"library"},{"id":"way-324901031","lat":25.0242503,"lon":121.5443682,"name":"篤行樓","decorType":"university"},{"id":"way-324901092","lat":25.0244345,"lon":121.545104,"name":"未命名森林","decorType":"forest"},{"id":"way-330714676","lat":25.026053,"lon":121.5412812,"name":"未命名公園","decorType":"park"},{"id":"way-346730239","lat":25.024296,"lon":121.5366935,"name":"龍門公園","decorType":"park"},{"id":"way-347411627","lat":25.03665,"lon":121.5370391,"name":"福容大飯店台北","decorType":"hotel"},{"id":"way-360333407","lat":25.0355072,"lon":121.5356599,"name":"民榮公園","decorType":"park"},{"id":"way-368291559","lat":25.0285687,"lon":121.5420429,"name":"未命名神社","decorType":"shrine"},{"id":"way-370552951","lat":25.0262014,"lon":121.5393678,"name":"瑞安公園","decorType":"park"},{"id":"way-375707903","lat":25.0260159,"lon":121.5381364,"name":"大夏館","decorType":"university"},{"id":"way-375707905","lat":25.026016,"lon":121.5381371,"name":"中國文化大學推廣教育部建國本部","decorType":"university"},{"id":"way-390780633","lat":25.0310201,"lon":121.5384551,"name":"台北好好看","decorType":"park"},{"id":"way-390780640","lat":25.0248633,"lon":121.5354819,"name":"王雲五紀念館","decorType":"art_gallery"},{"id":"way-403554086","lat":25.0366247,"lon":121.546259,"name":"仁愛公園","decorType":"park"},{"id":"way-403554087","lat":25.0341043,"lon":121.5457522,"name":"仁慈公園","decorType":"park"},{"id":"way-403554088","lat":25.0289957,"lon":121.5448207,"name":"安東公園","decorType":"park"},{"id":"way-403554089","lat":25.0364005,"lon":121.5422964,"name":"附中公園","decorType":"park"},{"id":"way-426157527","lat":25.0244098,"lon":121.5430855,"name":"聖約翰坐堂","decorType":"shrine"},{"id":"way-451934172","lat":25.0337491,"lon":121.5369663,"name":"多郎明哥旅館","decorType":"hotel"},{"id":"way-462169039","lat":25.025451,"lon":121.540283,"name":"未命名橋樑","decorType":"bridge"},{"id":"way-466909919","lat":25.0373964,"lon":121.5403795,"name":"亞典藝術書店","decorType":"library"},{"id":"way-543896288","lat":25.0345478,"lon":121.5431215,"name":"台北市客家文化會館","decorType":"art_gallery"},{"id":"way-549570624","lat":25.0289293,"lon":121.5392093,"name":"未命名公園","decorType":"park"},{"id":"way-549603485","lat":25.0373362,"lon":121.53709,"name":"仁愛天主堂","decorType":"shrine"},{"id":"way-551458785","lat":25.0278723,"lon":121.5376389,"name":"未命名橋樑","decorType":"bridge"},{"id":"way-553819583","lat":25.0258635,"lon":121.5441762,"name":"聖母聖心堂","decorType":"shrine"},{"id":"way-556941705","lat":25.033132,"lon":121.535329,"name":"未命名水邊","decorType":"waterside"},{"id":"way-587073871","lat":25.0356876,"lon":121.5439358,"name":"台北豪城大飯店復興店","decorType":"hotel"},{"id":"way-617827983","lat":25.0277707,"lon":121.5458465,"name":"兒童遊樂場","decorType":"park"},{"id":"way-618387943","lat":25.0262028,"lon":121.5459175,"name":"兒童遊樂場","decorType":"park"},{"id":"way-618387944","lat":25.0270701,"lon":121.5447673,"name":"兒童遊樂場","decorType":"park"},{"id":"way-618387945","lat":25.0269657,"lon":121.545976,"name":"行人天橋","decorType":"bridge"},{"id":"way-618387946","lat":25.0270113,"lon":121.5456427,"name":"行人天橋","decorType":"bridge"},{"id":"way-657035012","lat":25.0314602,"lon":121.5438841,"name":"台北馥敦飯店","decorType":"hotel"},{"id":"way-666411227","lat":25.0243842,"lon":121.5415017,"name":"大安聖母宮","decorType":"shrine"},{"id":"way-668037878","lat":25.032806,"lon":121.5377611,"name":"建國快速道路","decorType":"bridge"},{"id":"way-669261628","lat":25.0328732,"lon":121.5436462,"name":"捷運大安站","decorType":"station"},{"id":"way-669261830","lat":25.0327273,"lon":121.5438272,"name":"富濠飯店","decorType":"hotel"},{"id":"way-669262592","lat":25.0261519,"lon":121.543513,"name":"捷運科技大樓站","decorType":"station"},{"id":"way-703251970","lat":25.0256894,"lon":121.5429818,"name":"未命名公園","decorType":"park"},{"id":"way-764187879","lat":25.0313322,"lon":121.537716,"name":"建國快速道路","decorType":"bridge"},{"id":"way-764242700","lat":25.0361572,"lon":121.5461787,"name":"Swiio Hotel Daan","decorType":"hotel"},{"id":"way-771782797","lat":25.0318941,"lon":121.5424395,"name":"噴水池","decorType":"waterside"},{"id":"way-790260395","lat":25.0261542,"lon":121.5434136,"name":"未命名公車站","decorType":"bus_stop"},{"id":"way-790260396","lat":25.0261526,"lon":121.5435262,"name":"未命名公車站","decorType":"bus_stop"},{"id":"way-819389186","lat":25.0361231,"lon":121.5418141,"name":"chez nous Hotel","decorType":"hotel"},{"id":"way-831109822","lat":25.0362262,"lon":121.5434259,"name":"台北市農會蔬果舖子","decorType":"supermarket"},{"id":"way-838841980","lat":25.0346502,"lon":121.5410131,"name":"未命名公園","decorType":"park"},{"id":"way-838841981","lat":25.0346866,"lon":121.5403559,"name":"未命名公園","decorType":"park"},{"id":"way-838841982","lat":25.0341897,"lon":121.5409729,"name":"未命名公園","decorType":"park"},{"id":"way-838841983","lat":25.0342043,"lon":121.5403654,"name":"未命名公園","decorType":"park"},{"id":"way-856343420","lat":25.0364327,"lon":121.5403915,"name":"未命名公園","decorType":"park"},{"id":"way-877544943","lat":25.032846,"lon":121.5436483,"name":"未命名公車站","decorType":"bus_stop"},{"id":"way-877544944","lat":25.0328478,"lon":121.5435452,"name":"未命名公車站","decorType":"bus_stop"},{"id":"way-1030598379","lat":25.0373238,"lon":121.5425326,"name":"未命名水邊","decorType":"waterside"},{"id":"way-1053790150","lat":25.0357456,"lon":121.5397656,"name":"附中運動中心","decorType":"stadium"},{"id":"way-1054526756","lat":25.033377,"lon":121.5430786,"name":"未命名公車站","decorType":"bus_stop"},{"id":"way-1061707649","lat":25.0379953,"lon":121.5475597,"name":"未命名公車站","decorType":"bus_stop"},{"id":"way-1095045189","lat":25.0250792,"lon":121.536707,"name":"未命名公園","decorType":"park"},{"id":"way-1133615646","lat":25.0331415,"lon":121.5354651,"name":"未命名橋樑","decorType":"bridge"},{"id":"way-1133615647","lat":25.033146,"lon":121.5351936,"name":"未命名橋樑","decorType":"bridge"},{"id":"way-1227275217","lat":25.0275027,"lon":121.5355176,"name":"未命名森林","decorType":"forest"},{"id":"way-1227275218","lat":25.0263756,"lon":121.5368185,"name":"未命名森林","decorType":"forest"},{"id":"way-1227275219","lat":25.027603,"lon":121.536335,"name":"未命名森林","decorType":"forest"},{"id":"way-1227275221","lat":25.0270433,"lon":121.5366123,"name":"未命名森林","decorType":"forest"},{"id":"way-1227275222","lat":25.0270326,"lon":121.5359168,"name":"未命名森林","decorType":"forest"},{"id":"way-1227275223","lat":25.0263166,"lon":121.5356849,"name":"未命名森林","decorType":"forest"},{"id":"way-1227276303","lat":25.0294089,"lon":121.535228,"name":"未命名公園","decorType":"park"},{"id":"way-1227276306","lat":25.0287973,"lon":121.5358639,"name":"未命名森林","decorType":"forest"},{"id":"way-1227276307","lat":25.0289885,"lon":121.5356829,"name":"未命名森林","decorType":"forest"},{"id":"way-1227276308","lat":25.0289648,"lon":121.5355119,"name":"未命名森林","decorType":"forest"},{"id":"way-1227276312","lat":25.0271179,"lon":121.535281,"name":"未命名森林","decorType":"forest"},{"id":"way-1227276313","lat":25.0280976,"lon":121.535814,"name":"未命名森林","decorType":"forest"},{"id":"way-1227276314","lat":25.0284906,"lon":121.535285,"name":"未命名森林","decorType":"forest"},{"id":"way-1227277121","lat":25.0268571,"lon":121.5370797,"name":"未命名森林","decorType":"forest"},{"id":"way-1227277122","lat":25.0268098,"lon":121.5372472,"name":"未命名森林","decorType":"forest"},{"id":"way-1227277124","lat":25.0262,"lon":121.5357845,"name":"未命名森林","decorType":"forest"},{"id":"way-1227277125","lat":25.0260621,"lon":121.5367638,"name":"未命名森林","decorType":"forest"},{"id":"way-1227277126","lat":25.0262061,"lon":121.5367338,"name":"未命名森林","decorType":"forest"},{"id":"way-1227277127","lat":25.0261767,"lon":121.536043,"name":"未命名森林","decorType":"forest"},{"id":"way-1227277128","lat":25.0262973,"lon":121.5360097,"name":"未命名森林","decorType":"forest"},{"id":"way-1227277129","lat":25.0263581,"lon":121.5360169,"name":"未命名森林","decorType":"forest"},{"id":"way-1227277130","lat":25.0263961,"lon":121.5360899,"name":"未命名森林","decorType":"forest"},{"id":"way-1227277131","lat":25.0262841,"lon":121.5361878,"name":"未命名森林","decorType":"forest"},{"id":"way-1227277922","lat":25.0283208,"lon":121.537076,"name":"未命名森林","decorType":"forest"},{"id":"way-1227277925","lat":25.0278888,"lon":121.5365308,"name":"未命名森林","decorType":"forest"},{"id":"way-1227282075","lat":25.0296815,"lon":121.5353604,"name":"未命名森林","decorType":"forest"},{"id":"way-1227282687","lat":25.0283824,"lon":121.5369412,"name":"未命名森林","decorType":"forest"},{"id":"way-1227282688","lat":25.0283712,"lon":121.5367224,"name":"未命名森林","decorType":"forest"},{"id":"way-1227282690","lat":25.0283481,"lon":121.536225,"name":"未命名森林","decorType":"forest"},{"id":"way-1227282691","lat":25.0287346,"lon":121.5364869,"name":"未命名森林","decorType":"forest"},{"id":"way-1227282692","lat":25.0301877,"lon":121.5356063,"name":"未命名公園","decorType":"park"},{"id":"way-1227282693","lat":25.0296618,"lon":121.5356896,"name":"未命名森林","decorType":"forest"},{"id":"way-1227283576","lat":25.0303032,"lon":121.5365703,"name":"未命名森林","decorType":"forest"},{"id":"way-1227283577","lat":25.0306549,"lon":121.537066,"name":"未命名森林","decorType":"forest"},{"id":"way-1227283579","lat":25.0294278,"lon":121.537096,"name":"未命名森林","decorType":"forest"},{"id":"way-1227283582","lat":25.0295063,"lon":121.5364419,"name":"未命名森林","decorType":"forest"},{"id":"way-1227283583","lat":25.0290226,"lon":121.5360321,"name":"未命名森林","decorType":"forest"},{"id":"way-1227283736","lat":25.0293216,"lon":121.5367093,"name":"未命名森林","decorType":"forest"},{"id":"way-1227283737","lat":25.029222,"lon":121.5368977,"name":"未命名森林","decorType":"forest"},{"id":"way-1227283738","lat":25.0287982,"lon":121.5370005,"name":"未命名森林","decorType":"forest"},{"id":"way-1227283739","lat":25.028954,"lon":121.5369275,"name":"未命名森林","decorType":"forest"},{"id":"way-1227283740","lat":25.0287388,"lon":121.5368251,"name":"未命名森林","decorType":"forest"},{"id":"way-1227283741","lat":25.029097,"lon":121.5365231,"name":"未命名森林","decorType":"forest"},{"id":"way-1227284839","lat":25.0311344,"lon":121.5367986,"name":"未命名森林","decorType":"forest"},{"id":"way-1227284840","lat":25.030824,"lon":121.5363387,"name":"未命名森林","decorType":"forest"},{"id":"way-1227284841","lat":25.0299387,"lon":121.5361744,"name":"未命名森林","decorType":"forest"},{"id":"way-1227284842","lat":25.0310073,"lon":121.5366549,"name":"未命名水邊","decorType":"waterside"},{"id":"way-1227284843","lat":25.0303676,"lon":121.535762,"name":"未命名森林","decorType":"forest"},{"id":"way-1227285583","lat":25.0318059,"lon":121.5371564,"name":"未命名森林","decorType":"forest"},{"id":"way-1227285584","lat":25.0307035,"lon":121.5372103,"name":"未命名森林","decorType":"forest"},{"id":"way-1227285585","lat":25.029415,"lon":121.5372874,"name":"未命名森林","decorType":"forest"},{"id":"way-1227285586","lat":25.0282689,"lon":121.5372738,"name":"未命名森林","decorType":"forest"},{"id":"way-1227285587","lat":25.0306358,"lon":121.5369417,"name":"未命名森林","decorType":"forest"},{"id":"way-1227287023","lat":25.0323251,"lon":121.5363254,"name":"未命名公園","decorType":"park"},{"id":"way-1227287027","lat":25.0326126,"lon":121.5364235,"name":"未命名森林","decorType":"forest"},{"id":"way-1227287028","lat":25.0324236,"lon":121.53663,"name":"未命名森林","decorType":"forest"},{"id":"way-1227287033","lat":25.0307811,"lon":121.5355289,"name":"未命名森林","decorType":"forest"},{"id":"way-1227287035","lat":25.030409,"lon":121.535422,"name":"未命名森林","decorType":"forest"},{"id":"way-1227287036","lat":25.0304179,"lon":121.5353899,"name":"未命名森林","decorType":"forest"},{"id":"way-1227287671","lat":25.031004,"lon":121.5359246,"name":"未命名森林","decorType":"forest"},{"id":"way-1227287673","lat":25.0313712,"lon":121.5361023,"name":"未命名森林","decorType":"forest"},{"id":"way-1227517106","lat":25.0310433,"lon":121.5353002,"name":"未命名水邊","decorType":"waterside"},{"id":"way-1227518209","lat":25.0325316,"lon":121.5357066,"name":"未命名森林","decorType":"forest"},{"id":"way-1227518215","lat":25.0321468,"lon":121.5355806,"name":"未命名森林","decorType":"forest"},{"id":"way-1227518217","lat":25.0318593,"lon":121.5351909,"name":"未命名森林","decorType":"forest"},{"id":"way-1227518218","lat":25.0315849,"lon":121.5353001,"name":"未命名森林","decorType":"forest"},{"id":"way-1227518222","lat":25.0309383,"lon":121.5352027,"name":"未命名公園","decorType":"park"},{"id":"way-1227518223","lat":25.0309574,"lon":121.5352356,"name":"未命名公園","decorType":"park"},{"id":"way-1227519421","lat":25.0321875,"lon":121.5370366,"name":"未命名公園","decorType":"park"},{"id":"way-1227519422","lat":25.0326643,"lon":121.5372372,"name":"未命名森林","decorType":"forest"},{"id":"way-1227519426","lat":25.0326856,"lon":121.5362267,"name":"未命名森林","decorType":"forest"},{"id":"way-1227519427","lat":25.0323111,"lon":121.5360595,"name":"未命名公園","decorType":"park"},{"id":"way-1227519428","lat":25.0316586,"lon":121.5355987,"name":"未命名公園","decorType":"park"},{"id":"way-1227519429","lat":25.0316218,"lon":121.5356033,"name":"未命名公園","decorType":"park"},{"id":"way-1227519430","lat":25.0315483,"lon":121.5355915,"name":"未命名森林","decorType":"forest"},{"id":"way-1227519431","lat":25.0324727,"lon":121.5352554,"name":"未命名森林","decorType":"forest"},{"id":"way-1227519432","lat":25.0320126,"lon":121.5352799,"name":"未命名森林","decorType":"forest"},{"id":"way-1227520609","lat":25.0329465,"lon":121.5355373,"name":"未命名公園","decorType":"park"},{"id":"way-1227520611","lat":25.0328797,"lon":121.5352089,"name":"未命名公園","decorType":"park"},{"id":"way-1227520614","lat":25.0328102,"lon":121.5353364,"name":"未命名水邊","decorType":"waterside"},{"id":"way-1227520616","lat":25.0329329,"lon":121.5353285,"name":"未命名水邊","decorType":"waterside"},{"id":"way-1227520622","lat":25.0326657,"lon":121.5367036,"name":"未命名森林","decorType":"forest"},{"id":"way-1227521619","lat":25.0329684,"lon":121.5352668,"name":"未命名公園","decorType":"park"},{"id":"way-1227521620","lat":25.0329731,"lon":121.5352897,"name":"未命名公園","decorType":"park"},{"id":"way-1227521621","lat":25.0329728,"lon":121.535496,"name":"未命名公園","decorType":"park"},{"id":"way-1227521622","lat":25.0328909,"lon":121.5352427,"name":"未命名公園","decorType":"park"},{"id":"way-1227521623","lat":25.0329237,"lon":121.5352185,"name":"未命名公園","decorType":"park"},{"id":"way-1227521624","lat":25.0329591,"lon":121.5351919,"name":"未命名公園","decorType":"park"},{"id":"way-1227521629","lat":25.0326836,"lon":121.5352615,"name":"未命名公園","decorType":"park"},{"id":"way-1227521630","lat":25.0326995,"lon":121.5355012,"name":"未命名森林","decorType":"forest"},{"id":"way-1227521632","lat":25.0326891,"lon":121.5352271,"name":"未命名公園","decorType":"park"},{"id":"way-1227523049","lat":25.032992,"lon":121.5358157,"name":"未命名公園","decorType":"park"},{"id":"way-1227523761","lat":25.0332918,"lon":121.5355783,"name":"未命名公園","decorType":"park"},{"id":"way-1227523763","lat":25.0333193,"lon":121.5353358,"name":"未命名公園","decorType":"park"},{"id":"way-1227523764","lat":25.0331228,"lon":121.5353316,"name":"未命名公園","decorType":"park"},{"id":"way-1227523765","lat":25.0331477,"lon":121.5353262,"name":"未命名公園","decorType":"park"},{"id":"way-1227523770","lat":25.0332844,"lon":121.5364952,"name":"未命名公園","decorType":"park"},{"id":"way-1227523772","lat":25.0331093,"lon":121.5359649,"name":"未命名森林","decorType":"forest"},{"id":"way-1227525686","lat":25.0290951,"lon":121.5355906,"name":"未命名橋樑","decorType":"bridge"},{"id":"way-1227525692","lat":25.032879,"lon":121.5356759,"name":"未命名公園","decorType":"park"},{"id":"way-1227729615","lat":25.0333062,"lon":121.5362047,"name":"未命名橋樑","decorType":"bridge"},{"id":"way-1227733215","lat":25.0296626,"lon":121.535226,"name":"大安森林公園","decorType":"park"},{"id":"way-1227733899","lat":25.0311576,"lon":121.5355482,"name":"未命名公園","decorType":"park"},{"id":"way-1227733900","lat":25.0311063,"lon":121.5354437,"name":"未命名公園","decorType":"park"},{"id":"way-1227733901","lat":25.0310888,"lon":121.5356193,"name":"未命名公園","decorType":"park"},{"id":"way-1227733902","lat":25.0311408,"lon":121.5354456,"name":"未命名公園","decorType":"park"},{"id":"way-1227733903","lat":25.0310344,"lon":121.5357111,"name":"未命名公園","decorType":"park"},{"id":"way-1227733904","lat":25.030983,"lon":121.5356101,"name":"未命名公園","decorType":"park"},{"id":"way-1227733905","lat":25.0310102,"lon":121.5357918,"name":"未命名公園","decorType":"park"},{"id":"way-1227733906","lat":25.031039,"lon":121.5357506,"name":"未命名公園","decorType":"park"},{"id":"way-1227733907","lat":25.0311266,"lon":121.5357317,"name":"未命名公園","decorType":"park"},{"id":"way-1227733908","lat":25.0309594,"lon":121.5353352,"name":"未命名公園","decorType":"park"},{"id":"way-1227733909","lat":25.0309604,"lon":121.535609,"name":"未命名公園","decorType":"park"},{"id":"way-1227734548","lat":25.0311715,"lon":121.5353319,"name":"未命名橋樑","decorType":"bridge"},{"id":"way-1227734549","lat":25.0313215,"lon":121.5354976,"name":"未命名公園","decorType":"park"},{"id":"way-1227734550","lat":25.0313269,"lon":121.5355569,"name":"未命名公園","decorType":"park"},{"id":"way-1227734551","lat":25.0311666,"lon":121.535489,"name":"未命名公園","decorType":"park"},{"id":"way-1227734552","lat":25.0311664,"lon":121.5354932,"name":"未命名公園","decorType":"park"},{"id":"way-1227734553","lat":25.0311681,"lon":121.5355575,"name":"未命名公園","decorType":"park"},{"id":"way-1227950103","lat":25.0332727,"lon":121.5353357,"name":"未命名公園","decorType":"park"},{"id":"way-1227950111","lat":25.0332537,"lon":121.5356314,"name":"未命名公園","decorType":"park"},{"id":"way-1227950113","lat":25.0332795,"lon":121.5356361,"name":"未命名橋樑","decorType":"bridge"},{"id":"way-1227950120","lat":25.0301012,"lon":121.5356017,"name":"未命名橋樑","decorType":"bridge"},{"id":"way-1227950121","lat":25.0315165,"lon":121.5366978,"name":"未命名森林","decorType":"forest"},{"id":"way-1227950124","lat":25.0282598,"lon":121.5364884,"name":"未命名公園","decorType":"park"},{"id":"way-1287930282","lat":25.037039,"lon":121.5372024,"name":"未命名公園","decorType":"park"},{"id":"way-1458697058","lat":25.0380013,"lon":121.5375414,"name":"未命名橋樑","decorType":"bridge"}]}