{"bbox":{"south":25.023125,"north":25.038731249999998,"west":121.47003124999999,"east":121.48306249999999},"pois":[{"id":"way-770953636","lat":25.0244609,"lon":121.4823237,"name":"華翠大橋","decorType":"bridge"},{"id":"node-1397157182","lat":25.0265211,"lon":121.472648,"name":"7-Eleven","decorType":"convenience"},{"id":"node-1397157195","lat":25.024094,"lon":121.4710989,"name":"85度C","decorType":"cafe"},{"id":"node-1412407358","lat":25.027683,"lon":121.4703767,"name":"麥當勞","decorType":"burger"},{"id":"node-1413143360","lat":25.0277486,"lon":121.4728936,"name":"海生樓活海產","decorType":"restaurant"},{"id":"node-2473958336","lat":25.0275558,"lon":121.4788917,"name":"7-Eleven","decorType":"convenience"},{"id":"node-2473958338","lat":25.0274049,"lon":121.478998,"name":"全家便利商店","decorType":"convenience"},{"id":"node-2473958340","lat":25.0274913,"lon":121.4787346,"name":"源旗炭烤","decorType":"restaurant"},{"id":"node-2473958344","lat":25.0277221,"lon":121.4786078,"name":"晨光豆漿","decorType":"restaurant"},{"id":"node-2473958368","lat":25.0287837,"lon":121.4806311,"name":"富貴新村","decorType":"bus_stop"},{"id":"node-2473958370","lat":25.0281304,"lon":121.4785608,"name":"老皮麵線羹","decorType":"restaurant"},{"id":"node-2473958393","lat":25.0320337,"lon":121.476158,"name":"未命名餐廳","decorType":"restaurant"},{"id":"node-2473958395","lat":25.0325013,"lon":121.4752572,"name":"江翠國小","decorType":"bus_stop"},{"id":"node-2473958397","lat":25.0287976,"lon":121.4804712,"name":"未命名餐廳","decorType":"restaurant"},{"id":"node-2473958398","lat":25.0288637,"lon":121.480501,"name":"未命名五金行","decorType":"hardware"},{"id":"node-2473958421","lat":25.0289918,"lon":121.480673,"name":"全家便利商店","decorType":"convenience"},{"id":"node-2558221482","lat":25.03071,"lon":121.4721036,"name":"笑咪咪三明治","decorType":"restaurant"},{"id":"node-2615789340","lat":25.0310465,"lon":121.4735061,"name":"捷運江子翠站5號出口","decorType":"station"},{"id":"node-2615807716","lat":25.0273086,"lon":121.4705754,"name":"新北市議會","decorType":"bus_stop"},{"id":"node-2615814286","lat":25.0311135,"lon":121.4731152,"name":"捷運江子翠站6號出口","decorType":"station"},{"id":"node-2622985320","lat":25.025905,"lon":121.4723786,"name":"文化局","decorType":"bus_stop"},{"id":"node-2622985321","lat":25.0262045,"lon":121.4724501,"name":"文化局","decorType":"bus_stop"},{"id":"node-2638374591","lat":25.0267575,"lon":121.4766268,"name":"85度C","decorType":"cafe"},{"id":"node-2638377053","lat":25.0287601,"lon":121.4735959,"name":"星巴克","decorType":"cafe"},{"id":"node-2638382213","lat":25.0295135,"lon":121.4723041,"name":"捷運江子翠站3號出口","decorType":"station"},{"id":"node-2651662741","lat":25.0299909,"lon":121.4709357,"name":"農村福德宮","decorType":"shrine"},{"id":"node-2886968702","lat":25.0304735,"lon":121.4762753,"name":"台灣魯肉飯","decorType":"restaurant"},{"id":"node-2903618201","lat":25.0285587,"lon":121.4708519,"name":"7-Eleven","decorType":"convenience"},{"id":"node-3205651518","lat":25.0260631,"lon":121.4722189,"name":"新北市立圖書館板橋江子翠分館","decorType":"library"},{"id":"node-3236802383","lat":25.0332003,"lon":121.4749587,"name":"萊爾富","decorType":"convenience"},{"id":"node-3237703128","lat":25.0314564,"lon":121.4739729,"name":"萊爾富","decorType":"convenience"},{"id":"node-3315216380","lat":25.0304539,"lon":121.4725478,"name":"捷運江子翠站","decorType":"bus_stop"},{"id":"node-3315216381","lat":25.0312546,"lon":121.4738314,"name":"捷運江子翠站","decorType":"bus_stop"},{"id":"node-3315216383","lat":25.0281079,"lon":121.4707554,"name":"江翠國中","decorType":"bus_stop"},{"id":"node-3315216384","lat":25.0290537,"lon":121.4717315,"name":"江翠國中","decorType":"bus_stop"},{"id":"node-3315216385","lat":25.0317556,"lon":121.4736967,"name":"江翠國小 (文化路)","decorType":"bus_stop"},{"id":"node-3315216415","lat":25.0338229,"lon":121.4760622,"name":"華江橋","decorType":"bus_stop"},{"id":"node-3315216416","lat":25.0339017,"lon":121.4756869,"name":"華江橋","decorType":"bus_stop"},{"id":"node-3336564686","lat":25.0240918,"lon":121.4782956,"name":"永安公園","decorType":"bus_stop"},{"id":"node-3336564687","lat":25.0244424,"lon":121.4775163,"name":"永安公園","decorType":"bus_stop"},{"id":"node-3336564690","lat":25.0232084,"lon":121.4779985,"name":"海山天下社區","decorType":"bus_stop"},{"id":"node-3336566003","lat":25.0234322,"lon":121.4777272,"name":"雙十路口","decorType":"bus_stop"},{"id":"node-3336566004","lat":25.024309,"lon":121.4795018,"name":"雙十路口","decorType":"bus_stop"},{"id":"node-3336566010","lat":25.0232969,"lon":121.4781476,"name":"7-Eleven","decorType":"convenience"},{"id":"node-3338710817","lat":25.0233699,"lon":121.4750401,"name":"八德公園","decorType":"bus_stop"},{"id":"node-3338710818","lat":25.0236203,"lon":121.4749905,"name":"八德公園","decorType":"bus_stop"},{"id":"node-3338710820","lat":25.023562,"lon":121.4735999,"name":"勞工大學","decorType":"bus_stop"},{"id":"node-3338710824","lat":25.0251921,"lon":121.4779375,"name":"雙十路口","decorType":"bus_stop"},{"id":"node-3338710825","lat":25.0254442,"lon":121.4777109,"name":"雙十路口","decorType":"bus_stop"},{"id":"node-3343597133","lat":25.0290745,"lon":121.472997,"name":"全聯福利中心","decorType":"supermarket"},{"id":"node-3343597134","lat":25.0302778,"lon":121.471911,"name":"捷運江子翠站1號出口","decorType":"station"},{"id":"node-3343597135","lat":25.0297928,"lon":121.4719266,"name":"捷運江子翠站2號出口","decorType":"station"},{"id":"node-3343597136","lat":25.0297457,"lon":121.4726701,"name":"捷運江子翠站4號出口","decorType":"station"},{"id":"node-3343597140","lat":25.0260288,"lon":121.4768917,"name":"大同街口","decorType":"bus_stop"},{"id":"node-3343597141","lat":25.0267883,"lon":121.476225,"name":"大同街口","decorType":"bus_stop"},{"id":"node-3343597142","lat":25.0298914,"lon":121.4726004,"name":"定食8","decorType":"restaurant"},{"id":"node-3343597146","lat":25.0295904,"lon":121.4730285,"name":"京賀家壽喜燒·鍋物","decorType":"restaurant"},{"id":"node-3343597310","lat":25.029702,"lon":121.472859,"name":"阿官火鍋專家","decorType":"restaurant"},{"id":"node-3343597311","lat":25.0291408,"lon":121.473265,"name":"雙十路","decorType":"bus_stop"},{"id":"node-3343597312","lat":25.0292301,"lon":121.4734193,"name":"雙十路","decorType":"bus_stop"},{"id":"node-3343597313","lat":25.02956,"lon":121.4730654,"name":"鬼椒一番鍋","decorType":"restaurant"},{"id":"node-3443026803","lat":25.031439,"lon":121.4751943,"name":"板橋江翠郵局","decorType":"post_office"},{"id":"node-3457792194","lat":25.0283994,"lon":121.4701912,"name":"翻桌吧！","decorType":"restaurant"},{"id":"node-3457792206","lat":25.0299394,"lon":121.4719454,"name":"洋朵義式餐廳","decorType":"restaurant"},{"id":"node-3472559544","lat":25.0274784,"lon":121.4703252,"name":"富康精采旅店","decorType":"hotel"},{"id":"node-3639530950","lat":25.0304238,"lon":121.4727783,"name":"江子翠","decorType":"station"},{"id":"node-3682801677","lat":25.0297674,"lon":121.4718456,"name":"怡客咖啡","decorType":"cafe"},{"id":"node-3682855094","lat":25.0263417,"lon":121.4701446,"name":"海釣族","decorType":"restaurant"},{"id":"node-3754667662","lat":25.0306511,"lon":121.4708259,"name":"未命名神社","decorType":"shrine"},{"id":"node-3826166967","lat":25.0339219,"lon":121.4730842,"name":"江子翠","decorType":"bus_stop"},{"id":"node-3826166968","lat":25.0339279,"lon":121.4734066,"name":"江子翠","decorType":"bus_stop"},{"id":"node-3826166973","lat":25.0343852,"lon":121.4746788,"name":"華江橋","decorType":"bus_stop"},{"id":"node-3826166974","lat":25.0343856,"lon":121.4750537,"name":"華江橋","decorType":"bus_stop"},{"id":"node-3826166976","lat":25.032967,"lon":121.4701707,"name":"錦輝電纜","decorType":"bus_stop"},{"id":"node-4100749292","lat":25.029616,"lon":121.4729881,"name":"肯德基","decorType":"burger"},{"id":"node-4147270451","lat":25.0276195,"lon":121.4827649,"name":"五福新村","decorType":"bus_stop"},{"id":"node-4147270452","lat":25.0309023,"lon":121.4788858,"name":"全家便利商店","decorType":"convenience"},{"id":"node-4147270453","lat":25.0305089,"lon":121.4772929,"name":"全聯福利中心","decorType":"supermarket"},{"id":"node-4147270454","lat":25.0299824,"lon":121.4794772,"name":"冷凍廠 (懷德)","decorType":"bus_stop"},{"id":"node-4147270455","lat":25.028026,"lon":121.4784356,"name":"冷凍廠 (文聖)","decorType":"bus_stop"},{"id":"node-4147270456","lat":25.0313452,"lon":121.4785465,"name":"懷德街 (懷德)","decorType":"bus_stop"},{"id":"node-4147270457","lat":25.0301161,"lon":121.477301,"name":"懷德街 (文聖)","decorType":"bus_stop"},{"id":"node-4147270458","lat":25.0324676,"lon":121.4768028,"name":"江子翠","decorType":"bus_stop"},{"id":"node-4147270459","lat":25.0320703,"lon":121.4756655,"name":"江翠國小","decorType":"bus_stop"},{"id":"node-4147270460","lat":25.0270928,"lon":121.4821728,"name":"港仔嘴福德宮","decorType":"shrine"},{"id":"node-4147271609","lat":25.0263199,"lon":121.4806011,"name":"音樂公園","decorType":"bus_stop"},{"id":"node-4147271610","lat":25.0289734,"lon":121.4805459,"name":"7-Eleven","decorType":"convenience"},{"id":"node-4147271611","lat":25.0307118,"lon":121.4768893,"name":"7-Eleven","decorType":"convenience"},{"id":"node-4147271612","lat":25.0311441,"lon":121.4785693,"name":"7-Eleven","decorType":"convenience"},{"id":"node-4147271613","lat":25.0326835,"lon":121.477299,"name":"7-Eleven","decorType":"convenience"},{"id":"node-4385066801","lat":25.0318073,"lon":121.4825877,"name":"江翠礫間水岸公園","decorType":"theme_park"},{"id":"node-4433185721","lat":25.0317372,"lon":121.4711112,"name":"全聯福利中心","decorType":"supermarket"},{"id":"node-4433241060","lat":25.0303244,"lon":121.4718679,"name":"築間幸福鍋物","decorType":"restaurant"},{"id":"node-4583119789","lat":25.0328237,"lon":121.4746165,"name":"潮粥府沙鍋粥","decorType":"restaurant"},{"id":"node-4874402922","lat":25.0269097,"lon":121.4703046,"name":"全家便利商店","decorType":"convenience"},{"id":"node-5116680333","lat":25.0305985,"lon":121.4766058,"name":"土庫阿木當歸鴨","decorType":"restaurant"},{"id":"node-5137490353","lat":25.0294087,"lon":121.473733,"name":"老五鍋貼牛肉麵","decorType":"restaurant"},{"id":"node-5137490356","lat":25.0309477,"lon":121.4769147,"name":"好煮義 文聖店","decorType":"restaurant"},{"id":"node-5274670563","lat":25.0321045,"lon":121.4717317,"name":"萊爾富","decorType":"convenience"},{"id":"node-5513030394","lat":25.0282874,"lon":121.474339,"name":"來碗辣","decorType":"restaurant"},{"id":"node-5513116116","lat":25.0295051,"lon":121.473863,"name":"全國健康素食","decorType":"restaurant"},{"id":"node-5513116117","lat":25.0283369,"lon":121.4742555,"name":"男髮誌","decorType":"hair_salon"},{"id":"node-6406146588","lat":25.0232323,"lon":121.4749174,"name":"羽兒咖啡館","decorType":"cafe"},{"id":"node-6460228887","lat":25.0328133,"lon":121.479603,"name":"太和豆漿","decorType":"cafe"},{"id":"node-6539580569","lat":25.0314579,"lon":121.4741461,"name":"85度C","decorType":"cafe"},{"id":"node-6693701081","lat":25.0271639,"lon":121.4763476,"name":"大潤發便利店","decorType":"convenience"},{"id":"node-6694180170","lat":25.0304033,"lon":121.4729696,"name":"東野日本料理店","decorType":"restaurant"},{"id":"node-6694180171","lat":25.0299156,"lon":121.4725826,"name":"爭鮮壽司","decorType":"restaurant"},{"id":"node-6694180172","lat":25.0325663,"lon":121.4753105,"name":"江翠小館","decorType":"restaurant"},{"id":"node-6694180173","lat":25.0289241,"lon":121.4732207,"name":"豐華小館","decorType":"restaurant"},{"id":"node-6694180174","lat":25.0279982,"lon":121.4715718,"name":"灶腳古早味私房菜","decorType":"restaurant"},{"id":"node-6695580311","lat":25.0309179,"lon":121.4723231,"name":"Yuly brunch&coffee","decorType":"cafe"},{"id":"node-6695580312","lat":25.0304531,"lon":121.4719369,"name":"孫東寶平價牛排","decorType":"restaurant"},{"id":"node-6917308799","lat":25.0239289,"lon":121.4740354,"name":"未命名咖啡廳","decorType":"cafe"},{"id":"node-7902835002","lat":25.0233065,"lon":121.4817703,"name":"全家便利商店","decorType":"convenience"},{"id":"node-7902835004","lat":25.0235297,"lon":121.4818343,"name":"7-Eleven","decorType":"convenience"},{"id":"node-7981635277","lat":25.0309592,"lon":121.4729429,"name":"路易莎咖啡","decorType":"cafe"},{"id":"node-7981635278","lat":25.0313375,"lon":121.4738816,"name":"cama café","decorType":"cafe"},{"id":"node-7981635279","lat":25.0323428,"lon":121.4766432,"name":"東方美早餐店","decorType":"restaurant"},{"id":"node-8012977279","lat":25.0346096,"lon":121.4768172,"name":"山尚碳燒羊肉爐","decorType":"restaurant"},{"id":"node-8030198324","lat":25.0313673,"lon":121.4731799,"name":"蘋果工廠","decorType":"electronics"},{"id":"node-8118272814","lat":25.0296851,"lon":121.4742422,"name":"全家便利商店","decorType":"convenience"},{"id":"node-8118272815","lat":25.0290624,"lon":121.4724778,"name":"全家便利商店","decorType":"convenience"},{"id":"node-8118272816","lat":25.0290693,"lon":121.4712601,"name":"全家便利商店","decorType":"convenience"},{"id":"node-8118272840","lat":25.0315989,"lon":121.4752658,"name":"全家便利商店","decorType":"convenience"},{"id":"node-8118272841","lat":25.0291346,"lon":121.4808494,"name":"全家便利商店","decorType":"convenience"},{"id":"node-8118272842","lat":25.0316711,"lon":121.4793966,"name":"全家便利商店","decorType":"convenience"},{"id":"node-8118272845","lat":25.0239884,"lon":121.4729118,"name":"全家便利商店","decorType":"convenience"},{"id":"node-8118272846","lat":25.0244258,"lon":121.4703154,"name":"全家便利商店","decorType":"convenience"},{"id":"node-8118279931","lat":25.0257795,"lon":121.4753097,"name":"7-Eleven","decorType":"convenience"},{"id":"node-8118279932","lat":25.0291408,"lon":121.4737714,"name":"7-Eleven","decorType":"convenience"},{"id":"node-8118279943","lat":25.0237521,"lon":121.4701373,"name":"7-Eleven","decorType":"convenience"},{"id":"node-8118279944","lat":25.0242746,"lon":121.471336,"name":"7-Eleven","decorType":"convenience"},{"id":"node-8385313431","lat":25.0315877,"lon":121.4748586,"name":"八方雲集","decorType":"burger"},{"id":"node-8385313442","lat":25.0318437,"lon":121.4791256,"name":"八方雲集","decorType":"burger"},{"id":"node-8385313507","lat":25.0235817,"lon":121.4709216,"name":"八方雲集","decorType":"burger"},{"id":"node-8385313585","lat":25.0234667,"lon":121.4813086,"name":"八方雲集","decorType":"burger"},{"id":"node-8385313622","lat":25.027099,"lon":121.472801,"name":"八方雲集","decorType":"burger"},{"id":"node-8385313728","lat":25.0267007,"lon":121.4769446,"name":"八方雲集","decorType":"burger"},{"id":"node-8766621279","lat":25.0297483,"lon":121.4717739,"name":"家樂福超市","decorType":"supermarket"},{"id":"node-8767269710","lat":25.0286656,"lon":121.473746,"name":"摩斯漢堡","decorType":"burger"},{"id":"node-8767296284","lat":25.0289986,"lon":121.4732538,"name":"屈臣氏","decorType":"pharmacy"},{"id":"node-8767352218","lat":25.0292191,"lon":121.4735777,"name":"康是美","decorType":"pharmacy"},{"id":"node-8767352219","lat":25.0292428,"lon":121.4735341,"name":"溫歌勒烘培工房","decorType":"bakery"},{"id":"node-8767352220","lat":25.0292623,"lon":121.4735046,"name":"Honor","decorType":"clothing"},{"id":"node-8767352221","lat":25.0292981,"lon":121.4734523,"name":"阿瘦皮鞋","decorType":"clothing"},{"id":"node-8767352222","lat":25.0293297,"lon":121.473408,"name":"霸子牛排西餐廳","decorType":"restaurant"},{"id":"node-8767352225","lat":25.0294202,"lon":121.4732759,"name":"聖德科斯生機食品","decorType":"supermarket"},{"id":"node-8767352227","lat":25.0294822,"lon":121.4731827,"name":"貝詩沙龍","decorType":"hair_salon"},{"id":"node-8767354202","lat":25.0292313,"lon":121.4738412,"name":"有間廚房","decorType":"restaurant"},{"id":"node-8767382379","lat":25.0287009,"lon":121.4743415,"name":"傳奇髮型","decorType":"hair_salon"},{"id":"node-8767382388","lat":25.0288661,"lon":121.4740591,"name":"鬍鬚張魯肉飯","decorType":"restaurant"},{"id":"node-8767382393","lat":25.0289068,"lon":121.4739941,"name":"錢都涮涮鍋","decorType":"restaurant"},{"id":"node-8767382402","lat":25.0289901,"lon":121.4738975,"name":"錢都日式涮涮鍋","decorType":"restaurant"},{"id":"node-8767589426","lat":25.0281686,"lon":121.4744313,"name":"新銳咖啡","decorType":"cafe"},{"id":"node-8767594758","lat":25.0285672,"lon":121.4745466,"name":"D&D Salon","decorType":"hair_salon"},{"id":"node-8769284404","lat":25.0263112,"lon":121.4768265,"name":"四海豆漿","decorType":"restaurant"},{"id":"node-8769298630","lat":25.0264358,"lon":121.4768118,"name":"全家便利商店","decorType":"convenience"},{"id":"node-8769298631","lat":25.027205,"lon":121.4777143,"name":"萊爾富","decorType":"convenience"},{"id":"node-8769298641","lat":25.0268058,"lon":121.4767635,"name":"甘泉魚麵","decorType":"restaurant"},{"id":"node-8769298661","lat":25.0263738,"lon":121.4763913,"name":"Samsung","decorType":"electronics"},{"id":"node-8769298674","lat":25.0264655,"lon":121.4763384,"name":"傑昇通信","decorType":"electronics"},{"id":"node-8769298675","lat":25.026505,"lon":121.4763196,"name":"台灣大哥大","decorType":"electronics"},{"id":"node-8769298676","lat":25.0265384,"lon":121.4763035,"name":"洪爺麻辣鴛鴦鍋","decorType":"restaurant"},{"id":"node-8769298696","lat":25.0273733,"lon":121.4761593,"name":"貳五八串燒","decorType":"restaurant"},{"id":"node-8769298712","lat":25.0274486,"lon":121.4760856,"name":"達美樂","decorType":"restaurant"},{"id":"node-8769298715","lat":25.0275683,"lon":121.4759434,"name":"參堂","decorType":"restaurant"},{"id":"node-8769298716","lat":25.0276072,"lon":121.4758985,"name":"約瑟芬","decorType":"cosmetics"},{"id":"node-8769298740","lat":25.0276479,"lon":121.4758475,"name":"麗媽香香鍋","decorType":"restaurant"},{"id":"node-8769298748","lat":25.0283886,"lon":121.474774,"name":"A.Salon","decorType":"hair_salon"},{"id":"node-8769298749","lat":25.0283618,"lon":121.4748336,"name":"日式威廉","decorType":"hair_salon"},{"id":"node-8769298750","lat":25.0283314,"lon":121.4748678,"name":"婕淨洗衣名店","decorType":"laundry"},{"id":"node-8769298753","lat":25.0282555,"lon":121.4749771,"name":"weme","decorType":"clothing"},{"id":"node-8769298754","lat":25.0282136,"lon":121.4750335,"name":"關山便當","decorType":"restaurant"},{"id":"node-8769298755","lat":25.0281874,"lon":121.4750784,"name":"湯尼老爸燒肉店","decorType":"restaurant"},{"id":"node-8769298757","lat":25.0280018,"lon":121.4753332,"name":"未命名郵局","decorType":"post_office"},{"id":"node-8769298758","lat":25.0281352,"lon":121.4751669,"name":"麗嬰房","decorType":"clothing"},{"id":"node-8769298772","lat":25.0277634,"lon":121.4757047,"name":"全國電子","decorType":"electronics"},{"id":"node-8769350497","lat":25.0249155,"lon":121.4775809,"name":"黑白泓活海鮮","decorType":"restaurant"},{"id":"node-8769364941","lat":25.0256678,"lon":121.4771667,"name":"福隆鄉野便當","decorType":"restaurant"},{"id":"node-8769364942","lat":25.0257449,"lon":121.4771323,"name":"一夫鍋","decorType":"restaurant"},{"id":"node-8769364946","lat":25.0258865,"lon":121.4770612,"name":"泰王泰式料理","decorType":"restaurant"},{"id":"node-8769364947","lat":25.0259254,"lon":121.4770377,"name":"杏泰藥師健保藥局","decorType":"pharmacy"},{"id":"node-8772841093","lat":25.0247393,"lon":121.4804207,"name":"港口通靈宮","decorType":"shrine"},{"id":"node-8772843120","lat":25.0240394,"lon":121.4800693,"name":"昱利空調","decorType":"electronics"},{"id":"node-8772843156","lat":25.0236116,"lon":121.4802785,"name":"宅一起早午餐","decorType":"restaurant"},{"id":"node-8772843157","lat":25.0234719,"lon":121.4802504,"name":"美的堡速食早餐","decorType":"restaurant"},{"id":"node-8772843164","lat":25.0232713,"lon":121.4802349,"name":"優美乾洗名店","decorType":"laundry"},{"id":"node-8772843171","lat":25.0232386,"lon":121.4799955,"name":"大福藥局超商","decorType":"pharmacy"},{"id":"node-8772843177","lat":25.0232787,"lon":121.4797957,"name":"3號鐵板燒","decorType":"restaurant"},{"id":"node-8772843182","lat":25.0232057,"lon":121.4793921,"name":"俊哥海鮮熱炒","decorType":"restaurant"},{"id":"node-8775634078","lat":25.0250893,"lon":121.4779034,"name":"舍人宮","decorType":"shrine"},{"id":"node-8775634107","lat":25.0250553,"lon":121.4789066,"name":"合聖宮","decorType":"shrine"},{"id":"node-9067441779","lat":25.0235253,"lon":121.4709511,"name":"Q Burger","decorType":"restaurant"},{"id":"node-9067441780","lat":25.0237775,"lon":121.4709197,"name":"孫東寶","decorType":"restaurant"},{"id":"node-9332225004","lat":25.0249298,"lon":121.4700709,"name":"謄屋日本料理","decorType":"restaurant"},{"id":"node-9345816155","lat":25.03197,"lon":121.479315,"name":"蝦皮店到店","decorType":"convenience"},{"id":"node-9345816164","lat":25.0270845,"lon":121.4792469,"name":"蝦皮店到店","decorType":"convenience"},{"id":"node-9354948567","lat":25.0307013,"lon":121.4726986,"name":"隱居_いざかや-江翠店","decorType":"restaurant"},{"id":"node-9630668953","lat":25.0242825,"lon":121.4728444,"name":"蝦皮店到店","decorType":"convenience"},{"id":"node-9688150890","lat":25.0271266,"lon":121.4792144,"name":"茂群乾洗","decorType":"laundry"},{"id":"node-9688150891","lat":25.027174,"lon":121.4791781,"name":"華威冷氣行","decorType":"electronics"},{"id":"node-9688150903","lat":25.0272803,"lon":121.4782628,"name":"Super Hair","decorType":"hair_salon"},{"id":"node-9688184757","lat":25.027054,"lon":121.4777838,"name":"新進發大藥局","decorType":"pharmacy"},{"id":"node-9688184763","lat":25.0267772,"lon":121.4771108,"name":"168平價小吃店","decorType":"restaurant"},{"id":"node-9688184764","lat":25.0268094,"lon":121.4771866,"name":"大同口海鮮店","decorType":"restaurant"},{"id":"node-9688184766","lat":25.0269024,"lon":121.4770679,"name":"寶元蔘藥行","decorType":"pharmacy"},{"id":"node-9688184767","lat":25.0261259,"lon":121.4772503,"name":"麵屋山茶","decorType":"restaurant"},{"id":"node-9688184784","lat":25.0266995,"lon":121.4771269,"name":"修蛋機咧","decorType":"electronics"},{"id":"node-9688184785","lat":25.0267274,"lon":121.4771135,"name":"美式早餐屋","decorType":"restaurant"},{"id":"node-9688184812","lat":25.0270853,"lon":121.4768212,"name":"設髮","decorType":"hair_salon"},{"id":"node-9688211833","lat":25.0272378,"lon":121.47778,"name":"老獅開飯","decorType":"restaurant"},{"id":"node-9688211834","lat":25.0271661,"lon":121.4776386,"name":"經典興姿美容機構","decorType":"cosmetics"},{"id":"node-9691112867","lat":25.0256058,"lon":121.4775614,"name":"西園理髮廳","decorType":"hair_salon"},{"id":"node-9691112868","lat":25.0260639,"lon":121.4776593,"name":"板橋天后宮","decorType":"shrine"},{"id":"node-9691369903","lat":25.0265889,"lon":121.4782441,"name":"崑龍宮","decorType":"shrine"},{"id":"node-9691379527","lat":25.027027,"lon":121.478179,"name":"明新理髮","decorType":"hair_salon"},{"id":"node-9691379552","lat":25.0279128,"lon":121.4784808,"name":"Q Burger","decorType":"restaurant"},{"id":"node-9691379553","lat":25.0278387,"lon":121.4785129,"name":"榮恩堂","decorType":"shrine"},{"id":"node-9691379580","lat":25.0276497,"lon":121.4775581,"name":"美廉社","decorType":"supermarket"},{"id":"node-9691379581","lat":25.0276844,"lon":121.4775272,"name":"龍宏宮","decorType":"shrine"},{"id":"node-9691386061","lat":25.0278928,"lon":121.4790414,"name":"拉亞漢堡","decorType":"burger"},{"id":"node-9691386072","lat":25.0271029,"lon":121.4779463,"name":"百秝洗衣連鎖","decorType":"laundry"},{"id":"node-9691386073","lat":25.0275416,"lon":121.4778082,"name":"蒂曼妮SPA會館","decorType":"cosmetics"},{"id":"node-9694236170","lat":25.0274656,"lon":121.4786511,"name":"甜不辣肉圓","decorType":"restaurant"},{"id":"node-9694236171","lat":25.0274556,"lon":121.4786233,"name":"魷夠讚鹽酥雞","decorType":"restaurant"},{"id":"node-9694236173","lat":25.0281668,"lon":121.4783091,"name":"未命名自主洗衣店&乾洗店","decorType":"laundry"},{"id":"node-9694236175","lat":25.0280179,"lon":121.478405,"name":"全民小站","decorType":"cafe"},{"id":"node-9697092449","lat":25.0331896,"lon":121.4794257,"name":"7-Eleven","decorType":"convenience"},{"id":"node-9697092450","lat":25.0334705,"lon":121.4794767,"name":"萊爾富","decorType":"convenience"},{"id":"node-9717449603","lat":25.0267718,"lon":121.4792632,"name":"麥味登","decorType":"restaurant"},{"id":"node-9725096946","lat":25.0301845,"lon":121.4772878,"name":"可不可熟成紅茶","decorType":"cafe"},{"id":"node-9725096950","lat":25.0328166,"lon":121.4752091,"name":"瑪莎拉印度餐廳","decorType":"restaurant"},{"id":"node-9725096955","lat":25.032689,"lon":121.4751327,"name":"7-Eleven","decorType":"convenience"},{"id":"node-9726086011","lat":25.0247594,"lon":121.477664,"name":"雙園街羊肉炒麵","decorType":"restaurant"},{"id":"node-9726086012","lat":25.0247114,"lon":121.4776982,"name":"Mr.Lee Hair Salon","decorType":"hair_salon"},{"id":"node-9726443925","lat":25.0232923,"lon":121.4812173,"name":"蝦皮店到店","decorType":"convenience"},{"id":"node-9742799920","lat":25.0336491,"lon":121.4779826,"name":"蝦皮店到店","decorType":"convenience"},{"id":"node-9744939046","lat":25.0304495,"lon":121.4771256,"name":"老牌周高雄燒肉飯","decorType":"restaurant"},{"id":"node-9744939047","lat":25.0304908,"lon":121.4771068,"name":"開源社","decorType":"restaurant"},{"id":"node-9744939048","lat":25.0305272,"lon":121.47708,"name":"豆莊豆漿店","decorType":"restaurant"},{"id":"node-9744939057","lat":25.0306536,"lon":121.4767782,"name":"大樹藥局","decorType":"pharmacy"},{"id":"node-9744939066","lat":25.030362,"lon":121.4771484,"name":"福藝精緻自助餐","decorType":"restaurant"},{"id":"node-9744939079","lat":25.0300667,"lon":121.4764684,"name":"滿義義式料理工坊","decorType":"restaurant"},{"id":"node-9744939081","lat":25.0301554,"lon":121.4764242,"name":"蒔漁廚房","decorType":"restaurant"},{"id":"node-9744950723","lat":25.0308268,"lon":121.4776111,"name":"長虹3C配件","decorType":"electronics"},{"id":"node-9744950730","lat":25.0311044,"lon":121.478177,"name":"厚野雞排","decorType":"restaurant"},{"id":"node-9744950731","lat":25.0310765,"lon":121.4781153,"name":"福星素食","decorType":"restaurant"},{"id":"node-9744950732","lat":25.0311518,"lon":121.4782695,"name":"蔡家牛排","decorType":"restaurant"},{"id":"node-9744950734","lat":25.0311008,"lon":121.4785016,"name":"喜芝梅名品","decorType":"clothing"},{"id":"node-9744950735","lat":25.0310291,"lon":121.47835,"name":"全家便利商店","decorType":"convenience"},{"id":"node-9744950736","lat":25.0310789,"lon":121.4784157,"name":"CoCo都可","decorType":"cafe"},{"id":"node-9744950753","lat":25.0308991,"lon":121.4780939,"name":"康是美","decorType":"pharmacy"},{"id":"node-9744950754","lat":25.030938,"lon":121.4781582,"name":"屈臣氏","decorType":"pharmacy"},{"id":"node-9744950755","lat":25.0309647,"lon":121.4782146,"name":"Comebuy","decorType":"cafe"},{"id":"node-9744950757","lat":25.0308128,"lon":121.4779128,"name":"珍煮丹","decorType":"cafe"},{"id":"node-9744950758","lat":25.0307921,"lon":121.4778431,"name":"六扇門時尚湯鍋","decorType":"restaurant"},{"id":"node-9744950767","lat":25.0309671,"lon":121.4778873,"name":"展弘五金","decorType":"hardware"},{"id":"node-9744950781","lat":25.0309355,"lon":121.477827,"name":"清心福全","decorType":"cafe"},{"id":"node-9744950783","lat":25.0308517,"lon":121.477666,"name":"真豪越泰美食","decorType":"restaurant"},{"id":"node-9744950790","lat":25.0307077,"lon":121.4773341,"name":"阿澎手感烘培","decorType":"bakery"},{"id":"node-9744950792","lat":25.0306512,"lon":121.4772034,"name":"源珍潤餅捲","decorType":"restaurant"},{"id":"node-9744950793","lat":25.0308493,"lon":121.4767688,"name":"七盞茶","decorType":"cafe"},{"id":"node-9744950806","lat":25.0307691,"lon":121.4774783,"name":"盛泰圖書文具","decorType":"library"},{"id":"node-9744950811","lat":25.0307132,"lon":121.4776848,"name":"CQ2快剪","decorType":"hair_salon"},{"id":"node-9938497533","lat":25.0240455,"lon":121.4803161,"name":"萊爾富","decorType":"convenience"},{"id":"node-9942107813","lat":25.0233953,"lon":121.4808592,"name":"榛飽早午餐","decorType":"restaurant"},{"id":"node-9942107814","lat":25.023258,"lon":121.481,"name":"振興好吃雞肉飯","decorType":"restaurant"},{"id":"node-9942307340","lat":25.0234129,"lon":121.4819918,"name":"三民熱炒","decorType":"restaurant"},{"id":"node-9942307350","lat":25.0235849,"lon":121.4821225,"name":"萬里香早餐店","decorType":"restaurant"},{"id":"node-9942307351","lat":25.0235636,"lon":121.4820615,"name":"旺麵線甜不辣","decorType":"restaurant"},{"id":"node-9942307352","lat":25.0235545,"lon":121.4820173,"name":"鴨福當歸鴨","decorType":"restaurant"},{"id":"node-9942307353","lat":25.0235442,"lon":121.4819596,"name":"小廚房","decorType":"restaurant"},{"id":"node-9942307357","lat":25.023532,"lon":121.4819019,"name":"金蘭洲麵館","decorType":"restaurant"},{"id":"node-9942307358","lat":25.0233795,"lon":121.4819435,"name":"世豐便當","decorType":"restaurant"},{"id":"node-9942307368","lat":25.0233479,"lon":121.4816827,"name":"茶嗎啡","decorType":"cafe"},{"id":"node-9942307369","lat":25.0234937,"lon":121.4816451,"name":"香港龍城燒臘","decorType":"restaurant"},{"id":"node-9942307378","lat":25.0234828,"lon":121.4814962,"name":"聖航宮","decorType":"shrine"},{"id":"node-9944061172","lat":25.0235503,"lon":121.482954,"name":"小貓咪","decorType":"restaurant"},{"id":"node-9969480510","lat":25.0240309,"lon":121.4746821,"name":"孚聖宮","decorType":"shrine"},{"id":"node-9969488527","lat":25.0231383,"lon":121.4740672,"name":"大峰藥師藥局","decorType":"pharmacy"},{"id":"node-9972779589","lat":25.0328749,"lon":121.4746606,"name":"拉亞漢堡","decorType":"burger"},{"id":"node-9972835973","lat":25.0269656,"lon":121.4764611,"name":"欣華洗衣店","decorType":"laundry"},{"id":"node-9972835974","lat":25.0270306,"lon":121.4764262,"name":"泰晶晶泰式料理","decorType":"restaurant"},{"id":"node-9975466723","lat":25.0290533,"lon":121.473172,"name":"德多屋","decorType":"bakery"},{"id":"node-9975466724","lat":25.0301487,"lon":121.4721695,"name":"金磚鴨莊","decorType":"restaurant"},{"id":"node-9989777336","lat":25.0322433,"lon":121.4827535,"name":"華江碼頭","decorType":"station"},{"id":"node-10074098709","lat":25.0250036,"lon":121.4768951,"name":"八德公園的土地公廟","decorType":"shrine"},{"id":"node-10074161962","lat":25.0232827,"lon":121.4781061,"name":"蕭老先生早午餐（台式飯糰）","decorType":"restaurant"},{"id":"node-10720454615","lat":25.0306454,"lon":121.4772255,"name":"真大大雞排","decorType":"restaurant"},{"id":"node-10740509374","lat":25.0309951,"lon":121.4768828,"name":"摩登 Hair Salon","decorType":"hair_salon"},{"id":"node-10740509375","lat":25.0306226,"lon":121.4766911,"name":"轉角早餐","decorType":"restaurant"},{"id":"node-10740509387","lat":25.0307192,"lon":121.4764872,"name":"樂錢嘟日式涮涮鍋","decorType":"restaurant"},{"id":"node-11001027782","lat":25.0340802,"lon":121.4786991,"name":"萊爾富","decorType":"convenience"},{"id":"node-11064512705","lat":25.0276458,"lon":121.4776536,"name":"美廉社 板橋大同店","decorType":"convenience"},{"id":"node-11140323105","lat":25.029755,"lon":121.4796811,"name":"美廉社","decorType":"supermarket"},{"id":"node-11346255675","lat":25.0282671,"lon":121.4707149,"name":"吉哆火鍋百匯","decorType":"restaurant"},{"id":"node-11473053964","lat":25.0304823,"lon":121.4717437,"name":"萊爾富","decorType":"convenience"},{"id":"node-11503478663","lat":25.0283776,"lon":121.4722111,"name":"31 Hair Salon","decorType":"hair_salon"},{"id":"node-11503478666","lat":25.0276789,"lon":121.4718845,"name":"一隅有貓","decorType":"restaurant"},{"id":"node-11503480986","lat":25.0283254,"lon":121.4723197,"name":"基隆廟口炒麵炒飯燴飯","decorType":"restaurant"},{"id":"node-11503480987","lat":25.0283424,"lon":121.4723305,"name":"久癮咖啡 Join Cafe","decorType":"cafe"},{"id":"node-11503480998","lat":25.0282901,"lon":121.4722949,"name":"21 Brunch","decorType":"restaurant"},{"id":"node-11503481006","lat":25.0289269,"lon":121.4725605,"name":"MAN 男の造型館","decorType":"hair_salon"},{"id":"node-11510555460","lat":25.0290435,"lon":121.4732102,"name":"餵我早餐","decorType":"burger"},{"id":"node-11510555461","lat":25.0298504,"lon":121.4726483,"name":"我就厲害燒烤","decorType":"restaurant"},{"id":"node-11510555462","lat":25.0293045,"lon":121.4726118,"name":"彭園湘菜館","decorType":"restaurant"},{"id":"node-11510555463","lat":25.0293252,"lon":121.4726185,"name":"肉次方燒肉放題","decorType":"restaurant"},{"id":"node-11510555464","lat":25.0293406,"lon":121.4726309,"name":"聚日式鍋物","decorType":"restaurant"},{"id":"node-11510555465","lat":25.0289882,"lon":121.4723506,"name":"多多早餐店","decorType":"restaurant"},{"id":"node-11510555466","lat":25.0288983,"lon":121.4722896,"name":"cafe Notte","decorType":"cafe"},{"id":"node-11510559041","lat":25.0307703,"lon":121.4727576,"name":"二鬼麵鋪","decorType":"restaurant"},{"id":"node-11510559042","lat":25.030729,"lon":121.4727375,"name":"湊臭鴨血臭豆腐","decorType":"restaurant"},{"id":"node-11510559043","lat":25.0306567,"lon":121.4726678,"name":"chao潮肉鍋物","decorType":"restaurant"},{"id":"node-11510559045","lat":25.0305473,"lon":121.4725719,"name":"新全興木材行","decorType":"hardware"},{"id":"node-11510559046","lat":25.0305066,"lon":121.4725383,"name":"光澤愛美肌","decorType":"cosmetics"},{"id":"node-11909937669","lat":25.0317508,"lon":121.4755548,"name":"美廉社","decorType":"convenience"},{"id":"node-11910008569","lat":25.0303359,"lon":121.4756083,"name":"三顧茅廬板橋松柏店","decorType":"restaurant"},{"id":"node-11910068170","lat":25.0270183,"lon":121.4719272,"name":"老八風居酒屋","decorType":"restaurant"},{"id":"node-11910071569","lat":25.0278235,"lon":121.4724858,"name":"就是義麵屋","decorType":"restaurant"},{"id":"node-11910071570","lat":25.0277794,"lon":121.4724634,"name":"老串角居酒屋","decorType":"restaurant"},{"id":"node-11910071571","lat":25.0263404,"lon":121.4726804,"name":"全家便利商店","decorType":"convenience"},{"id":"node-11910072169","lat":25.0272745,"lon":121.4721023,"name":"大村武居酒屋","decorType":"restaurant"},{"id":"node-13327864435","lat":25.0365628,"lon":121.4763196,"name":"華江三路","decorType":"bus_stop"},{"id":"node-13327864436","lat":25.0353537,"lon":121.4747699,"name":"華江二路口","decorType":"bus_stop"},{"id":"node-13327864437","lat":25.0347693,"lon":121.472771,"name":"稚匯公園","decorType":"bus_stop"},{"id":"node-13327864438","lat":25.0340645,"lon":121.4703275,"name":"華江六路口","decorType":"bus_stop"},{"id":"node-13327864449","lat":25.0359516,"lon":121.4778055,"name":"龍一駕訓班","decorType":"bus_stop"},{"id":"node-13327864450","lat":25.0355457,"lon":121.4806835,"name":"海山拖吊場","decorType":"bus_stop"},{"id":"node-13333596151","lat":25.0346137,"lon":121.4725108,"name":"7-Eleven","decorType":"convenience"},{"id":"node-13335150230","lat":25.0354008,"lon":121.4740102,"name":"全家便利商店","decorType":"convenience"},{"id":"node-13423799029","lat":25.0314486,"lon":121.4707595,"name":"萊爾富","decorType":"convenience"},{"id":"way-111808410","lat":25.0253266,"lon":121.4784645,"name":"萬板大橋","decorType":"bridge"},{"id":"way-136988445","lat":25.0383275,"lon":121.4813448,"name":"未命名橋樑","decorType":"bridge"},{"id":"way-136988446","lat":25.038314,"lon":121.4809626,"name":"未命名橋樑","decorType":"bridge"},{"id":"way-137116230","lat":25.036923,"lon":121.4784437,"name":"未命名橋樑","decorType":"bridge"},{"id":"way-137116241","lat":25.0368517,"lon":121.4795951,"name":"未命名橋樑","decorType":"bridge"},{"id":"way-215191242","lat":25.0274761,"lon":121.4802734,"name":"音樂公園","decorType":"park"},{"id":"way-215191243","lat":25.025842,"lon":121.4784928,"name":"未命名公園","decorType":"park"},{"id":"way-215191246","lat":25.0246087,"lon":121.4759108,"name":"八德公園","decorType":"park"},{"id":"way-215191247","lat":25.0299682,"lon":121.4710778,"name":"農村公園","decorType":"park"},{"id":"way-216932145","lat":25.0384296,"lon":121.4746003,"name":"未命名水邊","decorType":"waterside"},{"id":"way-217454605","lat":25.0232503,"lon":121.4732763,"name":"埤墘公園","decorType":"park"},{"id":"way-217454606","lat":25.0232868,"lon":121.4745842,"name":"埤墘公園","decorType":"park"},{"id":"way-217454607","lat":25.0233477,"lon":121.4751485,"name":"未命名公園","decorType":"park"},{"id":"way-217454608","lat":25.0235999,"lon":121.4757245,"name":"未命名公園","decorType":"park"},{"id":"way-217454609","lat":25.0243235,"lon":121.477016,"name":"永安公園","decorType":"park"},{"id":"way-239613955","lat":25.0276992,"lon":121.4810036,"name":"未命名公園","decorType":"park"},{"id":"way-239613963","lat":25.0275012,"lon":121.4793843,"name":"未命名飯店","decorType":"hotel"},{"id":"way-251880014","lat":25.0304422,"lon":121.4826211,"name":"未命名橋樑","decorType":"bridge"},{"id":"way-251880143","lat":25.0275963,"lon":121.4829778,"name":"機車道","decorType":"bridge"},{"id":"way-259697581","lat":25.0297843,"lon":121.4707893,"name":"農村文物館","decorType":"art_gallery"},{"id":"way-263481460","lat":25.02863,"lon":121.4732657,"name":"雙十廣場","decorType":"park"},{"id":"way-263481461","lat":25.0280374,"lon":121.4728319,"name":"未命名公園","decorType":"park"},{"id":"way-263481462","lat":25.0275346,"lon":121.4724729,"name":"未命名公園","decorType":"park"},{"id":"way-263481463","lat":25.027044,"lon":121.4721173,"name":"未命名公園","decorType":"park"},{"id":"way-263786817","lat":25.0250197,"lon":121.4728468,"name":"春暉館","decorType":"stadium"},{"id":"way-263786818","lat":25.0260482,"lon":121.4735565,"name":"風雨操場","decorType":"stadium"},{"id":"way-263786825","lat":25.0247593,"lon":121.4732504,"name":"植物栽培區","decorType":"park"},{"id":"way-263786826","lat":25.0253571,"lon":121.4745928,"name":"生態教育園","decorType":"park"},{"id":"way-266521393","lat":25.0272778,"lon":121.4816317,"name":"萬板大橋","decorType":"bridge"},{"id":"way-266521395","lat":25.0277273,"lon":121.482846,"name":"機車道","decorType":"bridge"},{"id":"way-266521397","lat":25.0264949,"lon":121.48026,"name":"未命名橋樑","decorType":"bridge"},{"id":"way-266521398","lat":25.0263384,"lon":121.4802258,"name":"未命名橋樑","decorType":"bridge"},{"id":"way-285000214","lat":25.0316434,"lon":121.4742075,"name":"翠園","decorType":"park"},{"id":"way-285200759","lat":25.0245279,"lon":121.4759162,"name":"兒童遊樂區","decorType":"park"},{"id":"way-285200767","lat":25.0246353,"lon":121.4764798,"name":"未命名神社","decorType":"shrine"},{"id":"way-286704341","lat":25.0250336,"lon":121.4769032,"name":"未命名公園","decorType":"park"},{"id":"way-286704343","lat":25.0247739,"lon":121.4764417,"name":"未命名公園","decorType":"park"},{"id":"way-286704344","lat":25.0248949,"lon":121.4765967,"name":"未命名公園","decorType":"park"},{"id":"way-310849384","lat":25.0253972,"lon":121.4783761,"name":"萬板大橋","decorType":"bridge"},{"id":"way-310849385","lat":25.0272234,"lon":121.4816988,"name":"萬板大橋","decorType":"bridge"},{"id":"way-317026665","lat":25.025958,"lon":121.4719674,"name":"新北市藝文中心","decorType":"art_gallery"},{"id":"way-317123793","lat":25.0346494,"lon":121.4762642,"name":"資訊公園","decorType":"park"},{"id":"way-317123796","lat":25.0379616,"lon":121.4809855,"name":"未命名橋樑","decorType":"bridge"},{"id":"way-317471786","lat":25.0256226,"lon":121.4812855,"name":"未命名橋樑","decorType":"bridge"},{"id":"way-317471787","lat":25.0247772,"lon":121.4798615,"name":"未命名橋樑","decorType":"bridge"},{"id":"way-317594678","lat":25.0323904,"lon":121.4745064,"name":"未命名橋樑","decorType":"bridge"},{"id":"way-317594679","lat":25.0324279,"lon":121.4743298,"name":"未命名橋樑","decorType":"bridge"},{"id":"way-317594680","lat":25.0322897,"lon":121.4746288,"name":"未命名橋樑","decorType":"bridge"},{"id":"way-344200574","lat":25.0340041,"lon":121.4736629,"name":"江子翠河口景觀河濱公園","decorType":"park"},{"id":"way-371921061","lat":25.0314391,"lon":121.4710118,"name":"廣欣藥局","decorType":"pharmacy"},{"id":"way-374898452","lat":25.0355125,"lon":121.481712,"name":"華江橋牽引道","decorType":"bridge"},{"id":"way-382623065","lat":25.0355763,"lon":121.4810629,"name":"未命名橋樑","decorType":"bridge"},{"id":"way-442156945","lat":25.0351801,"lon":121.4723985,"name":"稚匯公園","decorType":"park"},{"id":"way-442156946","lat":25.0360528,"lon":121.4754797,"name":"華江123木頭公園","decorType":"park"},{"id":"way-442156949","lat":25.0370979,"lon":121.4784473,"name":"時光公園","decorType":"park"},{"id":"way-442161082","lat":25.0307927,"lon":121.4812216,"name":"懷石公園","decorType":"park"},{"id":"way-445983240","lat":25.0306501,"lon":121.4708625,"name":"未命名神社","decorType":"shrine"},{"id":"way-493157927","lat":25.0327131,"lon":121.4817441,"name":"未命名橋樑","decorType":"bridge"},{"id":"way-543500244","lat":25.0367514,"lon":121.4800858,"name":"時光公園","decorType":"park"},{"id":"way-544515397","lat":25.0356491,"lon":121.4704236,"name":"未命名水邊","decorType":"waterside"},{"id":"way-544515398","lat":25.035587,"lon":121.4702199,"name":"未命名水邊","decorType":"waterside"},{"id":"way-685138191","lat":25.0379373,"lon":121.4809714,"name":"未命名橋樑","decorType":"bridge"},{"id":"way-767906993","lat":25.0233048,"lon":121.471425,"name":"埤墘福德宮","decorType":"shrine"},{"id":"way-793334462","lat":25.0356154,"lon":121.4814029,"name":"未命名橋樑","decorType":"bridge"},{"id":"way-894507289","lat":25.0356002,"lon":121.4814269,"name":"未命名橋樑","decorType":"bridge"},{"id":"way-894507290","lat":25.0356478,"lon":121.4812922,"name":"未命名橋樑","decorType":"bridge"},{"id":"way-1011177169","lat":25.0363978,"lon":121.470413,"name":"大漢溪右岸自行車道","decorType":"bridge"},{"id":"way-1011177176","lat":25.0369723,"lon":121.4727883,"name":"未命名橋樑","decorType":"bridge"},{"id":"way-1011177177","lat":25.0369451,"lon":121.4727956,"name":"未命名橋樑","decorType":"bridge"},{"id":"way-1011177178","lat":25.0369478,"lon":121.4727372,"name":"未命名橋樑","decorType":"bridge"},{"id":"way-1011177180","lat":25.0368823,"lon":121.4791738,"name":"未命名公園","decorType":"park"},{"id":"way-1011688316","lat":25.036071,"lon":121.4809874,"name":"未命名橋樑","decorType":"bridge"},{"id":"way-1090653660","lat":25.0321919,"lon":121.4826697,"name":"未命名橋樑","decorType":"bridge"},{"id":"way-1228832752","lat":25.0300065,"lon":121.4724104,"name":"未命名公車站","decorType":"bus_stop"},{"id":"way-1282846073","lat":25.0360298,"lon":121.4806828,"name":"未命名橋樑","decorType":"bridge"},{"id":"way-1282846074","lat":25.0356351,"lon":121.4815014,"name":"未命名橋樑","decorType":"bridge"},{"id":"way-1282846075","lat":25.0360438,"lon":121.480127,"name":"未命名橋樑","decorType":"bridge"}]}