{"bbox":{"south":25.023125,"north":25.038731249999998,"west":121.57428125,"east":121.5873125},"pois":[{"id":"way-1454346013","lat":25.0233465,"lon":121.5765059,"name":"未命名森林","decorType":"forest"},{"id":"node-274937904","lat":25.0265411,"lon":121.575542,"name":"象山","decorType":"mountain"},{"id":"node-1502690945","lat":25.0262261,"lon":121.5864497,"name":"九五峰","decorType":"mountain"},{"id":"node-2137518609","lat":25.0377472,"lon":121.577941,"name":"施家麻油腰花","decorType":"restaurant"},{"id":"node-2355932377","lat":25.0357601,"lon":121.582077,"name":"應善公廟","decorType":"shrine"},{"id":"node-2355932378","lat":25.0264083,"lon":121.5806063,"name":"獅山","decorType":"mountain"},{"id":"node-2355932381","lat":25.0276092,"lon":121.5826697,"name":"福德宮","decorType":"shrine"},{"id":"node-2355932530","lat":25.0313013,"lon":121.5836136,"name":"虎山峰","decorType":"mountain"},{"id":"node-2355932679","lat":25.0292842,"lon":121.5826441,"name":"豹山","decorType":"mountain"},{"id":"node-2641343860","lat":25.0350694,"lon":121.5790195,"name":"路地基陰公佳城","decorType":"shrine"},{"id":"node-2672482476","lat":25.0333963,"lon":121.5797875,"name":"永春高中","decorType":"bus_stop"},{"id":"node-2672482479","lat":25.0313358,"lon":121.5792256,"name":"台北南天宮五府千歲","decorType":"shrine"},{"id":"node-2672482481","lat":25.036907,"lon":121.5811785,"name":"松友新村","decorType":"bus_stop"},{"id":"node-2672482484","lat":25.036784,"lon":121.5808627,"name":"未命名郵局","decorType":"post_office"},{"id":"node-2672482485","lat":25.0366871,"lon":121.5806513,"name":"南文宮","decorType":"shrine"},{"id":"node-2672489306","lat":25.0352906,"lon":121.5796243,"name":"未命名公園","decorType":"park"},{"id":"node-2672577768","lat":25.0371332,"lon":121.5817019,"name":"未命名郵局","decorType":"post_office"},{"id":"node-2672864421","lat":25.0358233,"lon":121.5785651,"name":"7-Eleven","decorType":"convenience"},{"id":"node-2673095233","lat":25.028454,"lon":121.5795536,"name":"久長山恩主洞","decorType":"shrine"},{"id":"node-2673946522","lat":25.0363736,"lon":121.5801461,"name":"福德智慧圖書館","decorType":"library"},{"id":"node-2673946535","lat":25.0352808,"lon":121.5796591,"name":"未命名公園","decorType":"park"},{"id":"node-2673946536","lat":25.0352663,"lon":121.5796806,"name":"未命名公園","decorType":"park"},{"id":"node-2673946537","lat":25.0353295,"lon":121.5795599,"name":"未命名公園","decorType":"park"},{"id":"node-2713562379","lat":25.03255,"lon":121.5744913,"name":"松德站","decorType":"bus_stop"},{"id":"node-2713562380","lat":25.0323769,"lon":121.5746789,"name":"松德站","decorType":"bus_stop"},{"id":"node-3024920770","lat":25.0387131,"lon":121.5859956,"name":"7-Eleven","decorType":"convenience"},{"id":"node-3024920771","lat":25.0377095,"lon":121.5833251,"name":"7-Eleven","decorType":"convenience"},{"id":"node-3024920772","lat":25.0376893,"lon":121.5832835,"name":"信義行政中心 (奉天宮)","decorType":"bus_stop"},{"id":"node-3024920809","lat":25.0382113,"lon":121.5843239,"name":"屈臣氏","decorType":"pharmacy"},{"id":"node-3028959476","lat":25.0378256,"lon":121.5830853,"name":"信義行政中心 (奉天宮)","decorType":"bus_stop"},{"id":"node-3145303946","lat":25.0342943,"lon":121.5756654,"name":"國稅局宿舍","decorType":"bus_stop"},{"id":"node-3145303947","lat":25.0339524,"lon":121.5749433,"name":"國稅局宿舍","decorType":"bus_stop"},{"id":"node-3145303952","lat":25.0370216,"lon":121.5809205,"name":"松友新村","decorType":"bus_stop"},{"id":"node-3145303953","lat":25.0356864,"lon":121.5772609,"name":"國業里","decorType":"bus_stop"},{"id":"node-3145303954","lat":25.0359116,"lon":121.5778191,"name":"松山商職(信義)","decorType":"bus_stop"},{"id":"node-3145303955","lat":25.0361675,"lon":121.5787087,"name":"松山商職(福德)","decorType":"bus_stop"},{"id":"node-3145303956","lat":25.0364028,"lon":121.5787825,"name":"松山商職(福德)","decorType":"bus_stop"},{"id":"node-3188323162","lat":25.0359471,"lon":121.5786301,"name":"松山商職(松山)","decorType":"bus_stop"},{"id":"node-3188323163","lat":25.0365333,"lon":121.5783663,"name":"松山商職(松山)","decorType":"bus_stop"},{"id":"node-3188323171","lat":25.0334639,"lon":121.5797281,"name":"永春高中","decorType":"bus_stop"},{"id":"node-3514374814","lat":25.0377947,"lon":121.5746495,"name":"漢堡大師","decorType":"burger"},{"id":"node-3514374815","lat":25.037927,"lon":121.5745517,"name":"萊爾富","decorType":"convenience"},{"id":"node-3514374816","lat":25.0377501,"lon":121.5744821,"name":"川味牛肉麵","decorType":"restaurant"},{"id":"node-3514374824","lat":25.036285,"lon":121.5743161,"name":"弘麗衛浴","decorType":"laundry"},{"id":"node-3633921319","lat":25.0344416,"lon":121.5755321,"name":"7-Eleven","decorType":"convenience"},{"id":"node-3633921418","lat":25.0339819,"lon":121.5748963,"name":"星巴克","decorType":"cafe"},{"id":"node-3738821430","lat":25.0373718,"lon":121.5751381,"name":"7-Eleven","decorType":"convenience"},{"id":"node-3939158510","lat":25.0372949,"lon":121.5783585,"name":"鮮豆漿","decorType":"restaurant"},{"id":"node-3997541428","lat":25.0325085,"lon":121.5746517,"name":"全家便利商店","decorType":"convenience"},{"id":"node-3997541430","lat":25.0333005,"lon":121.574691,"name":"松德永和豆漿","decorType":"restaurant"},{"id":"node-3997541443","lat":25.032805,"lon":121.5746591,"name":"7-Eleven","decorType":"convenience"},{"id":"node-4058075211","lat":25.0348974,"lon":121.5743614,"name":"信義松德路口","decorType":"bus_stop"},{"id":"node-4058075212","lat":25.0352849,"lon":121.5746994,"name":"興雅國中","decorType":"bus_stop"},{"id":"node-4058075213","lat":25.0351785,"lon":121.5770142,"name":"全家便利商店","decorType":"convenience"},{"id":"node-4058075217","lat":25.0378932,"lon":121.575619,"name":"土地銀行","decorType":"bus_stop"},{"id":"node-4058075218","lat":25.0380063,"lon":121.5754327,"name":"土地銀行","decorType":"bus_stop"},{"id":"node-4058075222","lat":25.0335303,"lon":121.5758284,"name":"未命名郵局","decorType":"post_office"},{"id":"node-4058075224","lat":25.0382447,"lon":121.5762684,"name":"未命名郵局","decorType":"post_office"},{"id":"node-4208419806","lat":25.0279798,"lon":121.578343,"name":"無極老君岩壁雕像","decorType":"shrine"},{"id":"node-4208719455","lat":25.0254297,"lon":121.5818245,"name":"18羅漢雕像","decorType":"shrine"},{"id":"node-4325693429","lat":25.035719,"lon":121.5786114,"name":"佳樂佳","decorType":"restaurant"},{"id":"node-4325693480","lat":25.0370938,"lon":121.5781814,"name":"屈臣氏","decorType":"pharmacy"},{"id":"node-4325693917","lat":25.0377315,"lon":121.5778665,"name":"松德宮","decorType":"shrine"},{"id":"node-4325693937","lat":25.0366704,"lon":121.578219,"name":"清心福全","decorType":"cafe"},{"id":"node-4325694150","lat":25.0358303,"lon":121.5786925,"name":"未命名郵局","decorType":"post_office"},{"id":"node-4325694177","lat":25.0359016,"lon":121.5787604,"name":"自助郵局","decorType":"post_office"},{"id":"node-4325694180","lat":25.0386854,"lon":121.5775453,"name":"艾美人","decorType":"hair_salon"},{"id":"node-4325694185","lat":25.0378196,"lon":121.5782638,"name":"萊爾富","decorType":"convenience"},{"id":"node-4325694195","lat":25.0379557,"lon":121.5775051,"name":"路德會松山教會","decorType":"shrine"},{"id":"node-4464905693","lat":25.0383345,"lon":121.5792012,"name":"兄弟鹽酥雞","decorType":"restaurant"},{"id":"node-4725956629","lat":25.0372175,"lon":121.581352,"name":"均合素食點心坊","decorType":"restaurant"},{"id":"node-5585727570","lat":25.025599,"lon":121.586236,"name":"南港山","decorType":"mountain"},{"id":"node-5617368752","lat":25.0373273,"lon":121.5771431,"name":"宋記美食小吃","decorType":"restaurant"},{"id":"node-5941564186","lat":25.0343044,"lon":121.5747158,"name":"Loving Hut","decorType":"restaurant"},{"id":"node-7211419021","lat":25.0386367,"lon":121.5848928,"name":"觀世音素食","decorType":"restaurant"},{"id":"node-7211419028","lat":25.0382844,"lon":121.5850678,"name":"寶樂咩海苔飯捲","decorType":"restaurant"},{"id":"node-7211419036","lat":25.0378766,"lon":121.5838538,"name":"鵝媽媽の店","decorType":"restaurant"},{"id":"node-7211419037","lat":25.0380399,"lon":121.5794839,"name":"鵝肉龍","decorType":"restaurant"},{"id":"node-7211419039","lat":25.0375505,"lon":121.5793566,"name":"雙醬麵","decorType":"restaurant"},{"id":"node-7211419047","lat":25.0369955,"lon":121.5790757,"name":"彌勒佛素食","decorType":"restaurant"},{"id":"node-7211419051","lat":25.036317,"lon":121.578051,"name":"蕭園餅麵","decorType":"restaurant"},{"id":"node-7211419052","lat":25.037298,"lon":121.5773023,"name":"蕭家老麵饅頭","decorType":"restaurant"},{"id":"node-7211419055","lat":25.0361905,"lon":121.5788074,"name":"燒肉龍","decorType":"restaurant"},{"id":"node-7211419068","lat":25.0385404,"lon":121.5852294,"name":"澳門氹仔燒臘店","decorType":"restaurant"},{"id":"node-7211419074","lat":25.0381504,"lon":121.5793578,"name":"辣極麻辣燙","decorType":"restaurant"},{"id":"node-7211419079","lat":25.0378428,"lon":121.5791819,"name":"滷味王","decorType":"restaurant"},{"id":"node-7211419080","lat":25.0360443,"lon":121.5781019,"name":"廣誠素食","decorType":"restaurant"},{"id":"node-7211419082","lat":25.0385388,"lon":121.5847051,"name":"福德街素食水煎包","decorType":"restaurant"},{"id":"node-7211419083","lat":25.0386821,"lon":121.5852175,"name":"福德手工素食包子店","decorType":"restaurant"},{"id":"node-7211425500","lat":25.0356855,"lon":121.5776423,"name":"新亞鐵板燒","decorType":"restaurant"},{"id":"node-7211425502","lat":25.0365578,"lon":121.5793099,"name":"愛弘速食連鎖","decorType":"restaurant"},{"id":"node-7211425504","lat":25.0356291,"lon":121.5787193,"name":"媽媽早餐吧","decorType":"restaurant"},{"id":"node-7211425507","lat":25.0385313,"lon":121.5850622,"name":"圓滿川湘菜海鮮","decorType":"restaurant"},{"id":"node-7211425512","lat":25.0378132,"lon":121.5793174,"name":"順第水餃","decorType":"restaurant"},{"id":"node-7211425513","lat":25.0369794,"lon":121.57942,"name":"雲林台子港","decorType":"restaurant"},{"id":"node-7211425514","lat":25.0361017,"lon":121.5787216,"name":"雅加達早餐店","decorType":"restaurant"},{"id":"node-7211425517","lat":25.0337724,"lon":121.5751771,"name":"越南東家餐廳","decorType":"restaurant"},{"id":"node-7211425518","lat":25.0339523,"lon":121.5753313,"name":"越南東家鮮物羊肉爐","decorType":"restaurant"},{"id":"node-7211425519","lat":25.0384882,"lon":121.5849815,"name":"越南小吃","decorType":"restaurant"},{"id":"node-7211425521","lat":25.037522,"lon":121.5794374,"name":"賀加食堂","decorType":"restaurant"},{"id":"node-7211425525","lat":25.0376784,"lon":121.5780275,"name":"粥師傅廣東粥","decorType":"restaurant"},{"id":"node-7211425539","lat":25.0346914,"lon":121.5763865,"name":"喝一杯","decorType":"restaurant"},{"id":"node-7211425543","lat":25.0379595,"lon":121.5848089,"name":"鹿記壽桃壽麵專賣店","decorType":"restaurant"},{"id":"node-7211425557","lat":25.0383661,"lon":121.5771028,"name":"晨間美味","decorType":"restaurant"},{"id":"node-7211425569","lat":25.0380254,"lon":121.5848755,"name":"素食美濃客家粄條","decorType":"restaurant"},{"id":"node-7211425571","lat":25.0384849,"lon":121.5846654,"name":"秦菲菲傳統豆漿店","decorType":"restaurant"},{"id":"node-7211425578","lat":25.0380395,"lon":121.5849153,"name":"徐家素食麵","decorType":"restaurant"},{"id":"node-7211425580","lat":25.0380265,"lon":121.5840788,"name":"孫家牛肉麵","decorType":"restaurant"},{"id":"node-7211425581","lat":25.0355929,"lon":121.5775022,"name":"孫東寶","decorType":"restaurant"},{"id":"node-7211425586","lat":25.0387103,"lon":121.5781449,"name":"胖老爹美式炸雞","decorType":"burger"},{"id":"node-7211425593","lat":25.0342761,"lon":121.5757855,"name":"美好時光Bistro","decorType":"restaurant"},{"id":"node-7211425597","lat":25.0380698,"lon":121.5794835,"name":"紅心甜品","decorType":"restaurant"},{"id":"node-7211425598","lat":25.0379596,"lon":121.5792006,"name":"珍香鍋貼水餃專賣店","decorType":"restaurant"},{"id":"node-7211425600","lat":25.0375478,"lon":121.578146,"name":"炸鷄大獅","decorType":"restaurant"},{"id":"node-7211425601","lat":25.0382479,"lon":121.5791945,"name":"活醉蝦海產","decorType":"restaurant"},{"id":"node-7211425604","lat":25.0343499,"lon":121.5758438,"name":"春發汕頭乾拌麵","decorType":"restaurant"},{"id":"node-7211425613","lat":25.0376209,"lon":121.5775196,"name":"品記雞肉飯","decorType":"restaurant"},{"id":"node-7211425618","lat":25.0379261,"lon":121.5791452,"name":"林媽媽鹽水雞","decorType":"restaurant"},{"id":"node-7211425619","lat":25.0372473,"lon":121.5791383,"name":"林家羊肉羹","decorType":"restaurant"},{"id":"node-7211425620","lat":25.0381979,"lon":121.5795248,"name":"林口街拉麵","decorType":"restaurant"},{"id":"node-7211425621","lat":25.0364812,"lon":121.5790437,"name":"易家鯊魚麵","decorType":"restaurant"},{"id":"node-7211425622","lat":25.0348185,"lon":121.5747157,"name":"拉亞漢堡","decorType":"burger"},{"id":"node-7211425630","lat":25.0378049,"lon":121.5761086,"name":"玫瑰木42號","decorType":"restaurant"},{"id":"node-7211425631","lat":25.0376224,"lon":121.5775979,"name":"炒翻天點心坊","decorType":"restaurant"},{"id":"node-7211425637","lat":25.0377322,"lon":121.5792382,"name":"松旺臭豆腐","decorType":"restaurant"},{"id":"node-7211425638","lat":25.038599,"lon":121.5849333,"name":"松川現滷滷味","decorType":"restaurant"},{"id":"node-7211425650","lat":25.0375885,"lon":121.5830301,"name":"呷飽味","decorType":"restaurant"},{"id":"node-7211425653","lat":25.0343213,"lon":121.5753561,"name":"呷尚寶","decorType":"burger"},{"id":"node-7211425663","lat":25.0384802,"lon":121.5784182,"name":"阿根早點","decorType":"restaurant"},{"id":"node-7211425664","lat":25.0387229,"lon":121.5788233,"name":"阿娟素食","decorType":"restaurant"},{"id":"node-7211425671","lat":25.0377402,"lon":121.5775863,"name":"阿幸鮮打果汁","decorType":"restaurant"},{"id":"node-7211425674","lat":25.036447,"lon":121.5793564,"name":"阿民控肉飯","decorType":"restaurant"},{"id":"node-7211425676","lat":25.0365185,"lon":121.5793693,"name":"阿卡拉專業炸雞連鎖","decorType":"restaurant"},{"id":"node-7211425678","lat":25.038469,"lon":121.5794277,"name":"阿三食堂","decorType":"restaurant"},{"id":"node-7211425679","lat":25.0374804,"lon":121.577716,"name":"豆花，綠豆，薏仁。","decorType":"restaurant"},{"id":"node-7211425681","lat":25.0374678,"lon":121.5792008,"name":"花田樂野台壽司","decorType":"restaurant"},{"id":"node-7211425685","lat":25.0380097,"lon":121.5780028,"name":"弍弎麻辣｜豚骨麻辣燙專門","decorType":"restaurant"},{"id":"node-7211425688","lat":25.0362001,"lon":121.5789684,"name":"何家鴨庄","decorType":"restaurant"},{"id":"node-7211425690","lat":25.0378496,"lon":121.5758977,"name":"老饕肉舖","decorType":"restaurant"},{"id":"node-7211425692","lat":25.0366619,"lon":121.5797671,"name":"老地方小豪華餐盒","decorType":"restaurant"},{"id":"node-7211425693","lat":25.0386076,"lon":121.5850649,"name":"自助餐，快餐","decorType":"restaurant"},{"id":"node-7211425694","lat":25.0381541,"lon":121.5849987,"name":"肉燥餛飩麵","decorType":"restaurant"},{"id":"node-7211425708","lat":25.0367594,"lon":121.5793471,"name":"好吃王雞肉","decorType":"restaurant"},{"id":"node-7211425716","lat":25.0377267,"lon":121.5777807,"name":"北港小吃","decorType":"restaurant"},{"id":"node-7211425718","lat":25.0363174,"lon":121.5781199,"name":"禾順豐湯包館","decorType":"restaurant"},{"id":"node-7211425719","lat":25.0381297,"lon":121.5841571,"name":"石鱻養生石頭火鍋","decorType":"restaurant"},{"id":"node-7211425720","lat":25.0379989,"lon":121.5791736,"name":"石碇公臭臭鍋","decorType":"restaurant"},{"id":"node-7211425726","lat":25.0384398,"lon":121.584822,"name":"正慈素食","decorType":"restaurant"},{"id":"node-7211425728","lat":25.0377775,"lon":121.5782899,"name":"正宗專業潤餅","decorType":"restaurant"},{"id":"node-7211425733","lat":25.0375617,"lon":121.577244,"name":"外星人小舖-啊賀現做捲餅舖","decorType":"restaurant"},{"id":"node-7211425737","lat":25.0384177,"lon":121.5782162,"name":"台灣第一棧","decorType":"restaurant"},{"id":"node-7211425738","lat":25.0383045,"lon":121.5849465,"name":"台中脆皮臭豆腐","decorType":"restaurant"},{"id":"node-7211425742","lat":25.0377694,"lon":121.5860735,"name":"包記饅頭","decorType":"restaurant"},{"id":"node-7211425750","lat":25.0386507,"lon":121.5847874,"name":"方家鹽酥雞","decorType":"restaurant"},{"id":"node-7211425754","lat":25.0361076,"lon":121.578357,"name":"巨林美而美","decorType":"burger"},{"id":"node-7211425755","lat":25.0357574,"lon":121.5773081,"name":"巨人新鐵板燒料理","decorType":"restaurant"},{"id":"node-7211425759","lat":25.036553,"lon":121.5807713,"name":"天邊的家","decorType":"restaurant"},{"id":"node-7211425760","lat":25.0380686,"lon":121.5851106,"name":"天香素食","decorType":"restaurant"},{"id":"node-7211425763","lat":25.0386896,"lon":121.5794222,"name":"香雞排鹽酥雞串烤","decorType":"restaurant"},{"id":"node-7211425767","lat":25.0363293,"lon":121.5783234,"name":"丐幫滷味","decorType":"restaurant"},{"id":"node-7211425776","lat":25.0382451,"lon":121.5782001,"name":"小竹屋日式料理","decorType":"restaurant"},{"id":"node-7211425781","lat":25.0371893,"lon":121.5793832,"name":"大溪紅油抄手","decorType":"restaurant"},{"id":"node-7211425782","lat":25.0366586,"lon":121.5776805,"name":"大喜豆漿韭菜盒子","decorType":"restaurant"},{"id":"node-7211425786","lat":25.0361685,"lon":121.5777406,"name":"大方冰品","decorType":"restaurant"},{"id":"node-7211425787","lat":25.0364144,"lon":121.5789787,"name":"上海蟹殼黃燒餅","decorType":"restaurant"},{"id":"node-7211425788","lat":25.038326,"lon":121.584532,"name":"上海鮮肉包","decorType":"restaurant"},{"id":"node-7211425797","lat":25.036057,"lon":121.577681,"name":"八方雲集","decorType":"burger"},{"id":"node-7211425802","lat":25.0367257,"lon":121.5793839,"name":"九份芋圓臭豆腐肉圓","decorType":"restaurant"},{"id":"node-7211425805","lat":25.0374494,"lon":121.577244,"name":"一樂料理","decorType":"restaurant"},{"id":"node-7211425806","lat":25.0371307,"lon":121.5794029,"name":"一品味碳烤","decorType":"restaurant"},{"id":"node-7211425809","lat":25.0381011,"lon":121.5760863,"name":"Queen's Ring 手工牛軋酥","decorType":"restaurant"},{"id":"node-7211425812","lat":25.0354454,"lon":121.5773478,"name":"PIZZA HUT必勝客","decorType":"restaurant"},{"id":"node-7211425830","lat":25.0346629,"lon":121.5758861,"name":"29號中西複合式早餐","decorType":"restaurant"},{"id":"node-7700136993","lat":25.0346065,"lon":121.5758291,"name":"味屋咖哩","decorType":"restaurant"},{"id":"node-7798228804","lat":25.0376083,"lon":121.5831312,"name":"好兆頭","decorType":"restaurant"},{"id":"node-7805829402","lat":25.0247393,"lon":121.5776011,"name":"慈鑾宮","decorType":"shrine"},{"id":"node-7836938823","lat":25.0334437,"lon":121.5746992,"name":"不貽樣湯包排骨酥","decorType":"restaurant"},{"id":"node-8074572151","lat":25.0355384,"lon":121.5774309,"name":"梁社漢排骨","decorType":"restaurant"},{"id":"node-8118273002","lat":25.0371725,"lon":121.5771443,"name":"7-Eleven","decorType":"convenience"},{"id":"node-9565748538","lat":25.0378333,"lon":121.5794146,"name":"萊爾富","decorType":"convenience"},{"id":"node-9802699422","lat":25.0377347,"lon":121.5835818,"name":"青枝綠葉蔬食餐館","decorType":"restaurant"},{"id":"node-9832879822","lat":25.0350053,"lon":121.5762301,"name":"蝦皮店到店","decorType":"convenience"},{"id":"node-12244968179","lat":25.0386071,"lon":121.5854359,"name":"伊品園烘焙坊","decorType":"bakery"},{"id":"node-12244968200","lat":25.0383291,"lon":121.5845701,"name":"古早味蔥油餅","decorType":"restaurant"},{"id":"node-12244968202","lat":25.0379124,"lon":121.5822743,"name":"廣慈分館","decorType":"library"},{"id":"node-12307149309","lat":25.0383514,"lon":121.5836388,"name":"信義行政中心（奉天宮）","decorType":"bus_stop"},{"id":"node-12308964613","lat":25.0383222,"lon":121.5835825,"name":"信義行政中心（奉天宮）","decorType":"bus_stop"},{"id":"node-12407595899","lat":25.0318038,"lon":121.5744583,"name":"未命名郵局","decorType":"post_office"},{"id":"node-12407756629","lat":25.0305673,"lon":121.5750061,"name":"松德院區 (接駁車)","decorType":"bus_stop"},{"id":"node-12430203444","lat":25.0330948,"lon":121.5827637,"name":"未命名山丘","decorType":"mountain"},{"id":"node-12430206715","lat":25.0356435,"lon":121.5821052,"name":"五分埔山","decorType":"mountain"},{"id":"node-12430206800","lat":25.0298419,"lon":121.5801231,"name":"未命名山丘","decorType":"mountain"},{"id":"node-12430207715","lat":25.0248683,"lon":121.5756059,"name":"清靜山福德宮","decorType":"shrine"},{"id":"node-13047779801","lat":25.0376067,"lon":121.5754609,"name":"烘焙者咖啡","decorType":"cafe"},{"id":"node-13413775741","lat":25.0357419,"lon":121.5765356,"name":"萊爾富","decorType":"convenience"},{"id":"way-135744364","lat":25.0315965,"lon":121.5797314,"name":"未命名橋樑","decorType":"bridge"},{"id":"way-136977237","lat":25.0366438,"lon":121.5870785,"name":"未命名水邊","decorType":"waterside"},{"id":"way-203755088","lat":25.0385293,"lon":121.5750795,"name":"中全公園","decorType":"park"},{"id":"way-218489808","lat":25.0279573,"lon":121.5792489,"name":"天寶聖道宮","decorType":"shrine"},{"id":"way-218489810","lat":25.0315697,"lon":121.5774275,"name":"永春崗公園","decorType":"park"},{"id":"way-218489814","lat":25.0322557,"lon":121.5761682,"name":"福德宮","decorType":"shrine"},{"id":"way-218489815","lat":25.0325041,"lon":121.5764547,"name":"顏子廟","decorType":"shrine"},{"id":"way-218491167","lat":25.0372413,"lon":121.5846303,"name":"松山奉天宮","decorType":"shrine"},{"id":"way-218906239","lat":25.0312273,"lon":121.5747042,"name":"虎林公園","decorType":"park"},{"id":"way-226858960","lat":25.0259924,"lon":121.5778283,"name":"北星寶宮","decorType":"shrine"},{"id":"way-226858962","lat":25.0353216,"lon":121.5818512,"name":"吉福宮","decorType":"shrine"},{"id":"way-226858963","lat":25.0266297,"lon":121.5791254,"name":"天寶聖道院","decorType":"shrine"},{"id":"way-226858965","lat":25.029047,"lon":121.5836874,"name":"瑤池宮","decorType":"shrine"},{"id":"way-249528278","lat":25.0383853,"lon":121.5838409,"name":"福德公園","decorType":"park"},{"id":"way-258816694","lat":25.0338611,"lon":121.5762838,"name":"松友公園","decorType":"park"},{"id":"way-258816697","lat":25.0307573,"lon":121.5828733,"name":"未命名水邊","decorType":"waterside"},{"id":"way-259072392","lat":25.0332164,"lon":121.5869709,"name":"南天宮","decorType":"shrine"},{"id":"way-259072398","lat":25.0319592,"lon":121.586584,"name":"壽天宮","decorType":"shrine"},{"id":"way-259072404","lat":25.0300773,"lon":121.5861733,"name":"明山寺","decorType":"shrine"},{"id":"way-259072406","lat":25.0343205,"lon":121.587275,"name":"清連園","decorType":"park"},{"id":"way-259072408","lat":25.0361709,"lon":121.585153,"name":"福壽宮","decorType":"shrine"},{"id":"way-259072411","lat":25.0342039,"lon":121.5860215,"name":"翠華宮","decorType":"shrine"},{"id":"way-259072413","lat":25.0332731,"lon":121.5865061,"name":"興南府","decorType":"shrine"},{"id":"way-261647345","lat":25.0299955,"lon":121.5775333,"name":"許氏宗祠","decorType":"shrine"},{"id":"way-261647346","lat":25.0302922,"lon":121.5780718,"name":"未命名公園","decorType":"park"},{"id":"way-261656000","lat":25.0360412,"lon":121.5852157,"name":"萬善公媽祠","decorType":"shrine"},{"id":"way-261673073","lat":25.0262554,"lon":121.5791655,"name":"修聖寺","decorType":"shrine"},{"id":"way-261673080","lat":25.0250355,"lon":121.5815213,"name":"松山靈隱寺","decorType":"shrine"},{"id":"way-261684009","lat":25.0301532,"lon":121.5814013,"name":"豹山溪步道","decorType":"bridge"},{"id":"way-261688225","lat":25.0289869,"lon":121.5816308,"name":"豹山溪步道","decorType":"bridge"},{"id":"way-261711345","lat":25.0266277,"lon":121.5813463,"name":"寒山寺","decorType":"shrine"},{"id":"way-261711348","lat":25.026479,"lon":121.581425,"name":"未命名橋樑","decorType":"bridge"},{"id":"way-261776699","lat":25.0348499,"lon":121.5796964,"name":"信義316松隆綠地","decorType":"park"},{"id":"way-319737767","lat":25.0257209,"lon":121.5832515,"name":"慈航寺","decorType":"shrine"},{"id":"way-319737769","lat":25.025922,"lon":121.5826494,"name":"慈航寺大悲殿","decorType":"shrine"},{"id":"way-319737772","lat":25.0260625,"lon":121.5829855,"name":"普陀寺","decorType":"shrine"},{"id":"way-319737774","lat":25.0253538,"lon":121.5842828,"name":"鳳山寺","decorType":"shrine"},{"id":"way-343890066","lat":25.034142,"lon":121.5783815,"name":"未命名體育館","decorType":"stadium"},{"id":"way-366972819","lat":25.0313198,"lon":121.5805718,"name":"未命名橋樑","decorType":"bridge"},{"id":"way-372089053","lat":25.0264462,"lon":121.5825502,"name":"皇母宮","decorType":"shrine"},{"id":"way-372366227","lat":25.0285913,"lon":121.5840099,"name":"楊聖宮","decorType":"shrine"},{"id":"way-396908993","lat":25.0318907,"lon":121.5775487,"name":"未命名公園","decorType":"park"},{"id":"way-397030627","lat":25.0295826,"lon":121.5744248,"name":"彩虹橋","decorType":"bridge"},{"id":"way-420981031","lat":25.0281322,"lon":121.5781325,"name":"觀音岩","decorType":"shrine"},{"id":"way-420981032","lat":25.0283095,"lon":121.578211,"name":"萬壽宮","decorType":"shrine"},{"id":"way-420981035","lat":25.0283319,"lon":121.5784851,"name":"山神洞","decorType":"shrine"},{"id":"way-420981036","lat":25.0281216,"lon":121.5786063,"name":"觀音廟","decorType":"shrine"},{"id":"way-420981037","lat":25.028005,"lon":121.578407,"name":"主母殿","decorType":"shrine"},{"id":"way-420981038","lat":25.0281726,"lon":121.5788807,"name":"天玉寺","decorType":"shrine"},{"id":"way-420981039","lat":25.0283755,"lon":121.5789217,"name":"福德宮","decorType":"shrine"},{"id":"way-420992750","lat":25.0261474,"lon":121.5784206,"name":"福德宮","decorType":"shrine"},{"id":"way-420992752","lat":25.0261592,"lon":121.5789056,"name":"未命名神社","decorType":"shrine"},{"id":"way-420992753","lat":25.0260336,"lon":121.5794303,"name":"未命名神社","decorType":"shrine"},{"id":"way-421020260","lat":25.0251212,"lon":121.5811473,"name":"觀音像","decorType":"shrine"},{"id":"way-421573193","lat":25.0266046,"lon":121.5755391,"name":"未命名公園","decorType":"park"},{"id":"way-421711850","lat":25.0251906,"lon":121.5811724,"name":"觀音與十八羅漢群像","decorType":"park"},{"id":"way-421711860","lat":25.0264406,"lon":121.5783936,"name":"未命名橋樑","decorType":"bridge"},{"id":"way-518082285","lat":25.0366278,"lon":121.5753869,"name":"安強公園","decorType":"park"},{"id":"way-532713296","lat":25.0311443,"lon":121.586864,"name":"復興園","decorType":"park"},{"id":"way-542936130","lat":25.0288746,"lon":121.5844953,"name":"九五茅蓬","decorType":"shrine"},{"id":"way-553200712","lat":25.0312687,"lon":121.5861875,"name":"慈天宮","decorType":"shrine"},{"id":"way-553208251","lat":25.0310441,"lon":121.5866719,"name":"朝玄宮","decorType":"shrine"},{"id":"way-553208252","lat":25.0310225,"lon":121.5863921,"name":"忠義宮","decorType":"shrine"},{"id":"way-699650774","lat":25.0290241,"lon":121.5805905,"name":"未命名山丘","decorType":"mountain"},{"id":"way-699650775","lat":25.0305368,"lon":121.5820764,"name":"未命名山丘","decorType":"mountain"},{"id":"way-699650778","lat":25.0310031,"lon":121.5802475,"name":"未命名橋樑","decorType":"bridge"},{"id":"way-700650794","lat":25.0281988,"lon":121.5826402,"name":"未命名水邊","decorType":"waterside"},{"id":"way-829704006","lat":25.0336108,"lon":121.5808822,"name":"獅山溪","decorType":"waterside"},{"id":"way-829704007","lat":25.0334575,"lon":121.5808037,"name":"獅山溪","decorType":"waterside"},{"id":"way-829704011","lat":25.0331992,"lon":121.5799727,"name":"未命名橋樑","decorType":"bridge"},{"id":"way-829704017","lat":25.0332344,"lon":121.5803078,"name":"未命名橋樑","decorType":"bridge"},{"id":"way-829704032","lat":25.033219,"lon":121.5800935,"name":"未命名橋樑","decorType":"bridge"},{"id":"way-829704034","lat":25.0332887,"lon":121.580142,"name":"獅山溪","decorType":"waterside"},{"id":"way-829704036","lat":25.0332963,"lon":121.5802673,"name":"未命名橋樑","decorType":"bridge"},{"id":"way-829704037","lat":25.0324595,"lon":121.579654,"name":"獅山溪","decorType":"waterside"},{"id":"way-829704038","lat":25.0326513,"lon":121.579738,"name":"獅山溪","decorType":"waterside"},{"id":"way-829704043","lat":25.0330922,"lon":121.5798753,"name":"獅山溪","decorType":"waterside"},{"id":"way-829704044","lat":25.0331083,"lon":121.5798597,"name":"獅山溪","decorType":"waterside"},{"id":"way-829704048","lat":25.0338018,"lon":121.5807905,"name":"未命名橋樑","decorType":"bridge"},{"id":"way-853823883","lat":25.0314328,"lon":121.5821809,"name":"未命名水邊","decorType":"waterside"},{"id":"way-1323275631","lat":25.0385024,"lon":121.5839044,"name":"未命名公園","decorType":"park"},{"id":"way-1341472300","lat":25.0290089,"lon":121.5747626,"name":"未命名森林","decorType":"forest"},{"id":"way-1341472302","lat":25.0289917,"lon":121.5746405,"name":"未命名水邊","decorType":"waterside"},{"id":"way-1341472303","lat":25.0289532,"lon":121.5747512,"name":"未命名水邊","decorType":"waterside"},{"id":"way-1341472307","lat":25.0290605,"lon":121.5746784,"name":"未命名森林","decorType":"forest"},{"id":"way-1341472309","lat":25.0293141,"lon":121.5749183,"name":"未命名森林","decorType":"forest"},{"id":"way-1341472311","lat":25.0296297,"lon":121.5745957,"name":"未命名森林","decorType":"forest"},{"id":"way-1341472312","lat":25.0298951,"lon":121.5755066,"name":"未命名森林","decorType":"forest"},{"id":"way-1341554072","lat":25.0314069,"lon":121.5748483,"name":"未命名公園","decorType":"park"},{"id":"way-1341564301","lat":25.0310871,"lon":121.5773677,"name":"未命名森林","decorType":"forest"},{"id":"way-1341564302","lat":25.0309011,"lon":121.576857,"name":"未命名森林","decorType":"forest"},{"id":"way-1341564322","lat":25.0312633,"lon":121.5772888,"name":"未命名公園","decorType":"park"},{"id":"way-1341564323","lat":25.0314081,"lon":121.5772485,"name":"未命名公園","decorType":"park"},{"id":"way-1341564324","lat":25.0315252,"lon":121.5773886,"name":"未命名公園","decorType":"park"},{"id":"way-1341564326","lat":25.0315621,"lon":121.5772065,"name":"未命名森林","decorType":"forest"},{"id":"way-1341564347","lat":25.0308791,"lon":121.5771778,"name":"未命名水邊","decorType":"waterside"},{"id":"way-1341564350","lat":25.0310741,"lon":121.577113,"name":"未命名森林","decorType":"forest"},{"id":"way-1343412708","lat":25.0310948,"lon":121.5792319,"name":"未命名橋樑","decorType":"bridge"},{"id":"way-1343412716","lat":25.0310453,"lon":121.5809122,"name":"未命名橋樑","decorType":"bridge"},{"id":"way-1343412718","lat":25.0312276,"lon":121.5806397,"name":"未命名橋樑","decorType":"bridge"},{"id":"way-1343412720","lat":25.0271494,"lon":121.5817481,"name":"豹山溪","decorType":"waterside"}]}