{"bbox":{"south":25.038731,"north":25.054338,"west":121.587313,"east":121.600344},"pois":[{"id":"node-870131998","lat":25.050561,"lon":121.593795,"name":"捷運昆陽站 (4號出口)","decorType":"station"},{"id":"node-870132006","lat":25.050287,"lon":121.592725,"name":"捷運昆陽站 (1號出口)","decorType":"station"},{"id":"node-1439044159","lat":25.050243,"lon":121.594041,"name":"7-Eleven","decorType":"convenience"},{"id":"node-1941587639","lat":25.049879,"lon":121.592727,"name":"南港昆陽郵局","decorType":"post_office"},{"id":"node-2126461117","lat":25.046461,"lon":121.58841,"name":"7-Eleven","decorType":"convenience"},{"id":"node-2128891122","lat":25.050181,"lon":121.593784,"name":"屈臣氏","decorType":"pharmacy"},{"id":"node-2271726576","lat":25.054039,"lon":121.591968,"name":"玉成國小","decorType":"bus_stop"},{"id":"node-2309134847","lat":25.049574,"lon":121.590947,"name":"陸軍後勤指揮部","decorType":"bus_stop"},{"id":"node-2309134853","lat":25.048872,"lon":121.587775,"name":"國華新村","decorType":"bus_stop"},{"id":"node-2309134856","lat":25.050392,"lon":121.594348,"name":"捷運昆陽站","decorType":"bus_stop"},{"id":"node-2309134858","lat":25.05021,"lon":121.593595,"name":"捷運昆陽站","decorType":"bus_stop"},{"id":"node-2309134859","lat":25.050102,"lon":121.593115,"name":"捷運昆陽站","decorType":"bus_stop"},{"id":"node-2310689460","lat":25.049801,"lon":121.590725,"name":"陸軍後勤指揮部","decorType":"bus_stop"},{"id":"node-2310689461","lat":25.050316,"lon":121.59299,"name":"捷運昆陽站","decorType":"bus_stop"},{"id":"node-2310689473","lat":25.049093,"lon":121.587799,"name":"國華新村","decorType":"bus_stop"},{"id":"node-2524273894","lat":25.054004,"lon":121.592067,"name":"7-Eleven","decorType":"convenience"},{"id":"node-2524274657","lat":25.053185,"lon":121.589793,"name":"7-Eleven","decorType":"convenience"},{"id":"node-2525034840","lat":25.053825,"lon":121.598733,"name":"東明里/臺北流行音樂中心","decorType":"bus_stop"},{"id":"node-2525070749","lat":25.05308,"lon":121.587667,"name":"南港路三段","decorType":"bus_stop"},{"id":"node-2525080133","lat":25.053217,"lon":121.5896,"name":"西新里 (新新公園)","decorType":"bus_stop"},{"id":"node-2525424708","lat":25.053594,"lon":121.590061,"name":"西新里 (新新公園)","decorType":"bus_stop"},{"id":"node-2525424715","lat":25.054291,"lon":121.596301,"name":"土地公廟","decorType":"bus_stop"},{"id":"node-2525424716","lat":25.053541,"lon":121.599106,"name":"東明里/臺北流行音樂中心","decorType":"bus_stop"},{"id":"node-2604138857","lat":25.050246,"lon":121.594171,"name":"全家便利商店","decorType":"convenience"},{"id":"node-2604138862","lat":25.050726,"lon":121.593676,"name":"好了啦超大杯","decorType":"cafe"},{"id":"node-2607298682","lat":25.050856,"lon":121.593968,"name":"7-Eleven","decorType":"convenience"},{"id":"node-2607298691","lat":25.050223,"lon":121.593966,"name":"康是美","decorType":"pharmacy"},{"id":"node-2607298692","lat":25.05021,"lon":121.593913,"name":"摩斯漢堡","decorType":"burger"},{"id":"node-2607298693","lat":25.050195,"lon":121.593844,"name":"吉野家","decorType":"burger"},{"id":"node-2607298694","lat":25.050167,"lon":121.593727,"name":"麥當勞","decorType":"burger"},{"id":"node-2607366970","lat":25.050744,"lon":121.59373,"name":"九天玄女娘娘宮","decorType":"shrine"},{"id":"node-2619659223","lat":25.041485,"lon":121.587901,"name":"7-Eleven","decorType":"convenience"},{"id":"node-2619661258","lat":25.040892,"lon":121.588518,"name":"家樂福","decorType":"supermarket"},{"id":"node-2642374345","lat":25.05416,"lon":121.592571,"name":"赤坎牛肉","decorType":"restaurant"},{"id":"node-2734052532","lat":25.050377,"lon":121.594617,"name":"FRESH新鮮烘焙坊","decorType":"bakery"},{"id":"node-2756599331","lat":25.049876,"lon":121.59431,"name":"連成素食店","decorType":"restaurant"},{"id":"node-2902339762","lat":25.0528,"lon":121.588276,"name":"未命名餐廳","decorType":"restaurant"},{"id":"node-2920801251","lat":25.053191,"lon":121.595245,"name":"南港高中","decorType":"bus_stop"},{"id":"node-2920801252","lat":25.053217,"lon":121.594905,"name":"南港高中","decorType":"bus_stop"},{"id":"node-2974441540","lat":25.051482,"lon":121.593522,"name":"宜品素食","decorType":"restaurant"},{"id":"node-3024920767","lat":25.039617,"lon":121.588644,"name":"美廉社","decorType":"supermarket"},{"id":"node-3024920805","lat":25.03947,"lon":121.587976,"name":"未命名郵局","decorType":"post_office"},{"id":"node-3024920807","lat":25.039277,"lon":121.587449,"name":"未命名藥局","decorType":"pharmacy"},{"id":"node-3024929055","lat":25.039523,"lon":121.58823,"name":"成福路口","decorType":"bus_stop"},{"id":"node-3028959463","lat":25.039158,"lon":121.587367,"name":"福德國小","decorType":"bus_stop"},{"id":"node-3028959465","lat":25.039391,"lon":121.588367,"name":"成福路口","decorType":"bus_stop"},{"id":"node-3188319823","lat":25.046433,"lon":121.590072,"name":"修德國小","decorType":"bus_stop"},{"id":"node-3188319824","lat":25.046623,"lon":121.589393,"name":"修德國小","decorType":"bus_stop"},{"id":"node-3188319837","lat":25.045844,"lon":121.592641,"name":"南港公園","decorType":"bus_stop"},{"id":"node-3188319838","lat":25.045953,"lon":121.592108,"name":"南港公園","decorType":"bus_stop"},{"id":"node-3188319839","lat":25.043834,"lon":121.59274,"name":"南港公園一","decorType":"bus_stop"},{"id":"node-3188319840","lat":25.043964,"lon":121.592913,"name":"南港公園一","decorType":"bus_stop"},{"id":"node-3188319841","lat":25.041118,"lon":121.591561,"name":"南港花園社區一","decorType":"bus_stop"},{"id":"node-3188319842","lat":25.038863,"lon":121.59251,"name":"南港花園社區三","decorType":"bus_stop"},{"id":"node-3188319843","lat":25.039571,"lon":121.591172,"name":"南港花園社區二","decorType":"bus_stop"},{"id":"node-3188319844","lat":25.039979,"lon":121.591133,"name":"南港花園社區二","decorType":"bus_stop"},{"id":"node-3188319845","lat":25.039512,"lon":121.59341,"name":"南港花園社區四","decorType":"bus_stop"},{"id":"node-3188319846","lat":25.040054,"lon":121.592649,"name":"南港花園社區五","decorType":"bus_stop"},{"id":"node-3188319856","lat":25.041113,"lon":121.588235,"name":"成福路口一","decorType":"bus_stop"},{"id":"node-3639530947","lat":25.05049,"lon":121.593316,"name":"昆陽","decorType":"station"},{"id":"node-3750119961","lat":25.049858,"lon":121.594031,"name":"昆陽牛肉麵","decorType":"restaurant"},{"id":"node-4358957391","lat":25.049077,"lon":121.58909,"name":"7-Eleven","decorType":"convenience"},{"id":"node-4359016295","lat":25.050429,"lon":121.592908,"name":"捷運昆陽站(2號出口)","decorType":"station"},{"id":"node-4359016296","lat":25.050582,"lon":121.593558,"name":"捷運昆陽站(3號出口)","decorType":"station"},{"id":"node-4359025063","lat":25.050061,"lon":121.593226,"name":"鬍鬚張魯肉飯","decorType":"restaurant"},{"id":"node-4359025064","lat":25.049722,"lon":121.591798,"name":"金春發牛肉店","decorType":"restaurant"},{"id":"node-4359025065","lat":25.049781,"lon":121.592056,"name":"三媽臭臭鍋","decorType":"restaurant"},{"id":"node-4359025066","lat":25.049314,"lon":121.5902,"name":"霸味薑母鴨","decorType":"restaurant"},{"id":"node-4359025067","lat":25.049248,"lon":121.589717,"name":"良美鵝肉專家","decorType":"restaurant"},{"id":"node-4360398427","lat":25.050116,"lon":121.593521,"name":"HANGTAN","decorType":"clothing"},{"id":"node-4360398435","lat":25.050137,"lon":121.593593,"name":"美二佳","decorType":"bakery"},{"id":"node-4368461970","lat":25.051564,"lon":121.596221,"name":"南港高中(市民大道)","decorType":"bus_stop"},{"id":"node-4368461972","lat":25.051907,"lon":121.598702,"name":"臺北流行音樂中心","decorType":"bus_stop"},{"id":"node-4368462967","lat":25.052069,"lon":121.598287,"name":"臺北流行音樂中心","decorType":"bus_stop"},{"id":"node-4374084079","lat":25.048884,"lon":121.588307,"name":"萊爾富","decorType":"convenience"},{"id":"node-4374084080","lat":25.049971,"lon":121.593478,"name":"真茶自慢","decorType":"cafe"},{"id":"node-4716438598","lat":25.050305,"lon":121.594197,"name":"50嵐","decorType":"cafe"},{"id":"node-4716462793","lat":25.051612,"lon":121.593679,"name":"大呼過癮(昆陽店)","decorType":"restaurant"},{"id":"node-4720474757","lat":25.051416,"lon":121.594315,"name":"工地門","decorType":"station"},{"id":"node-4762059827","lat":25.049767,"lon":121.595527,"name":"衛福小棧","decorType":"restaurant"},{"id":"node-5110348528","lat":25.049175,"lon":121.588365,"name":"未命名郵局","decorType":"post_office"},{"id":"node-5110348791","lat":25.048934,"lon":121.588604,"name":"松山聖龍宮","decorType":"shrine"},{"id":"node-6212372885","lat":25.049769,"lon":121.591991,"name":"涮嘴百元火鍋","decorType":"restaurant"},{"id":"node-6580997585","lat":25.05422,"lon":121.596379,"name":"嘖咖啡","decorType":"cafe"},{"id":"node-6654324911","lat":25.050888,"lon":121.594116,"name":"行道會台北榮耀堂","decorType":"shrine"},{"id":"node-6654324929","lat":25.05065,"lon":121.594518,"name":"捷運昆陽站","decorType":"bus_stop"},{"id":"node-6899388189","lat":25.041581,"lon":121.587467,"name":"家裡共享時光","decorType":"cafe"},{"id":"node-7105971481","lat":25.053977,"lon":121.59447,"name":"北原會館圖書館","decorType":"library"},{"id":"node-7170215732","lat":25.051405,"lon":121.593558,"name":"鮮堡漢堡","decorType":"restaurant"},{"id":"node-7170215733","lat":25.051522,"lon":121.593556,"name":"珍饌涼麵","decorType":"restaurant"},{"id":"node-7170215734","lat":25.051464,"lon":121.593586,"name":"玖玖美食館","decorType":"restaurant"},{"id":"node-7170215735","lat":25.051638,"lon":121.593489,"name":"印度風咖哩黃","decorType":"restaurant"},{"id":"node-7170215736","lat":25.052045,"lon":121.593563,"name":"鬼匠拉麵","decorType":"restaurant"},{"id":"node-7170215737","lat":25.051886,"lon":121.593657,"name":"健安雞肉飯","decorType":"restaurant"},{"id":"node-7170215738","lat":25.051542,"lon":121.593784,"name":"八方雲集","decorType":"burger"},{"id":"node-7170215739","lat":25.052258,"lon":121.593435,"name":"好捲早午餐","decorType":"restaurant"},{"id":"node-7170215740","lat":25.052352,"lon":121.593419,"name":"昆陽豆漿店","decorType":"restaurant"},{"id":"node-7170215741","lat":25.052407,"lon":121.593394,"name":"南港臺灣真有味鹽酥雞","decorType":"restaurant"},{"id":"node-7170215742","lat":25.052447,"lon":121.593251,"name":"12點食分","decorType":"restaurant"},{"id":"node-7170215743","lat":25.05266,"lon":121.592831,"name":"找諶 Chen’s Brunch","decorType":"restaurant"},{"id":"node-7170215744","lat":25.053293,"lon":121.592674,"name":"胖老爹美式炸雞","decorType":"burger"},{"id":"node-7170215745","lat":25.053354,"lon":121.592752,"name":"粗飽早午餐","decorType":"restaurant"},{"id":"node-7170215746","lat":25.053767,"lon":121.592608,"name":"日日香美食屋","decorType":"restaurant"},{"id":"node-7170215747","lat":25.053634,"lon":121.59236,"name":"秘密基地","decorType":"restaurant"},{"id":"node-7170215748","lat":25.054004,"lon":121.59242,"name":"大尾雞排","decorType":"restaurant"},{"id":"node-7170215749","lat":25.054008,"lon":121.592101,"name":"三商巧福","decorType":"restaurant"},{"id":"node-7170215750","lat":25.053799,"lon":121.591403,"name":"文吉池上便當","decorType":"restaurant"},{"id":"node-7170215751","lat":25.053738,"lon":121.591337,"name":"魯肉飯","decorType":"restaurant"},{"id":"node-7170215752","lat":25.053795,"lon":121.591335,"name":"傑克漢堡","decorType":"restaurant"},{"id":"node-7170215753","lat":25.053992,"lon":121.591221,"name":"香港頂品燒臘店","decorType":"restaurant"},{"id":"node-7170215759","lat":25.053468,"lon":121.58814,"name":"味珍香異國風味小棧","decorType":"restaurant"},{"id":"node-7211419024","lat":25.049727,"lon":121.594013,"name":"鐵丸十三堂","decorType":"restaurant"},{"id":"node-7211419038","lat":25.046463,"lon":121.588087,"name":"雞肉飯，甜不辣","decorType":"restaurant"},{"id":"node-7211419046","lat":25.042049,"lon":121.587498,"name":"舊店舖小吃坊","decorType":"restaurant"},{"id":"node-7211419050","lat":25.046739,"lon":121.588273,"name":"錢吟日式涮涮鍋","decorType":"restaurant"},{"id":"node-7211419071","lat":25.039219,"lon":121.58776,"name":"銘圓美食會館","decorType":"restaurant"},{"id":"node-7211425487","lat":25.041496,"lon":121.587655,"name":"蒜翻天","decorType":"restaurant"},{"id":"node-7211425503","lat":25.039168,"lon":121.588454,"name":"意麵小吃","decorType":"restaurant"},{"id":"node-7211425529","lat":25.046866,"lon":121.588603,"name":"無名米粉湯","decorType":"restaurant"},{"id":"node-7211425579","lat":25.041646,"lon":121.587382,"name":"家裡 共享時光","decorType":"restaurant"},{"id":"node-7211425591","lat":25.039558,"lon":121.587418,"name":"美而美早餐店","decorType":"restaurant"},{"id":"node-7211425592","lat":25.039379,"lon":121.588262,"name":"美式早餐屋","decorType":"restaurant"},{"id":"node-7211425599","lat":25.049712,"lon":121.593958,"name":"炭味家燒烤飯食","decorType":"restaurant"},{"id":"node-7211425605","lat":25.04715,"lon":121.588726,"name":"星旺豆漿店","decorType":"restaurant"},{"id":"node-7211425606","lat":25.046083,"lon":121.587643,"name":"星宇大餛飩","decorType":"restaurant"},{"id":"node-7211425608","lat":25.049065,"lon":121.59402,"name":"拱心意義大利麵","decorType":"restaurant"},{"id":"node-7211425610","lat":25.039272,"lon":121.591542,"name":"庭園早餐","decorType":"restaurant"},{"id":"node-7211425617","lat":25.046464,"lon":121.588336,"name":"南港抓餅","decorType":"restaurant"},{"id":"node-7211425626","lat":25.046477,"lon":121.588204,"name":"金國花嘉義火雞肉飯 · 冰品","decorType":"restaurant"},{"id":"node-7211425639","lat":25.049108,"lon":121.594145,"name":"昆陽鍋貼專賣店","decorType":"restaurant"},{"id":"node-7211425640","lat":25.049773,"lon":121.593645,"name":"昆陽滷肉飯","decorType":"restaurant"},{"id":"node-7211425641","lat":25.049777,"lon":121.594134,"name":"昆陽快餐","decorType":"restaurant"},{"id":"node-7211425642","lat":25.049693,"lon":121.594455,"name":"昆陽包子饅頭店","decorType":"restaurant"},{"id":"node-7211425643","lat":25.049753,"lon":121.593576,"name":"昆陽牛肉麵","decorType":"restaurant"},{"id":"node-7211425648","lat":25.04983,"lon":121.593928,"name":"咔拉堡","decorType":"restaurant"},{"id":"node-7211425660","lat":25.046676,"lon":121.588641,"name":"阿嬤的米粉湯","decorType":"restaurant"},{"id":"node-7211425670","lat":25.046384,"lon":121.587977,"name":"阿來鵝肉專家","decorType":"restaurant"},{"id":"node-7211425691","lat":25.046647,"lon":121.588699,"name":"老婆婆的蔥餅和傳統豆花","decorType":"restaurant"},{"id":"node-7211425707","lat":25.045869,"lon":121.587345,"name":"好朋友手工刀削麵","decorType":"restaurant"},{"id":"node-7211425710","lat":25.054084,"lon":121.596698,"name":"多多小吃店","decorType":"restaurant"},{"id":"node-7211425717","lat":25.046702,"lon":121.58878,"name":"北方大陸餅","decorType":"restaurant"},{"id":"node-7211425729","lat":25.054171,"lon":121.596609,"name":"正宗泰國菜","decorType":"restaurant"},{"id":"node-7211425730","lat":25.04012,"lon":121.588829,"name":"布咪創意早午餐","decorType":"restaurant"},{"id":"node-7211425735","lat":25.04981,"lon":121.593857,"name":"四季傳香湯滷味","decorType":"restaurant"},{"id":"node-7211425771","lat":25.046644,"lon":121.588301,"name":"小確幸早餐","decorType":"restaurant"},{"id":"node-7211425775","lat":25.046443,"lon":121.587567,"name":"小空間Brunch • 早午餐","decorType":"restaurant"},{"id":"node-7211425789","lat":25.049562,"lon":121.593612,"name":"上海湯包","decorType":"restaurant"},{"id":"node-7211425811","lat":25.039411,"lon":121.587634,"name":"Q Burger","decorType":"restaurant"},{"id":"node-7211425819","lat":25.048241,"lon":121.589402,"name":"K.Lab甜點實驗室","decorType":"restaurant"},{"id":"node-7345661821","lat":25.051814,"lon":121.590243,"name":"未命名公園","decorType":"park"},{"id":"node-8118273003","lat":25.0394,"lon":121.587591,"name":"7-Eleven","decorType":"convenience"},{"id":"node-8118273004","lat":25.049146,"lon":121.594191,"name":"7-Eleven","decorType":"convenience"},{"id":"node-8277501437","lat":25.039565,"lon":121.592261,"name":"全家便利商店","decorType":"convenience"},{"id":"node-8277501438","lat":25.039682,"lon":121.591607,"name":"7-Eleven","decorType":"convenience"},{"id":"node-8432400621","lat":25.050746,"lon":121.596054,"name":"衛生福利部","decorType":"bus_stop"},{"id":"node-8432400622","lat":25.0503,"lon":121.595013,"name":"衛生福利部","decorType":"bus_stop"},{"id":"node-9342783484","lat":25.054115,"lon":121.591305,"name":"非常饌牛肉拉麵","decorType":"restaurant"},{"id":"node-9342783485","lat":25.054099,"lon":121.591251,"name":"雯永吉","decorType":"restaurant"},{"id":"node-9342783486","lat":25.054131,"lon":121.591357,"name":"吳媽媽食堂","decorType":"restaurant"},{"id":"node-9538863686","lat":25.046589,"lon":121.587503,"name":"未命名公園","decorType":"park"},{"id":"node-9540141000","lat":25.047123,"lon":121.588051,"name":"未命名公園","decorType":"park"},{"id":"node-10053402383","lat":25.048936,"lon":121.58946,"name":"美廉社","decorType":"supermarket"},{"id":"node-10536488925","lat":25.051871,"lon":121.59036,"name":"未命名公園","decorType":"park"},{"id":"node-11351211693","lat":25.039082,"lon":121.589855,"name":"成福宮","decorType":"bus_stop"},{"id":"node-12407393164","lat":25.053128,"lon":121.594487,"name":"圖書館","decorType":"library"},{"id":"node-12407407834","lat":25.05264,"lon":121.593117,"name":"後門","decorType":"station"},{"id":"node-13316187168","lat":25.051729,"lon":121.59045,"name":"未命名公園","decorType":"park"},{"id":"node-13316187169","lat":25.051799,"lon":121.590011,"name":"未命名公園","decorType":"park"},{"id":"way-74920592","lat":25.047077,"lon":121.595631,"name":"新庄仔埤","decorType":"waterside"},{"id":"way-79233977","lat":25.045958,"lon":121.59279,"name":"未命名公園","decorType":"park"},{"id":"way-79234004","lat":25.048939,"lon":121.593216,"name":"新勝公園","decorType":"park"},{"id":"way-79292625","lat":25.043135,"lon":121.597887,"name":"未命名森林","decorType":"forest"},{"id":"way-79292649","lat":25.046181,"lon":121.595024,"name":"未命名水邊","decorType":"waterside"},{"id":"way-79292655","lat":25.047753,"lon":121.595681,"name":"未命名水邊","decorType":"waterside"},{"id":"way-80135828","lat":25.048477,"lon":121.594032,"name":"未命名公園","decorType":"park"},{"id":"way-80135835","lat":25.048262,"lon":121.594449,"name":"昆陽公園","decorType":"park"},{"id":"way-115493249","lat":25.048246,"lon":121.591434,"name":"未命名公園","decorType":"park"},{"id":"way-195921520","lat":25.050157,"lon":121.597779,"name":"忠孝東路七段124巷","decorType":"bridge"},{"id":"way-202681806","lat":25.043121,"lon":121.592434,"name":"後山坡橋","decorType":"bridge"},{"id":"way-202681808","lat":25.043096,"lon":121.591782,"name":"未命名橋樑","decorType":"bridge"},{"id":"way-202685275","lat":25.041662,"lon":121.591705,"name":"曲橋","decorType":"bridge"},{"id":"way-202685277","lat":25.04157,"lon":121.591448,"name":"曲橋","decorType":"bridge"},{"id":"way-202938290","lat":25.050317,"lon":121.591834,"name":"第一鮮生猛現撈熱炒","decorType":"restaurant"},{"id":"way-202938291","lat":25.050303,"lon":121.591388,"name":"貴族世家","decorType":"restaurant"},{"id":"way-202941690","lat":25.04288,"lon":121.590848,"name":"磚製棋盤","decorType":"park"},{"id":"way-202941692","lat":25.041922,"lon":121.591036,"name":"未命名公園","decorType":"park"},{"id":"way-202941693","lat":25.041636,"lon":121.59118,"name":"未命名公園","decorType":"park"},{"id":"way-202944054","lat":25.044099,"lon":121.591428,"name":"未命名公園","decorType":"park"},{"id":"way-210611849","lat":25.046735,"lon":121.590572,"name":"經國體育館","decorType":"stadium"},{"id":"way-298056521","lat":25.05174,"lon":121.599535,"name":"臺北流行音樂中心 (南基地)","decorType":"park"},{"id":"way-304126325","lat":25.048363,"lon":121.588702,"name":"聯成公園","decorType":"park"},{"id":"way-343890114","lat":25.046603,"lon":121.587313,"name":"成德綠地","decorType":"park"},{"id":"way-372150102","lat":25.049806,"lon":121.59239,"name":"頂呱呱","decorType":"burger"},{"id":"way-426097643","lat":25.053796,"lon":121.59494,"name":"未命名橋樑","decorType":"bridge"},{"id":"way-438167562","lat":25.050479,"lon":121.593301,"name":"未命名公車站","decorType":"bus_stop"},{"id":"way-478404421","lat":25.049925,"lon":121.595353,"name":"空中步道","decorType":"bridge"},{"id":"way-483468374","lat":25.049915,"lon":121.594569,"name":"兄弟麵館","decorType":"restaurant"},{"id":"way-483468375","lat":25.04914,"lon":121.59486,"name":"水池","decorType":"waterside"},{"id":"way-484170024","lat":25.050161,"lon":121.594439,"name":"威武宮","decorType":"shrine"},{"id":"way-484170028","lat":25.049646,"lon":121.593775,"name":"杏安樂局","decorType":"pharmacy"},{"id":"way-484170033","lat":25.049671,"lon":121.593866,"name":"奇味蕃茄牛肉麵","decorType":"restaurant"},{"id":"way-484170037","lat":25.049834,"lon":121.593726,"name":"功夫小館","decorType":"restaurant"},{"id":"way-499730924","lat":25.050511,"lon":121.59849,"name":"未命名橋樑","decorType":"bridge"},{"id":"way-590528773","lat":25.051327,"lon":121.589783,"name":"新新公園","decorType":"park"},{"id":"way-680913219","lat":25.048453,"lon":121.593569,"name":"未命名公園","decorType":"park"},{"id":"way-785848555","lat":25.050891,"lon":121.589721,"name":"未命名橋樑","decorType":"bridge"},{"id":"way-785848556","lat":25.051548,"lon":121.58941,"name":"未命名水邊","decorType":"waterside"},{"id":"way-786160619","lat":25.051123,"lon":121.589695,"name":"未命名水邊","decorType":"waterside"},{"id":"way-787149268","lat":25.039884,"lon":121.589916,"name":"未命名水邊","decorType":"waterside"},{"id":"way-908100401","lat":25.052914,"lon":121.598304,"name":"臺北流行音樂中心 (北基地)","decorType":"park"},{"id":"way-1021360163","lat":25.052555,"lon":121.599208,"name":"未命名橋樑","decorType":"bridge"},{"id":"way-1021360164","lat":25.052183,"lon":121.598797,"name":"未命名橋樑","decorType":"bridge"},{"id":"way-1021360165","lat":25.05254,"lon":121.598882,"name":"未命名橋樑","decorType":"bridge"},{"id":"way-1132411917","lat":25.048132,"lon":121.593646,"name":"未命名公園","decorType":"park"},{"id":"way-1163244752","lat":25.051568,"lon":121.599323,"name":"酒等了・ 臺北流行音樂中心","decorType":"cafe"},{"id":"way-1222255179","lat":25.042607,"lon":121.593125,"name":"湧聲公園","decorType":"park"},{"id":"way-1323275594","lat":25.038956,"lon":121.590771,"name":"未命名森林","decorType":"forest"},{"id":"way-1341316829","lat":25.053022,"lon":121.594382,"name":"生態池","decorType":"waterside"},{"id":"way-1451935297","lat":25.050876,"lon":121.589679,"name":"未命名橋樑","decorType":"bridge"},{"id":"way-1451935298","lat":25.050959,"lon":121.58948,"name":"未命名橋樑","decorType":"bridge"},{"id":"way-1451935300","lat":25.051504,"lon":121.590357,"name":"未命名橋樑","decorType":"bridge"},{"id":"way-1451935305","lat":25.050828,"lon":121.589463,"name":"未命名水邊","decorType":"waterside"},{"id":"way-1451937943","lat":25.052502,"lon":121.598888,"name":"未命名橋樑","decorType":"bridge"},{"id":"way-1451937944","lat":25.052306,"lon":121.59864,"name":"未命名橋樑","decorType":"bridge"},{"id":"way-1451937945","lat":25.052698,"lon":121.599388,"name":"未命名橋樑","decorType":"bridge"},{"id":"way-1451937946","lat":25.052548,"lon":121.599026,"name":"未命名橋樑","decorType":"bridge"},{"id":"way-1451937950","lat":25.051478,"lon":121.596949,"name":"未命名水邊","decorType":"waterside"},{"id":"way-1451937951","lat":25.051365,"lon":121.596298,"name":"未命名水邊","decorType":"waterside"}]}