{"bbox":{"south":25.038731249999998,"north":25.0543375,"west":121.5873125,"east":121.60034375},"pois":[{"id":"node-870131998","lat":25.0505613,"lon":121.5937946,"name":"捷運昆陽站 (4號出口)","decorType":"station"},{"id":"node-870132006","lat":25.0502865,"lon":121.5927254,"name":"捷運昆陽站 (1號出口)","decorType":"station"},{"id":"node-1439044159","lat":25.050243,"lon":121.5940408,"name":"7-Eleven","decorType":"convenience"},{"id":"node-1941587639","lat":25.0498787,"lon":121.5927274,"name":"南港昆陽郵局","decorType":"post_office"},{"id":"node-2126461117","lat":25.0464613,"lon":121.5884102,"name":"7-Eleven","decorType":"convenience"},{"id":"node-2128891122","lat":25.050181,"lon":121.5937838,"name":"屈臣氏","decorType":"pharmacy"},{"id":"node-2271726576","lat":25.0540387,"lon":121.5919677,"name":"玉成國小","decorType":"bus_stop"},{"id":"node-2309134847","lat":25.0495744,"lon":121.5909468,"name":"陸軍後勤指揮部","decorType":"bus_stop"},{"id":"node-2309134853","lat":25.048872,"lon":121.5877751,"name":"國華新村","decorType":"bus_stop"},{"id":"node-2309134856","lat":25.0503924,"lon":121.5943484,"name":"捷運昆陽站","decorType":"bus_stop"},{"id":"node-2309134858","lat":25.05021,"lon":121.5935952,"name":"捷運昆陽站","decorType":"bus_stop"},{"id":"node-2309134859","lat":25.0501018,"lon":121.5931152,"name":"捷運昆陽站","decorType":"bus_stop"},{"id":"node-2310689460","lat":25.0498005,"lon":121.590725,"name":"陸軍後勤指揮部","decorType":"bus_stop"},{"id":"node-2310689461","lat":25.0503156,"lon":121.5929901,"name":"捷運昆陽站","decorType":"bus_stop"},{"id":"node-2310689473","lat":25.0490934,"lon":121.5877987,"name":"國華新村","decorType":"bus_stop"},{"id":"node-2524273894","lat":25.0540037,"lon":121.5920672,"name":"7-Eleven","decorType":"convenience"},{"id":"node-2524274657","lat":25.0531854,"lon":121.5897932,"name":"7-Eleven","decorType":"convenience"},{"id":"node-2525034840","lat":25.0538251,"lon":121.5987331,"name":"東明里/臺北流行音樂中心","decorType":"bus_stop"},{"id":"node-2525070749","lat":25.0530799,"lon":121.5876672,"name":"南港路三段","decorType":"bus_stop"},{"id":"node-2525080133","lat":25.0532174,"lon":121.5895999,"name":"西新里 (新新公園)","decorType":"bus_stop"},{"id":"node-2525424708","lat":25.0535938,"lon":121.5900612,"name":"西新里 (新新公園)","decorType":"bus_stop"},{"id":"node-2525424715","lat":25.0542914,"lon":121.5963007,"name":"土地公廟","decorType":"bus_stop"},{"id":"node-2525424716","lat":25.0535411,"lon":121.5991059,"name":"東明里/臺北流行音樂中心","decorType":"bus_stop"},{"id":"node-2604138857","lat":25.0502456,"lon":121.5941708,"name":"全家便利商店","decorType":"convenience"},{"id":"node-2604138862","lat":25.0507263,"lon":121.593676,"name":"好了啦超大杯","decorType":"cafe"},{"id":"node-2607298682","lat":25.050856,"lon":121.593968,"name":"7-Eleven","decorType":"convenience"},{"id":"node-2607298691","lat":25.0502225,"lon":121.593966,"name":"康是美","decorType":"pharmacy"},{"id":"node-2607298692","lat":25.0502104,"lon":121.5939128,"name":"摩斯漢堡","decorType":"burger"},{"id":"node-2607298693","lat":25.0501945,"lon":121.593844,"name":"吉野家","decorType":"burger"},{"id":"node-2607298694","lat":25.0501669,"lon":121.593727,"name":"麥當勞","decorType":"burger"},{"id":"node-2607366970","lat":25.0507441,"lon":121.5937302,"name":"九天玄女娘娘宮","decorType":"shrine"},{"id":"node-2619659223","lat":25.0414846,"lon":121.5879006,"name":"7-Eleven","decorType":"convenience"},{"id":"node-2619661258","lat":25.0408917,"lon":121.5885175,"name":"家樂福","decorType":"supermarket"},{"id":"node-2642374345","lat":25.05416,"lon":121.5925712,"name":"赤坎牛肉","decorType":"restaurant"},{"id":"node-2734052532","lat":25.0503769,"lon":121.5946168,"name":"FRESH新鮮烘焙坊","decorType":"bakery"},{"id":"node-2756599331","lat":25.0498758,"lon":121.5943102,"name":"連成素食店","decorType":"restaurant"},{"id":"node-2902339762","lat":25.0528001,"lon":121.5882764,"name":"未命名餐廳","decorType":"restaurant"},{"id":"node-2920801251","lat":25.0531909,"lon":121.5952449,"name":"南港高中","decorType":"bus_stop"},{"id":"node-2920801252","lat":25.0532168,"lon":121.594905,"name":"南港高中","decorType":"bus_stop"},{"id":"node-2974441540","lat":25.051482,"lon":121.5935222,"name":"宜品素食","decorType":"restaurant"},{"id":"node-3024920767","lat":25.0396169,"lon":121.5886439,"name":"美廉社","decorType":"supermarket"},{"id":"node-3024920805","lat":25.0394699,"lon":121.5879764,"name":"未命名郵局","decorType":"post_office"},{"id":"node-3024920807","lat":25.0392768,"lon":121.5874486,"name":"未命名藥局","decorType":"pharmacy"},{"id":"node-3024929055","lat":25.0395227,"lon":121.5882298,"name":"成福路口","decorType":"bus_stop"},{"id":"node-3028959463","lat":25.0391575,"lon":121.5873669,"name":"福德國小","decorType":"bus_stop"},{"id":"node-3028959465","lat":25.0393908,"lon":121.5883674,"name":"成福路口","decorType":"bus_stop"},{"id":"node-3188319823","lat":25.046433,"lon":121.5900721,"name":"修德國小","decorType":"bus_stop"},{"id":"node-3188319824","lat":25.0466228,"lon":121.5893928,"name":"修德國小","decorType":"bus_stop"},{"id":"node-3188319837","lat":25.0458437,"lon":121.5926407,"name":"南港公園","decorType":"bus_stop"},{"id":"node-3188319838","lat":25.0459534,"lon":121.592108,"name":"南港公園","decorType":"bus_stop"},{"id":"node-3188319839","lat":25.0438337,"lon":121.5927395,"name":"南港公園一","decorType":"bus_stop"},{"id":"node-3188319840","lat":25.0439644,"lon":121.5929126,"name":"南港公園一","decorType":"bus_stop"},{"id":"node-3188319841","lat":25.0411181,"lon":121.5915608,"name":"南港花園社區一","decorType":"bus_stop"},{"id":"node-3188319842","lat":25.0388634,"lon":121.5925102,"name":"南港花園社區三","decorType":"bus_stop"},{"id":"node-3188319843","lat":25.0395712,"lon":121.5911717,"name":"南港花園社區二","decorType":"bus_stop"},{"id":"node-3188319844","lat":25.0399789,"lon":121.5911332,"name":"南港花園社區二","decorType":"bus_stop"},{"id":"node-3188319845","lat":25.0395123,"lon":121.5934102,"name":"南港花園社區四","decorType":"bus_stop"},{"id":"node-3188319846","lat":25.0400536,"lon":121.5926487,"name":"南港花園社區五","decorType":"bus_stop"},{"id":"node-3188319856","lat":25.0411131,"lon":121.5882351,"name":"成福路口一","decorType":"bus_stop"},{"id":"node-3639530947","lat":25.0504897,"lon":121.5933161,"name":"昆陽","decorType":"station"},{"id":"node-3750119961","lat":25.0498576,"lon":121.5940309,"name":"昆陽牛肉麵","decorType":"restaurant"},{"id":"node-4358957391","lat":25.0490771,"lon":121.5890897,"name":"7-Eleven","decorType":"convenience"},{"id":"node-4359016295","lat":25.0504287,"lon":121.5929075,"name":"捷運昆陽站(2號出口)","decorType":"station"},{"id":"node-4359016296","lat":25.0505823,"lon":121.5935576,"name":"捷運昆陽站(3號出口)","decorType":"station"},{"id":"node-4359025063","lat":25.0500605,"lon":121.5932258,"name":"鬍鬚張魯肉飯","decorType":"restaurant"},{"id":"node-4359025064","lat":25.0497216,"lon":121.5917977,"name":"金春發牛肉店","decorType":"restaurant"},{"id":"node-4359025065","lat":25.0497806,"lon":121.5920555,"name":"三媽臭臭鍋","decorType":"restaurant"},{"id":"node-4359025066","lat":25.0493141,"lon":121.5902,"name":"霸味薑母鴨","decorType":"restaurant"},{"id":"node-4359025067","lat":25.0492481,"lon":121.5897172,"name":"良美鵝肉專家","decorType":"restaurant"},{"id":"node-4360398427","lat":25.0501158,"lon":121.5935214,"name":"HANGTAN","decorType":"clothing"},{"id":"node-4360398435","lat":25.0501367,"lon":121.5935931,"name":"美二佳","decorType":"bakery"},{"id":"node-4368461970","lat":25.0515637,"lon":121.5962209,"name":"南港高中(市民大道)","decorType":"bus_stop"},{"id":"node-4368461972","lat":25.0519066,"lon":121.5987015,"name":"臺北流行音樂中心","decorType":"bus_stop"},{"id":"node-4368462967","lat":25.0520692,"lon":121.5982872,"name":"臺北流行音樂中心","decorType":"bus_stop"},{"id":"node-4374084079","lat":25.0488839,"lon":121.5883066,"name":"萊爾富","decorType":"convenience"},{"id":"node-4374084080","lat":25.0499709,"lon":121.593478,"name":"真茶自慢","decorType":"cafe"},{"id":"node-4716438598","lat":25.0503053,"lon":121.5941972,"name":"50嵐","decorType":"cafe"},{"id":"node-4716462793","lat":25.0516121,"lon":121.5936786,"name":"大呼過癮(昆陽店)","decorType":"restaurant"},{"id":"node-4720474757","lat":25.0514164,"lon":121.5943147,"name":"工地門","decorType":"station"},{"id":"node-4762059827","lat":25.0497665,"lon":121.5955265,"name":"衛福小棧","decorType":"restaurant"},{"id":"node-5110348528","lat":25.0491751,"lon":121.5883651,"name":"未命名郵局","decorType":"post_office"},{"id":"node-5110348791","lat":25.0489336,"lon":121.5886042,"name":"松山聖龍宮","decorType":"shrine"},{"id":"node-6212372885","lat":25.049769,"lon":121.5919907,"name":"涮嘴百元火鍋","decorType":"restaurant"},{"id":"node-6580997585","lat":25.05422,"lon":121.596379,"name":"嘖咖啡","decorType":"cafe"},{"id":"node-6654324911","lat":25.0508878,"lon":121.5941155,"name":"行道會台北榮耀堂","decorType":"shrine"},{"id":"node-6654324929","lat":25.0506497,"lon":121.5945178,"name":"捷運昆陽站","decorType":"bus_stop"},{"id":"node-6899388189","lat":25.0415805,"lon":121.5874669,"name":"家裡共享時光","decorType":"cafe"},{"id":"node-7105971481","lat":25.0539774,"lon":121.5944695,"name":"北原會館圖書館","decorType":"library"},{"id":"node-7170215732","lat":25.0514054,"lon":121.5935584,"name":"鮮堡漢堡","decorType":"restaurant"},{"id":"node-7170215733","lat":25.0515224,"lon":121.5935555,"name":"珍饌涼麵","decorType":"restaurant"},{"id":"node-7170215734","lat":25.0514638,"lon":121.5935855,"name":"玖玖美食館","decorType":"restaurant"},{"id":"node-7170215735","lat":25.0516375,"lon":121.5934889,"name":"印度風咖哩黃","decorType":"restaurant"},{"id":"node-7170215736","lat":25.0520453,"lon":121.5935628,"name":"鬼匠拉麵","decorType":"restaurant"},{"id":"node-7170215737","lat":25.0518864,"lon":121.5936567,"name":"健安雞肉飯","decorType":"restaurant"},{"id":"node-7170215738","lat":25.0515422,"lon":121.5937836,"name":"八方雲集","decorType":"burger"},{"id":"node-7170215739","lat":25.0522581,"lon":121.5934353,"name":"好捲早午餐","decorType":"restaurant"},{"id":"node-7170215740","lat":25.0523521,"lon":121.5934185,"name":"昆陽豆漿店","decorType":"restaurant"},{"id":"node-7170215741","lat":25.0524071,"lon":121.5933935,"name":"南港臺灣真有味鹽酥雞","decorType":"restaurant"},{"id":"node-7170215742","lat":25.0524472,"lon":121.5932512,"name":"12點食分","decorType":"restaurant"},{"id":"node-7170215743","lat":25.0526599,"lon":121.5928314,"name":"找諶 Chen’s Brunch","decorType":"restaurant"},{"id":"node-7170215744","lat":25.053293,"lon":121.5926739,"name":"胖老爹美式炸雞","decorType":"burger"},{"id":"node-7170215745","lat":25.0533535,"lon":121.5927523,"name":"粗飽早午餐","decorType":"restaurant"},{"id":"node-7170215746","lat":25.0537668,"lon":121.5926082,"name":"日日香美食屋","decorType":"restaurant"},{"id":"node-7170215747","lat":25.0536343,"lon":121.5923599,"name":"秘密基地","decorType":"restaurant"},{"id":"node-7170215748","lat":25.0540035,"lon":121.5924199,"name":"大尾雞排","decorType":"restaurant"},{"id":"node-7170215749","lat":25.0540084,"lon":121.5921009,"name":"三商巧福","decorType":"restaurant"},{"id":"node-7170215750","lat":25.0537993,"lon":121.5914034,"name":"文吉池上便當","decorType":"restaurant"},{"id":"node-7170215751","lat":25.0537383,"lon":121.5913373,"name":"魯肉飯","decorType":"restaurant"},{"id":"node-7170215752","lat":25.0537951,"lon":121.591335,"name":"傑克漢堡","decorType":"restaurant"},{"id":"node-7170215753","lat":25.0539916,"lon":121.5912212,"name":"香港頂品燒臘店","decorType":"restaurant"},{"id":"node-7170215759","lat":25.053468,"lon":121.5881402,"name":"味珍香異國風味小棧","decorType":"restaurant"},{"id":"node-7211419024","lat":25.0497271,"lon":121.5940125,"name":"鐵丸十三堂","decorType":"restaurant"},{"id":"node-7211419038","lat":25.0464627,"lon":121.5880867,"name":"雞肉飯，甜不辣","decorType":"restaurant"},{"id":"node-7211419046","lat":25.0420488,"lon":121.5874978,"name":"舊店舖小吃坊","decorType":"restaurant"},{"id":"node-7211419050","lat":25.0467392,"lon":121.5882733,"name":"錢吟日式涮涮鍋","decorType":"restaurant"},{"id":"node-7211419071","lat":25.0392194,"lon":121.5877599,"name":"銘圓美食會館","decorType":"restaurant"},{"id":"node-7211425487","lat":25.0414955,"lon":121.5876548,"name":"蒜翻天","decorType":"restaurant"},{"id":"node-7211425503","lat":25.0391682,"lon":121.5884539,"name":"意麵小吃","decorType":"restaurant"},{"id":"node-7211425529","lat":25.0468656,"lon":121.5886027,"name":"無名米粉湯","decorType":"restaurant"},{"id":"node-7211425579","lat":25.0416463,"lon":121.5873818,"name":"家裡 共享時光","decorType":"restaurant"},{"id":"node-7211425591","lat":25.0395578,"lon":121.5874179,"name":"美而美早餐店","decorType":"restaurant"},{"id":"node-7211425592","lat":25.0393786,"lon":121.588262,"name":"美式早餐屋","decorType":"restaurant"},{"id":"node-7211425599","lat":25.0497121,"lon":121.5939576,"name":"炭味家燒烤飯食","decorType":"restaurant"},{"id":"node-7211425605","lat":25.0471502,"lon":121.5887264,"name":"星旺豆漿店","decorType":"restaurant"},{"id":"node-7211425606","lat":25.0460826,"lon":121.5876434,"name":"星宇大餛飩","decorType":"restaurant"},{"id":"node-7211425608","lat":25.0490647,"lon":121.5940201,"name":"拱心意義大利麵","decorType":"restaurant"},{"id":"node-7211425610","lat":25.0392723,"lon":121.5915418,"name":"庭園早餐","decorType":"restaurant"},{"id":"node-7211425617","lat":25.046464,"lon":121.5883358,"name":"南港抓餅","decorType":"restaurant"},{"id":"node-7211425626","lat":25.0464767,"lon":121.5882042,"name":"金國花嘉義火雞肉飯 · 冰品","decorType":"restaurant"},{"id":"node-7211425639","lat":25.0491084,"lon":121.5941449,"name":"昆陽鍋貼專賣店","decorType":"restaurant"},{"id":"node-7211425640","lat":25.0497732,"lon":121.5936452,"name":"昆陽滷肉飯","decorType":"restaurant"},{"id":"node-7211425641","lat":25.0497765,"lon":121.5941336,"name":"昆陽快餐","decorType":"restaurant"},{"id":"node-7211425642","lat":25.0496931,"lon":121.5944552,"name":"昆陽包子饅頭店","decorType":"restaurant"},{"id":"node-7211425643","lat":25.0497533,"lon":121.5935762,"name":"昆陽牛肉麵","decorType":"restaurant"},{"id":"node-7211425648","lat":25.0498296,"lon":121.5939278,"name":"咔拉堡","decorType":"restaurant"},{"id":"node-7211425660","lat":25.0466762,"lon":121.588641,"name":"阿嬤的米粉湯","decorType":"restaurant"},{"id":"node-7211425670","lat":25.046384,"lon":121.5879773,"name":"阿來鵝肉專家","decorType":"restaurant"},{"id":"node-7211425691","lat":25.0466465,"lon":121.588699,"name":"老婆婆的蔥餅和傳統豆花","decorType":"restaurant"},{"id":"node-7211425707","lat":25.0458689,"lon":121.5873449,"name":"好朋友手工刀削麵","decorType":"restaurant"},{"id":"node-7211425710","lat":25.0540838,"lon":121.5966979,"name":"多多小吃店","decorType":"restaurant"},{"id":"node-7211425717","lat":25.0467019,"lon":121.5887799,"name":"北方大陸餅","decorType":"restaurant"},{"id":"node-7211425729","lat":25.0541706,"lon":121.596609,"name":"正宗泰國菜","decorType":"restaurant"},{"id":"node-7211425730","lat":25.0401203,"lon":121.5888286,"name":"布咪創意早午餐","decorType":"restaurant"},{"id":"node-7211425735","lat":25.0498102,"lon":121.593857,"name":"四季傳香湯滷味","decorType":"restaurant"},{"id":"node-7211425771","lat":25.0466438,"lon":121.5883008,"name":"小確幸早餐","decorType":"restaurant"},{"id":"node-7211425775","lat":25.0464426,"lon":121.5875666,"name":"小空間Brunch • 早午餐","decorType":"restaurant"},{"id":"node-7211425789","lat":25.0495621,"lon":121.5936115,"name":"上海湯包","decorType":"restaurant"},{"id":"node-7211425811","lat":25.0394112,"lon":121.5876344,"name":"Q Burger","decorType":"restaurant"},{"id":"node-7211425819","lat":25.0482413,"lon":121.5894015,"name":"K.Lab甜點實驗室","decorType":"restaurant"},{"id":"node-7345661821","lat":25.0518138,"lon":121.5902428,"name":"未命名公園","decorType":"park"},{"id":"node-8118273003","lat":25.0393999,"lon":121.5875907,"name":"7-Eleven","decorType":"convenience"},{"id":"node-8118273004","lat":25.0491456,"lon":121.5941906,"name":"7-Eleven","decorType":"convenience"},{"id":"node-8277501437","lat":25.0395654,"lon":121.5922605,"name":"全家便利商店","decorType":"convenience"},{"id":"node-8277501438","lat":25.0396824,"lon":121.5916072,"name":"7-Eleven","decorType":"convenience"},{"id":"node-8432400621","lat":25.0507462,"lon":121.5960535,"name":"衛生福利部","decorType":"bus_stop"},{"id":"node-8432400622","lat":25.0503,"lon":121.595013,"name":"衛生福利部","decorType":"bus_stop"},{"id":"node-9342783484","lat":25.0541154,"lon":121.5913048,"name":"非常饌牛肉拉麵","decorType":"restaurant"},{"id":"node-9342783485","lat":25.0540994,"lon":121.5912508,"name":"雯永吉","decorType":"restaurant"},{"id":"node-9342783486","lat":25.0541306,"lon":121.591357,"name":"吳媽媽食堂","decorType":"restaurant"},{"id":"node-9538863686","lat":25.0465894,"lon":121.5875025,"name":"未命名公園","decorType":"park"},{"id":"node-9540141000","lat":25.0471229,"lon":121.5880514,"name":"未命名公園","decorType":"park"},{"id":"node-10053402383","lat":25.0489362,"lon":121.5894602,"name":"美廉社","decorType":"supermarket"},{"id":"node-10536488925","lat":25.0518713,"lon":121.5903597,"name":"未命名公園","decorType":"park"},{"id":"node-11351211693","lat":25.0390819,"lon":121.5898551,"name":"成福宮","decorType":"bus_stop"},{"id":"node-12407393164","lat":25.0531284,"lon":121.5944868,"name":"圖書館","decorType":"library"},{"id":"node-12407407834","lat":25.0526401,"lon":121.5931174,"name":"後門","decorType":"station"},{"id":"node-13316187168","lat":25.0517286,"lon":121.5904496,"name":"未命名公園","decorType":"park"},{"id":"node-13316187169","lat":25.0517991,"lon":121.590011,"name":"未命名公園","decorType":"park"},{"id":"way-74920592","lat":25.0470771,"lon":121.5956307,"name":"新庄仔埤","decorType":"waterside"},{"id":"way-79233977","lat":25.045958,"lon":121.5927896,"name":"未命名公園","decorType":"park"},{"id":"way-79234004","lat":25.0489387,"lon":121.5932155,"name":"新勝公園","decorType":"park"},{"id":"way-79292625","lat":25.0431348,"lon":121.5978869,"name":"未命名森林","decorType":"forest"},{"id":"way-79292649","lat":25.0461808,"lon":121.5950242,"name":"未命名水邊","decorType":"waterside"},{"id":"way-79292655","lat":25.0477531,"lon":121.5956814,"name":"未命名水邊","decorType":"waterside"},{"id":"way-80135828","lat":25.0484769,"lon":121.5940317,"name":"未命名公園","decorType":"park"},{"id":"way-80135835","lat":25.0482624,"lon":121.594449,"name":"昆陽公園","decorType":"park"},{"id":"way-115493249","lat":25.0482459,"lon":121.5914339,"name":"未命名公園","decorType":"park"},{"id":"way-195921520","lat":25.0501565,"lon":121.597779,"name":"忠孝東路七段124巷","decorType":"bridge"},{"id":"way-202681806","lat":25.0431213,"lon":121.5924335,"name":"後山坡橋","decorType":"bridge"},{"id":"way-202681808","lat":25.0430957,"lon":121.5917822,"name":"未命名橋樑","decorType":"bridge"},{"id":"way-202685275","lat":25.041662,"lon":121.591705,"name":"曲橋","decorType":"bridge"},{"id":"way-202685277","lat":25.0415696,"lon":121.5914475,"name":"曲橋","decorType":"bridge"},{"id":"way-202938290","lat":25.050317,"lon":121.591834,"name":"第一鮮生猛現撈熱炒","decorType":"restaurant"},{"id":"way-202938291","lat":25.0503026,"lon":121.5913875,"name":"貴族世家","decorType":"restaurant"},{"id":"way-202941690","lat":25.0428801,"lon":121.5908477,"name":"磚製棋盤","decorType":"park"},{"id":"way-202941692","lat":25.0419215,"lon":121.5910364,"name":"未命名公園","decorType":"park"},{"id":"way-202941693","lat":25.0416357,"lon":121.5911798,"name":"未命名公園","decorType":"park"},{"id":"way-202944054","lat":25.0440989,"lon":121.591428,"name":"未命名公園","decorType":"park"},{"id":"way-210611849","lat":25.0467349,"lon":121.5905715,"name":"經國體育館","decorType":"stadium"},{"id":"way-298056521","lat":25.0517397,"lon":121.5995354,"name":"臺北流行音樂中心 (南基地)","decorType":"park"},{"id":"way-304126325","lat":25.0483632,"lon":121.5887024,"name":"聯成公園","decorType":"park"},{"id":"way-343890114","lat":25.0466027,"lon":121.5873132,"name":"成德綠地","decorType":"park"},{"id":"way-372150102","lat":25.0498058,"lon":121.5923898,"name":"頂呱呱","decorType":"burger"},{"id":"way-426097643","lat":25.0537955,"lon":121.5949397,"name":"未命名橋樑","decorType":"bridge"},{"id":"way-438167562","lat":25.0504788,"lon":121.5933013,"name":"未命名公車站","decorType":"bus_stop"},{"id":"way-478404421","lat":25.0499251,"lon":121.5953529,"name":"空中步道","decorType":"bridge"},{"id":"way-483468374","lat":25.0499145,"lon":121.5945694,"name":"兄弟麵館","decorType":"restaurant"},{"id":"way-483468375","lat":25.0491404,"lon":121.5948599,"name":"水池","decorType":"waterside"},{"id":"way-484170024","lat":25.0501607,"lon":121.5944394,"name":"威武宮","decorType":"shrine"},{"id":"way-484170028","lat":25.0496458,"lon":121.5937747,"name":"杏安樂局","decorType":"pharmacy"},{"id":"way-484170033","lat":25.0496705,"lon":121.5938664,"name":"奇味蕃茄牛肉麵","decorType":"restaurant"},{"id":"way-484170037","lat":25.0498338,"lon":121.5937255,"name":"功夫小館","decorType":"restaurant"},{"id":"way-499730924","lat":25.0505106,"lon":121.5984898,"name":"未命名橋樑","decorType":"bridge"},{"id":"way-590528773","lat":25.0513273,"lon":121.5897827,"name":"新新公園","decorType":"park"},{"id":"way-680913219","lat":25.0484526,"lon":121.5935688,"name":"未命名公園","decorType":"park"},{"id":"way-785848555","lat":25.0508908,"lon":121.5897205,"name":"未命名橋樑","decorType":"bridge"},{"id":"way-785848556","lat":25.0515484,"lon":121.5894098,"name":"未命名水邊","decorType":"waterside"},{"id":"way-786160619","lat":25.0511228,"lon":121.589695,"name":"未命名水邊","decorType":"waterside"},{"id":"way-787149268","lat":25.0398835,"lon":121.5899156,"name":"未命名水邊","decorType":"waterside"},{"id":"way-908100401","lat":25.0529143,"lon":121.5983038,"name":"臺北流行音樂中心 (北基地)","decorType":"park"},{"id":"way-1021360163","lat":25.0525546,"lon":121.5992075,"name":"未命名橋樑","decorType":"bridge"},{"id":"way-1021360164","lat":25.0521833,"lon":121.5987965,"name":"未命名橋樑","decorType":"bridge"},{"id":"way-1021360165","lat":25.0525398,"lon":121.5988818,"name":"未命名橋樑","decorType":"bridge"},{"id":"way-1132411917","lat":25.0481319,"lon":121.5936464,"name":"未命名公園","decorType":"park"},{"id":"way-1163244752","lat":25.0515677,"lon":121.5993227,"name":"酒等了・ 臺北流行音樂中心","decorType":"cafe"},{"id":"way-1222255179","lat":25.0426069,"lon":121.5931245,"name":"湧聲公園","decorType":"park"},{"id":"way-1323275594","lat":25.0389563,"lon":121.5907706,"name":"未命名森林","decorType":"forest"},{"id":"way-1341316829","lat":25.0530219,"lon":121.5943819,"name":"生態池","decorType":"waterside"},{"id":"way-1451935297","lat":25.0508758,"lon":121.5896791,"name":"未命名橋樑","decorType":"bridge"},{"id":"way-1451935298","lat":25.0509592,"lon":121.5894795,"name":"未命名橋樑","decorType":"bridge"},{"id":"way-1451935300","lat":25.051504,"lon":121.5903566,"name":"未命名橋樑","decorType":"bridge"},{"id":"way-1451935305","lat":25.0508284,"lon":121.5894629,"name":"未命名水邊","decorType":"waterside"},{"id":"way-1451937943","lat":25.0525024,"lon":121.5988875,"name":"未命名橋樑","decorType":"bridge"},{"id":"way-1451937944","lat":25.0523057,"lon":121.59864,"name":"未命名橋樑","decorType":"bridge"},{"id":"way-1451937945","lat":25.0526981,"lon":121.5993876,"name":"未命名橋樑","decorType":"bridge"},{"id":"way-1451937946","lat":25.0525482,"lon":121.5990257,"name":"未命名橋樑","decorType":"bridge"},{"id":"way-1451937950","lat":25.0514777,"lon":121.5969486,"name":"未命名水邊","decorType":"waterside"},{"id":"way-1451937951","lat":25.0513647,"lon":121.5962981,"name":"未命名水邊","decorType":"waterside"}]}