{"bbox":{"south":25.038731249999998,"north":25.0543375,"west":121.60034375,"east":121.61337499999999},"pois":[{"id":"node-860227978","lat":25.052558,"lon":121.6077998,"name":"捷運南港站","decorType":"bus_stop"},{"id":"node-873134180","lat":25.0543206,"lon":121.6056702,"name":"麥當勞","decorType":"burger"},{"id":"node-913277611","lat":25.0543098,"lon":121.6068322,"name":"南港行政中心","decorType":"bus_stop"},{"id":"node-2083458283","lat":25.0407318,"lon":121.6129795,"name":"摩斯漢堡","decorType":"burger"},{"id":"node-2309134841","lat":25.0523905,"lon":121.6103123,"name":"台北生技園區","decorType":"bus_stop"},{"id":"node-2309134843","lat":25.0514708,"lon":121.6026358,"name":"南港機廠","decorType":"bus_stop"},{"id":"node-2310689462","lat":25.0522082,"lon":121.6071602,"name":"捷運南港站","decorType":"bus_stop"},{"id":"node-2310689463","lat":25.0525864,"lon":121.6102997,"name":"台北生技園區","decorType":"bus_stop"},{"id":"node-2310689464","lat":25.0515633,"lon":121.6010743,"name":"南港機廠","decorType":"bus_stop"},{"id":"node-2482625777","lat":25.0496441,"lon":121.602007,"name":"三重埔山","decorType":"mountain"},{"id":"node-2482646667","lat":25.0505061,"lon":121.613057,"name":"中南山","decorType":"mountain"},{"id":"node-2525034839","lat":25.0539377,"lon":121.6038945,"name":"台肥新村","decorType":"bus_stop"},{"id":"node-2525080146","lat":25.0533122,"lon":121.600616,"name":"南港路二段178巷口","decorType":"bus_stop"},{"id":"node-2525080150","lat":25.0536232,"lon":121.6029442,"name":"台肥新村","decorType":"bus_stop"},{"id":"node-2525424713","lat":25.0534177,"lon":121.600745,"name":"南港路二段178巷口","decorType":"bus_stop"},{"id":"node-3180122267","lat":25.0533572,"lon":121.6070854,"name":"南港車站","decorType":"bus_stop"},{"id":"node-3180122268","lat":25.0531677,"lon":121.6071168,"name":"南港車站","decorType":"bus_stop"},{"id":"node-3639530941","lat":25.0520905,"lon":121.607192,"name":"南港","decorType":"station"},{"id":"node-3689350528","lat":25.0519869,"lon":121.6077637,"name":"出口2（國家文官學院）","decorType":"station"},{"id":"node-3689350529","lat":25.0518267,"lon":121.6065959,"name":"出口1（忠孝東路七段）","decorType":"station"},{"id":"node-3699944611","lat":25.0408249,"lon":121.6127014,"name":"中研院餐廳","decorType":"restaurant"},{"id":"node-4114407089","lat":25.0527755,"lon":121.6059992,"name":"7-Eleven","decorType":"convenience"},{"id":"node-4114407189","lat":25.0528405,"lon":121.6074834,"name":"星巴克","decorType":"cafe"},{"id":"node-4114511324","lat":25.0528252,"lon":121.6074006,"name":"山崎麵包","decorType":"bakery"},{"id":"node-4127807976","lat":25.0527541,"lon":121.6058287,"name":"台北六福萬怡","decorType":"hotel"},{"id":"node-4275358087","lat":25.0532772,"lon":121.6073062,"name":"南港","decorType":"station"},{"id":"node-4275358088","lat":25.0528686,"lon":121.6072576,"name":"南港","decorType":"station"},{"id":"node-4368461971","lat":25.0525004,"lon":121.6025803,"name":"市民大道八段","decorType":"bus_stop"},{"id":"node-4368462966","lat":25.0526629,"lon":121.6026162,"name":"市民大道八段","decorType":"bus_stop"},{"id":"node-4524863600","lat":25.05386,"lon":121.6034803,"name":"未命名郵局","decorType":"post_office"},{"id":"node-4588837337","lat":25.0403022,"lon":121.6088689,"name":"茅草埔山北峰","decorType":"mountain"},{"id":"node-5110349481","lat":25.0530225,"lon":121.6132402,"name":"恩友中心南港教會","decorType":"shrine"},{"id":"node-5680820504","lat":25.052793,"lon":121.6061031,"name":"摩斯漢堡","decorType":"burger"},{"id":"node-5733249172","lat":25.052411,"lon":121.6047082,"name":"大戸屋","decorType":"restaurant"},{"id":"node-5733258827","lat":25.0527033,"lon":121.6055938,"name":"QB HOUSE","decorType":"hair_salon"},{"id":"node-6327136504","lat":25.0523769,"lon":121.6060587,"name":"南港轉運站西站","decorType":"bus_stop"},{"id":"node-6327136506","lat":25.0523306,"lon":121.6057605,"name":"南港轉運站西站","decorType":"bus_stop"},{"id":"node-6327136508","lat":25.0524508,"lon":121.6060371,"name":"南港轉運站西站","decorType":"station"},{"id":"node-6327136510","lat":25.052361,"lon":121.6059625,"name":"南港轉運站西站","decorType":"bus_stop"},{"id":"node-6327136511","lat":25.0523457,"lon":121.6058628,"name":"南港轉運站西站","decorType":"bus_stop"},{"id":"node-6327136513","lat":25.0524033,"lon":121.6062482,"name":"南港轉運站西站","decorType":"bus_stop"},{"id":"node-6327136514","lat":25.0523907,"lon":121.6061491,"name":"南港轉運站西站","decorType":"bus_stop"},{"id":"node-6438451356","lat":25.0527346,"lon":121.6057803,"name":"Subway","decorType":"burger"},{"id":"node-6681649179","lat":25.0520408,"lon":121.6058314,"name":"未命名車站","decorType":"station"},{"id":"node-7004305905","lat":25.0526273,"lon":121.6047261,"name":"22:02火鍋","decorType":"restaurant"},{"id":"node-7004305907","lat":25.0531122,"lon":121.6072621,"name":"丸亀製麺","decorType":"burger"},{"id":"node-7004305908","lat":25.0532181,"lon":121.60835,"name":"甩尾卡丁車主題式餐廳","decorType":"restaurant"},{"id":"node-7106020086","lat":25.054235,"lon":121.6051112,"name":"Tea沃克","decorType":"cafe"},{"id":"node-7114067442","lat":25.0528854,"lon":121.6068532,"name":"日本蔦屋書店","decorType":"library"},{"id":"node-7194706952","lat":25.0529874,"lon":121.6126341,"name":"南桂坊農情館","decorType":"restaurant"},{"id":"node-7213752462","lat":25.0525074,"lon":121.6045815,"name":"瓦城泰國料理","decorType":"restaurant"},{"id":"node-7765594317","lat":25.0409735,"lon":121.6126013,"name":"小南門傳統豆花","decorType":"restaurant"},{"id":"node-7849377517","lat":25.0526693,"lon":121.6058765,"name":"路易莎咖啡","decorType":"cafe"},{"id":"node-7849377518","lat":25.0527126,"lon":121.6061264,"name":"Semeur聖娜","decorType":"bakery"},{"id":"node-7849377519","lat":25.0527503,"lon":121.6058573,"name":"Ikinari Steak","decorType":"restaurant"},{"id":"node-7849377520","lat":25.0527246,"lon":121.6057045,"name":"繼光香香雞","decorType":"burger"},{"id":"node-7849377521","lat":25.0526909,"lon":121.6060205,"name":"爭鮮外帶壽司","decorType":"restaurant"},{"id":"node-7849449242","lat":25.0527356,"lon":121.6072017,"name":"全家便利商店","decorType":"convenience"},{"id":"node-7849449243","lat":25.0527318,"lon":121.6067626,"name":"星巴克","decorType":"cafe"},{"id":"node-8410741327","lat":25.0527627,"lon":121.6059326,"name":"松本清","decorType":"pharmacy"},{"id":"node-8412095986","lat":25.0529234,"lon":121.607301,"name":"MAGiC TOUCH 点爭鮮","decorType":"restaurant"},{"id":"node-8412095987","lat":25.0526817,"lon":121.6059507,"name":"Duckling 喝鴨鴨","decorType":"cafe"},{"id":"node-8412095988","lat":25.0527892,"lon":121.6071871,"name":"日藥本舖","decorType":"pharmacy"},{"id":"node-8412095990","lat":25.0528715,"lon":121.6065261,"name":"萊爾富","decorType":"convenience"},{"id":"node-8432380503","lat":25.0519619,"lon":121.6067165,"name":"捷運南港站","decorType":"bus_stop"},{"id":"node-8438740355","lat":25.0529466,"lon":121.6074679,"name":"Mister Donut","decorType":"burger"},{"id":"node-8438740356","lat":25.0529382,"lon":121.6073874,"name":"すき家","decorType":"burger"},{"id":"node-8441425938","lat":25.0527277,"lon":121.6060642,"name":"這一小鍋","decorType":"restaurant"},{"id":"node-8441425939","lat":25.0527095,"lon":121.6059462,"name":"Mövenpick Café","decorType":"cafe"},{"id":"node-8441425940","lat":25.0526353,"lon":121.6046111,"name":"必勝客","decorType":"restaurant"},{"id":"node-8441425941","lat":25.0525583,"lon":121.6046553,"name":"豆腐村","decorType":"restaurant"},{"id":"node-8441425959","lat":25.0525756,"lon":121.6047663,"name":"高麗園銅盤烤肉","decorType":"restaurant"},{"id":"node-8441425960","lat":25.0525389,"lon":121.6050283,"name":"金色三麥 Le Blé d'Or","decorType":"restaurant"},{"id":"node-8441425961","lat":25.052654,"lon":121.6048626,"name":"牛角","decorType":"restaurant"},{"id":"node-8441425962","lat":25.0526655,"lon":121.6049414,"name":"麵家三士","decorType":"restaurant"},{"id":"node-8441425963","lat":25.0526759,"lon":121.6050283,"name":"串家物語","decorType":"restaurant"},{"id":"node-8441425964","lat":25.0524221,"lon":121.6048013,"name":"Mo-Mo Paradise","decorType":"restaurant"},{"id":"node-8441425965","lat":25.0526712,"lon":121.6055251,"name":"貳樓","decorType":"restaurant"},{"id":"node-9016392866","lat":25.0537183,"lon":121.6005389,"name":"家樂福","decorType":"supermarket"},{"id":"node-9063577974","lat":25.0530073,"lon":121.6073779,"name":"藏壽司","decorType":"burger"},{"id":"node-9063577975","lat":25.0524343,"lon":121.6048945,"name":"GU","decorType":"clothing"},{"id":"node-9063577976","lat":25.0524459,"lon":121.6049638,"name":"Uniqlo","decorType":"clothing"},{"id":"node-9063577978","lat":25.0528969,"lon":121.6071347,"name":"聖瑪莉","decorType":"bakery"},{"id":"node-9064494062","lat":25.0526245,"lon":121.6052113,"name":"Chaffee","decorType":"cafe"},{"id":"node-9064494063","lat":25.0526277,"lon":121.6052406,"name":"天仁茗茶","decorType":"cafe"},{"id":"node-9064494064","lat":25.0525411,"lon":121.6055455,"name":"The Body Shop","decorType":"cosmetics"},{"id":"node-9518867717","lat":25.0541441,"lon":121.6015697,"name":"玉虫画室","decorType":"cafe"},{"id":"node-9944380218","lat":25.0525177,"lon":121.6047006,"name":"喜樂時代影城","decorType":"movie_theater"},{"id":"node-11813554566","lat":25.0530436,"lon":121.6072793,"name":"TR Lounge 臺鐵南港禮賓室","decorType":"cafe"},{"id":"node-12133991466","lat":25.0524284,"lon":121.606864,"name":"大河牧場","decorType":"restaurant"},{"id":"node-12531330992","lat":25.0407669,"lon":121.6129932,"name":"路易莎咖啡","decorType":"cafe"},{"id":"node-13165334918","lat":25.0518857,"lon":121.609775,"name":"樂雅樂","decorType":"restaurant"},{"id":"node-13165334919","lat":25.0519646,"lon":121.6098823,"name":"摩斯漢堡","decorType":"burger"},{"id":"way-73567632","lat":25.053922,"lon":121.6069398,"name":"南興公園","decorType":"park"},{"id":"way-73750289","lat":25.0540853,"lon":121.6034534,"name":"南港郵局","decorType":"post_office"},{"id":"way-74920640","lat":25.0499802,"lon":121.602841,"name":"未命名森林","decorType":"forest"},{"id":"way-83228948","lat":25.0468726,"lon":121.6131057,"name":"中研公園","decorType":"park"},{"id":"way-127948707","lat":25.041063,"lon":121.6113928,"name":"人文社會科學館","decorType":"library"},{"id":"way-127950347","lat":25.0408057,"lon":121.6122303,"name":"北雲餐廳","decorType":"restaurant"},{"id":"way-135640775","lat":25.0425196,"lon":121.6124395,"name":"家驊橋","decorType":"bridge"},{"id":"way-135640781","lat":25.0463681,"lon":121.6122749,"name":"未命名橋樑","decorType":"bridge"},{"id":"way-135640786","lat":25.0469593,"lon":121.609738,"name":"未命名水邊","decorType":"waterside"},{"id":"way-135640799","lat":25.0473529,"lon":121.6071163,"name":"未命名水邊","decorType":"waterside"},{"id":"way-156280781","lat":25.0423752,"lon":121.61278,"name":"生態池","decorType":"waterside"},{"id":"way-233331393","lat":25.0528905,"lon":121.6065738,"name":"南港車站","decorType":"station"},{"id":"way-237887422","lat":25.0404531,"lon":121.6114325,"name":"未命名水邊","decorType":"waterside"},{"id":"way-253766607","lat":25.0402825,"lon":121.6114581,"name":"時光的斷章","decorType":"park"},{"id":"way-254447006","lat":25.0419697,"lon":121.6114807,"name":"中研福德宮","decorType":"shrine"},{"id":"way-255359572","lat":25.0404683,"lon":121.6112874,"name":"未命名橋樑","decorType":"bridge"},{"id":"way-255359573","lat":25.0404746,"lon":121.6115724,"name":"未命名橋樑","decorType":"bridge"},{"id":"way-255393981","lat":25.039687,"lon":121.6123588,"name":"未命名森林","decorType":"forest"},{"id":"way-259489537","lat":25.0420169,"lon":121.6129357,"name":"未命名森林","decorType":"forest"},{"id":"way-286919494","lat":25.0514936,"lon":121.607398,"name":"臺北市極限運動訓練中心","decorType":"stadium"},{"id":"way-298486595","lat":25.0474265,"lon":121.6122472,"name":"勤力橋","decorType":"bridge"},{"id":"way-313682637","lat":25.053523,"lon":121.6044603,"name":"瓶蓋工廠台北製造所","decorType":"art_gallery"},{"id":"way-365993919","lat":25.0476684,"lon":121.6131267,"name":"國際研究生教學研究大樓","decorType":"university"},{"id":"way-371541998","lat":25.0466588,"lon":121.6131649,"name":"未命名公園","decorType":"park"},{"id":"way-438607062","lat":25.0529314,"lon":121.6117495,"name":"未命名森林","decorType":"forest"},{"id":"way-556511634","lat":25.0462806,"lon":121.6056946,"name":"未命名橋樑","decorType":"bridge"},{"id":"way-556511638","lat":25.0459283,"lon":121.6047317,"name":"未命名橋樑","decorType":"bridge"},{"id":"way-556511643","lat":25.0461422,"lon":121.6068184,"name":"未命名橋樑","decorType":"bridge"},{"id":"way-556511645","lat":25.0466055,"lon":121.6084108,"name":"未命名橋樑","decorType":"bridge"},{"id":"way-556511658","lat":25.0523098,"lon":121.6115403,"name":"洛碁大飯店南港館","decorType":"hotel"},{"id":"way-556511685","lat":25.0460823,"lon":121.6060608,"name":"未命名水邊","decorType":"waterside"},{"id":"way-558419120","lat":25.0432796,"lon":121.6022319,"name":"未命名森林","decorType":"forest"},{"id":"way-615595612","lat":25.0528537,"lon":121.6078212,"name":"未命名橋樑","decorType":"bridge"},{"id":"way-640049476","lat":25.0429479,"lon":121.6127297,"name":"未命名森林","decorType":"forest"},{"id":"way-702660269","lat":25.0526421,"lon":121.6043803,"name":"未命名橋樑","decorType":"bridge"},{"id":"way-705365216","lat":25.054142,"lon":121.607255,"name":"未命名公園","decorType":"park"},{"id":"way-705366277","lat":25.0536903,"lon":121.6061352,"name":"瓶蓋印象公園","decorType":"park"},{"id":"way-706686410","lat":25.0529133,"lon":121.6060685,"name":"未命名公車站","decorType":"bus_stop"},{"id":"way-706686411","lat":25.0527373,"lon":121.6061011,"name":"未命名公車站","decorType":"bus_stop"},{"id":"way-706888511","lat":25.0537214,"lon":121.6120999,"name":"未命名公園","decorType":"park"},{"id":"way-710690883","lat":25.0530771,"lon":121.6060567,"name":"未命名公車站","decorType":"bus_stop"},{"id":"way-710692150","lat":25.0527542,"lon":121.6062941,"name":"未命名公車站","decorType":"bus_stop"},{"id":"way-750986399","lat":25.0490325,"lon":121.6111979,"name":"未命名橋樑","decorType":"bridge"},{"id":"way-764218159","lat":25.047679,"lon":121.6120993,"name":"研究院路一段130巷","decorType":"bridge"},{"id":"way-831595860","lat":25.0466459,"lon":121.6085672,"name":"未命名橋樑","decorType":"bridge"},{"id":"way-831595861","lat":25.0474986,"lon":121.6115463,"name":"未命名水邊","decorType":"waterside"},{"id":"way-831595862","lat":25.0476773,"lon":121.6121931,"name":"未命名水邊","decorType":"waterside"},{"id":"way-831595874","lat":25.0469917,"lon":121.6106922,"name":"未命名水邊","decorType":"waterside"},{"id":"way-877532229","lat":25.0521721,"lon":121.6072875,"name":"未命名公車站","decorType":"bus_stop"},{"id":"way-990611484","lat":25.051785,"lon":121.60705,"name":"未命名水邊","decorType":"waterside"},{"id":"way-1011576659","lat":25.0475037,"lon":121.6122394,"name":"勤力橋","decorType":"bridge"},{"id":"way-1011576660","lat":25.0474274,"lon":121.6122431,"name":"勤力橋","decorType":"bridge"},{"id":"way-1011576662","lat":25.0473605,"lon":121.612249,"name":"未命名橋樑","decorType":"bridge"},{"id":"way-1019902082","lat":25.0494766,"lon":121.6103077,"name":"未命名森林","decorType":"forest"},{"id":"way-1019902083","lat":25.0447014,"lon":121.6098948,"name":"未命名森林","decorType":"forest"},{"id":"way-1022793678","lat":25.0524,"lon":121.6031822,"name":"未命名橋樑","decorType":"bridge"},{"id":"way-1022793679","lat":25.0524833,"lon":121.6033409,"name":"未命名橋樑","decorType":"bridge"},{"id":"way-1061049273","lat":25.0531215,"lon":121.6063226,"name":"未命名公車站","decorType":"bus_stop"},{"id":"way-1067121258","lat":25.0468716,"lon":121.6082754,"name":"未命名水邊","decorType":"waterside"},{"id":"way-1105967486","lat":25.0425257,"lon":121.6124379,"name":"家驊橋","decorType":"bridge"},{"id":"way-1258907222","lat":25.0473886,"lon":121.6096965,"name":"三重埔埤","decorType":"waterside"},{"id":"way-1451937948","lat":25.0518319,"lon":121.6007754,"name":"未命名水邊","decorType":"waterside"},{"id":"way-1451937949","lat":25.051844,"lon":121.6015727,"name":"未命名水邊","decorType":"waterside"}]}