{"bbox":{"south":25.038731,"north":25.054338,"west":121.457,"east":121.470031},"pois":[{"id":"node-2083320835","lat":25.039903,"lon":121.460319,"name":"頭前庄","decorType":"station"},{"id":"node-2392783264","lat":25.051847,"lon":121.457816,"name":"福壽公園","decorType":"bus_stop"},{"id":"node-2392783265","lat":25.052065,"lon":121.457775,"name":"福壽公園","decorType":"bus_stop"},{"id":"node-2398287834","lat":25.051514,"lon":121.457725,"name":"全家便利商店","decorType":"convenience"},{"id":"node-2398287835","lat":25.052383,"lon":121.457622,"name":"昌明店","decorType":"supermarket"},{"id":"node-2398287836","lat":25.051295,"lon":121.457392,"name":"家樂福超市","decorType":"supermarket"},{"id":"node-2398287837","lat":25.051805,"lon":121.457829,"name":"7-Eleven","decorType":"convenience"},{"id":"node-2398288180","lat":25.049522,"lon":121.458328,"name":"85度C","decorType":"cafe"},{"id":"node-2399952145","lat":25.038997,"lon":121.460839,"name":"捷運頭前庄站 (2號出口)","decorType":"station"},{"id":"node-2399952146","lat":25.039777,"lon":121.460545,"name":"捷運頭前庄站 (1號出口)","decorType":"station"},{"id":"node-2399952148","lat":25.039714,"lon":121.462038,"name":"捷運頭前庄站 (3號出口)","decorType":"station"},{"id":"node-2399952151","lat":25.040379,"lon":121.46227,"name":"捷運頭前庄站 (4號出口)","decorType":"station"},{"id":"node-2399952183","lat":25.048048,"lon":121.459689,"name":"仁義里","decorType":"bus_stop"},{"id":"node-2399952187","lat":25.049382,"lon":121.457639,"name":"幸福思源路口","decorType":"bus_stop"},{"id":"node-2399952188","lat":25.049473,"lon":121.457782,"name":"幸福思源路口","decorType":"bus_stop"},{"id":"node-2399952191","lat":25.045709,"lon":121.45995,"name":"思源復興路口","decorType":"bus_stop"},{"id":"node-2399952192","lat":25.045431,"lon":121.459733,"name":"思源復興路口","decorType":"bus_stop"},{"id":"node-2399952194","lat":25.04005,"lon":121.459875,"name":"捷運頭前庄站 (思源路)","decorType":"bus_stop"},{"id":"node-2399952195","lat":25.042419,"lon":121.460006,"name":"臺北醫院","decorType":"bus_stop"},{"id":"node-2399952196","lat":25.042939,"lon":121.459736,"name":"臺北醫院","decorType":"bus_stop"},{"id":"node-2400423295","lat":25.0526,"lon":121.458066,"name":"OK超商","decorType":"convenience"},{"id":"node-2400423398","lat":25.052699,"lon":121.457564,"name":"未命名神社","decorType":"shrine"},{"id":"node-2401355965","lat":25.048889,"lon":121.458188,"name":"眼鏡張雞肉飯","decorType":"restaurant"},{"id":"node-2401355966","lat":25.049515,"lon":121.457772,"name":"7-Eleven","decorType":"convenience"},{"id":"node-2401356575","lat":25.051089,"lon":121.457382,"name":"未命名美髮院","decorType":"hair_salon"},{"id":"node-2410061269","lat":25.05173,"lon":121.457799,"name":"未命名五金行","decorType":"hardware"},{"id":"node-2410061382","lat":25.049944,"lon":121.458126,"name":"全家便利商店","decorType":"convenience"},{"id":"node-2410061384","lat":25.049989,"lon":121.459967,"name":"幸福","decorType":"station"},{"id":"node-2412235273","lat":25.054232,"lon":121.458125,"name":"全家便利商店","decorType":"convenience"},{"id":"node-2419824439","lat":25.039867,"lon":121.462248,"name":"捷運頭前庄站","decorType":"bus_stop"},{"id":"node-2419824440","lat":25.040124,"lon":121.462155,"name":"捷運頭前庄站","decorType":"bus_stop"},{"id":"node-2419824444","lat":25.05267,"lon":121.458063,"name":"正統肉羹麵","decorType":"restaurant"},{"id":"node-2493724158","lat":25.051025,"lon":121.457827,"name":"未命名神社","decorType":"shrine"},{"id":"node-2493724202","lat":25.052392,"lon":121.457433,"name":"悟饕","decorType":"restaurant"},{"id":"node-2498533931","lat":25.0532,"lon":121.457908,"name":"未命名美髮院","decorType":"hair_salon"},{"id":"node-2498534027","lat":25.049325,"lon":121.465083,"name":"化成路口","decorType":"bus_stop"},{"id":"node-2498534028","lat":25.049418,"lon":121.464896,"name":"化成路口","decorType":"bus_stop"},{"id":"node-2498534031","lat":25.049394,"lon":121.461149,"name":"幸福東路","decorType":"bus_stop"},{"id":"node-2498534032","lat":25.049543,"lon":121.461272,"name":"幸福東路","decorType":"bus_stop"},{"id":"node-2498534033","lat":25.053136,"lon":121.466239,"name":"頭前國小","decorType":"bus_stop"},{"id":"node-2498534034","lat":25.053406,"lon":121.466329,"name":"頭前國小","decorType":"bus_stop"},{"id":"node-2498534037","lat":25.050968,"lon":121.465881,"name":"頭前里","decorType":"bus_stop"},{"id":"node-2498534038","lat":25.051149,"lon":121.466048,"name":"頭前里","decorType":"bus_stop"},{"id":"node-2536508250","lat":25.0479,"lon":121.458098,"name":"全家便利商店","decorType":"convenience"},{"id":"node-2536508253","lat":25.052249,"lon":121.457997,"name":"北港香菇肉羹","decorType":"restaurant"},{"id":"node-2536508255","lat":25.052388,"lon":121.457731,"name":"自助餐","decorType":"restaurant"},{"id":"node-2536516053","lat":25.052927,"lon":121.458076,"name":"萊爾富","decorType":"convenience"},{"id":"node-2536516055","lat":25.0495,"lon":121.45758,"name":"樂福健保藥局","decorType":"pharmacy"},{"id":"node-2559685931","lat":25.050883,"lon":121.458004,"name":"未命名藥局","decorType":"pharmacy"},{"id":"node-2592662741","lat":25.049587,"lon":121.458284,"name":"未命名美髮院","decorType":"hair_salon"},{"id":"node-2592662743","lat":25.052581,"lon":121.458819,"name":"未命名神社","decorType":"shrine"},{"id":"node-2618582885","lat":25.049098,"lon":121.458182,"name":"未命名餐廳","decorType":"restaurant"},{"id":"node-2618582890","lat":25.04952,"lon":121.457912,"name":"未命名電器行","decorType":"electronics"},{"id":"node-2618582910","lat":25.049361,"lon":121.458547,"name":"吉俐通訊","decorType":"electronics"},{"id":"node-2691111082","lat":25.049827,"lon":121.458249,"name":"康是美","decorType":"pharmacy"},{"id":"node-2691111091","lat":25.049732,"lon":121.458268,"name":"鮮茶道","decorType":"cafe"},{"id":"node-2706850917","lat":25.05054,"lon":121.458137,"name":"未命名五金行","decorType":"hardware"},{"id":"node-2706851309","lat":25.049825,"lon":121.458138,"name":"未命名餐廳","decorType":"restaurant"},{"id":"node-2706851310","lat":25.050041,"lon":121.458095,"name":"未命名藥局","decorType":"pharmacy"},{"id":"node-2713423084","lat":25.044821,"lon":121.468494,"name":"中興街口","decorType":"bus_stop"},{"id":"node-2713423085","lat":25.045489,"lon":121.469503,"name":"中興街口","decorType":"bus_stop"},{"id":"node-2713423087","lat":25.043125,"lon":121.466658,"name":"金陵女中","decorType":"bus_stop"},{"id":"node-2713423092","lat":25.042761,"lon":121.466578,"name":"金陵女中","decorType":"bus_stop"},{"id":"node-2713429036","lat":25.042622,"lon":121.464652,"name":"化成路","decorType":"bus_stop"},{"id":"node-2713429037","lat":25.042965,"lon":121.464942,"name":"化成路","decorType":"bus_stop"},{"id":"node-2713449515","lat":25.044576,"lon":121.462752,"name":"復興路三段","decorType":"bus_stop"},{"id":"node-2713449520","lat":25.044486,"lon":121.462781,"name":"復興路三段","decorType":"bus_stop"},{"id":"node-2713449524","lat":25.044467,"lon":121.4585,"name":"臺北醫院(復興路)","decorType":"bus_stop"},{"id":"node-2713449528","lat":25.044369,"lon":121.458385,"name":"臺北醫院(復興路)","decorType":"bus_stop"},{"id":"node-2783002899","lat":25.049325,"lon":121.457917,"name":"未命名服飾店","decorType":"clothing"},{"id":"node-2799088228","lat":25.053192,"lon":121.458064,"name":"永和豆漿","decorType":"restaurant"},{"id":"node-2799088237","lat":25.053612,"lon":121.457942,"name":"龍鳳圓環滷肉飯","decorType":"restaurant"},{"id":"node-2808425655","lat":25.054308,"lon":121.457586,"name":"頭前國中(中原路)","decorType":"bus_stop"},{"id":"node-2917574040","lat":25.050706,"lon":121.458074,"name":"未命名超市","decorType":"supermarket"},{"id":"node-2917574216","lat":25.05297,"lon":121.457927,"name":"未命名超市","decorType":"supermarket"},{"id":"node-2917574235","lat":25.049735,"lon":121.458149,"name":"刀削麵","decorType":"restaurant"},{"id":"node-2917574236","lat":25.05039,"lon":121.458039,"name":"台南擔仔麵","decorType":"restaurant"},{"id":"node-2917574237","lat":25.05218,"lon":121.457978,"name":"老仔麵攤快炒","decorType":"restaurant"},{"id":"node-2917574238","lat":25.049949,"lon":121.458254,"name":"知味滷肉飯","decorType":"restaurant"},{"id":"node-2917574239","lat":25.052301,"lon":121.458011,"name":"自助餐","decorType":"restaurant"},{"id":"node-2984580128","lat":25.052147,"lon":121.457968,"name":"好餃舍手工水餃","decorType":"restaurant"},{"id":"node-3039544239","lat":25.052634,"lon":121.457321,"name":"未命名美髮院","decorType":"hair_salon"},{"id":"node-3039574433","lat":25.053795,"lon":121.457939,"name":"美麗角早午餐","decorType":"restaurant"},{"id":"node-3039574633","lat":25.052676,"lon":121.457953,"name":"阿財水果店","decorType":"supermarket"},{"id":"node-3057602846","lat":25.049242,"lon":121.45994,"name":"捷運幸福站","decorType":"bus_stop"},{"id":"node-3057602847","lat":25.050734,"lon":121.459669,"name":"捷運幸福站","decorType":"bus_stop"},{"id":"node-3649228904","lat":25.046142,"lon":121.458026,"name":"臺灣基督長老教會","decorType":"shrine"},{"id":"node-3666291990","lat":25.049242,"lon":121.465913,"name":"7-Eleven","decorType":"convenience"},{"id":"node-3674723637","lat":25.041084,"lon":121.463725,"name":"頭前","decorType":"bus_stop"},{"id":"node-3674723638","lat":25.04173,"lon":121.465134,"name":"頭前","decorType":"bus_stop"},{"id":"node-3689283570","lat":25.053458,"lon":121.46909,"name":"中興北街","decorType":"bus_stop"},{"id":"node-3689283571","lat":25.054096,"lon":121.468888,"name":"中興北街","decorType":"bus_stop"},{"id":"node-3689283613","lat":25.052346,"lon":121.469146,"name":"萊爾富","decorType":"convenience"},{"id":"node-3812564427","lat":25.039501,"lon":121.461387,"name":"頭前庄","decorType":"station"},{"id":"node-3826540533","lat":25.052557,"lon":121.468254,"name":"安國宮","decorType":"bus_stop"},{"id":"node-4116867903","lat":25.045397,"lon":121.457973,"name":"全家便利商店","decorType":"convenience"},{"id":"node-4223293711","lat":25.044332,"lon":121.457491,"name":"7-Eleven","decorType":"convenience"},{"id":"node-4439861340","lat":25.044449,"lon":121.461937,"name":"祖德素食超市","decorType":"supermarket"},{"id":"node-4524191959","lat":25.041577,"lon":121.465383,"name":"宜家家居餐廳","decorType":"restaurant"},{"id":"node-4937873728","lat":25.04286,"lon":121.467638,"name":"吉豚屋","decorType":"burger"},{"id":"node-5010481124","lat":25.043084,"lon":121.467847,"name":"家樂福","decorType":"supermarket"},{"id":"node-5010481125","lat":25.04319,"lon":121.467853,"name":"Puma Outlet","decorType":"clothing"},{"id":"node-5010481126","lat":25.04323,"lon":121.468034,"name":"Adidas outlet","decorType":"clothing"},{"id":"node-5160603238","lat":25.053515,"lon":121.460294,"name":"星巴克","decorType":"cafe"},{"id":"node-5160603248","lat":25.051099,"lon":121.461195,"name":"幸福讚精品飯店","decorType":"restaurant"},{"id":"node-5534085072","lat":25.04274,"lon":121.457942,"name":"長青街台北醫院站","decorType":"bus_stop"},{"id":"node-5534085099","lat":25.042794,"lon":121.457899,"name":"長青街台北醫院站","decorType":"bus_stop"},{"id":"node-6182991537","lat":25.052743,"lon":121.466338,"name":"頭前國小好吃炸雞","decorType":"restaurant"},{"id":"node-6480711085","lat":25.043317,"lon":121.467621,"name":"星巴克","decorType":"cafe"},{"id":"node-6919810818","lat":25.051347,"lon":121.466249,"name":"貴族世家","decorType":"restaurant"},{"id":"node-7001356665","lat":25.046006,"lon":121.459651,"name":"新莊慈悲四面佛","decorType":"shrine"},{"id":"node-7001372011","lat":25.042599,"lon":121.460284,"name":"晶宴會館","decorType":"restaurant"},{"id":"node-7813817885","lat":25.052342,"lon":121.462597,"name":"頭前運動公園","decorType":"bus_stop"},{"id":"node-7813817886","lat":25.052596,"lon":121.462367,"name":"頭前運動公園","decorType":"bus_stop"},{"id":"node-7813817887","lat":25.052266,"lon":121.468508,"name":"安國宮","decorType":"bus_stop"},{"id":"node-7813817894","lat":25.040346,"lon":121.460266,"name":"捷運頭前庄站 (思源路)","decorType":"bus_stop"},{"id":"node-7813817897","lat":25.052404,"lon":121.459906,"name":"思源頭前路口","decorType":"bus_stop"},{"id":"node-8059100995","lat":25.050988,"lon":121.461143,"name":"幸福讚精品飯店","decorType":"hotel"},{"id":"node-8118239046","lat":25.03921,"lon":121.457482,"name":"全家便利商店","decorType":"convenience"},{"id":"node-8118239047","lat":25.043002,"lon":121.459391,"name":"全家便利商店","decorType":"convenience"},{"id":"node-8118239061","lat":25.0457,"lon":121.469538,"name":"全家便利商店","decorType":"convenience"},{"id":"node-8118239062","lat":25.046044,"lon":121.467512,"name":"全家便利商店","decorType":"convenience"},{"id":"node-8118272859","lat":25.053821,"lon":121.46656,"name":"全家便利商店","decorType":"convenience"},{"id":"node-8129076897","lat":25.051058,"lon":121.461842,"name":"波比髮型-新莊","decorType":"hair_salon"},{"id":"node-8129122961","lat":25.049337,"lon":121.45757,"name":"阿娥涼麵","decorType":"burger"},{"id":"node-8385313482","lat":25.049724,"lon":121.465726,"name":"八方雲集","decorType":"burger"},{"id":"node-8385313653","lat":25.046781,"lon":121.467421,"name":"八方雲集","decorType":"burger"},{"id":"node-8432380448","lat":25.045236,"lon":121.457813,"name":"思賢國小站","decorType":"bus_stop"},{"id":"node-8432380449","lat":25.045241,"lon":121.457868,"name":"福樂街自立街","decorType":"bus_stop"},{"id":"node-8432400038","lat":25.045887,"lon":121.457713,"name":"思賢國小站","decorType":"bus_stop"},{"id":"node-8432400039","lat":25.048215,"lon":121.458057,"name":"幸福路站","decorType":"bus_stop"},{"id":"node-8432400040","lat":25.048215,"lon":121.458157,"name":"幸福路站","decorType":"bus_stop"},{"id":"node-9340934991","lat":25.050814,"lon":121.461002,"name":"蝦皮店到店","decorType":"convenience"},{"id":"node-9340934996","lat":25.044364,"lon":121.458893,"name":"蝦皮店到店","decorType":"convenience"},{"id":"node-9367391620","lat":25.05381,"lon":121.466093,"name":"六扇門","decorType":"restaurant"},{"id":"node-9370672585","lat":25.047885,"lon":121.465745,"name":"頭前派出所","decorType":"bus_stop"},{"id":"node-9370672586","lat":25.048106,"lon":121.465576,"name":"頭前派出所","decorType":"bus_stop"},{"id":"node-9370672595","lat":25.049508,"lon":121.465665,"name":"霸味羊肉爐","decorType":"restaurant"},{"id":"node-9370672596","lat":25.049999,"lon":121.466004,"name":"一帆穿的流行廣場","decorType":"clothing"},{"id":"node-9370672598","lat":25.050026,"lon":121.46574,"name":"三媽臭臭鍋","decorType":"restaurant"},{"id":"node-9370672626","lat":25.051588,"lon":121.465903,"name":"50嵐","decorType":"cafe"},{"id":"node-9370672627","lat":25.051719,"lon":121.465935,"name":"7-Eleven","decorType":"convenience"},{"id":"node-9370672628","lat":25.051918,"lon":121.466241,"name":"清心福全","decorType":"cafe"},{"id":"node-9373325210","lat":25.050079,"lon":121.460316,"name":"未命名車站","decorType":"station"},{"id":"node-9373325211","lat":25.049797,"lon":121.460324,"name":"未命名車站","decorType":"station"},{"id":"node-9385689519","lat":25.049281,"lon":121.45816,"name":"50嵐","decorType":"cafe"},{"id":"node-9385689520","lat":25.049346,"lon":121.45849,"name":"烏弄","decorType":"cafe"},{"id":"node-9385689522","lat":25.049589,"lon":121.45962,"name":"寶雅","decorType":"pharmacy"},{"id":"node-9385929630","lat":25.049332,"lon":121.457983,"name":"不二弄咖啡","decorType":"cafe"},{"id":"node-9831175515","lat":25.049007,"lon":121.465853,"name":"吉野烤肉飯","decorType":"restaurant"},{"id":"node-10196239196","lat":25.048243,"lon":121.459465,"name":"米歐中西式早午餐越式料理","decorType":"restaurant"},{"id":"node-10196239197","lat":25.047459,"lon":121.457438,"name":"羴羴","decorType":"restaurant"},{"id":"node-10196239198","lat":25.048018,"lon":121.458011,"name":"原味廣東粥","decorType":"restaurant"},{"id":"node-11262727359","lat":25.046996,"lon":121.45736,"name":"新莊仁愛福德宮","decorType":"shrine"},{"id":"node-12345194429","lat":25.04986,"lon":121.45965,"name":"Pig Flower 豚花韓式料理","decorType":"restaurant"},{"id":"node-12345194430","lat":25.050263,"lon":121.459626,"name":"すき家","decorType":"burger"},{"id":"node-12570502798","lat":25.04217,"lon":121.459651,"name":"EGG BUN Breakfast Sandwich & Espresso","decorType":"restaurant"},{"id":"node-12782181530","lat":25.043246,"lon":121.467737,"name":"ASICS","decorType":"clothing"},{"id":"node-12782181563","lat":25.043287,"lon":121.467403,"name":"12MINI快煮鍋","decorType":"restaurant"},{"id":"node-12782181564","lat":25.043153,"lon":121.467678,"name":"Nike Factory Store","decorType":"clothing"},{"id":"node-12782181565","lat":25.043266,"lon":121.467839,"name":"Skechers","decorType":"clothing"},{"id":"node-12782181566","lat":25.04336,"lon":121.467834,"name":"Timberland","decorType":"clothing"},{"id":"node-12782181567","lat":25.043136,"lon":121.468061,"name":"ABC MART","decorType":"clothing"},{"id":"node-12782181568","lat":25.043228,"lon":121.46765,"name":"NET","decorType":"clothing"},{"id":"node-12782181569","lat":25.043041,"lon":121.467703,"name":"義式屋 古拉爵","decorType":"restaurant"},{"id":"node-12782181570","lat":25.043213,"lon":121.467421,"name":"石二鍋","decorType":"restaurant"},{"id":"node-12782181571","lat":25.042941,"lon":121.467727,"name":"三商巧福","decorType":"restaurant"},{"id":"node-12782181572","lat":25.042832,"lon":121.467523,"name":"Mo-Mo Paradise","decorType":"restaurant"},{"id":"node-12782181573","lat":25.043341,"lon":121.467727,"name":"Mister Donut","decorType":"burger"},{"id":"node-12782181574","lat":25.042913,"lon":121.467606,"name":"和民 手作廚房","decorType":"restaurant"},{"id":"node-12782181575","lat":25.043126,"lon":121.467443,"name":"定食8","decorType":"restaurant"},{"id":"node-12782181576","lat":25.042967,"lon":121.467843,"name":"らあめん花月嵐","decorType":"restaurant"},{"id":"node-12782181577","lat":25.04307,"lon":121.468079,"name":"哈林運動世界","decorType":"clothing"},{"id":"node-12782181579","lat":25.042915,"lon":121.46785,"name":"瓦城EXPRESS","decorType":"restaurant"},{"id":"node-13064632013","lat":25.049063,"lon":121.469626,"name":"EGG BUN Breakfast Sandwich & Espresso","decorType":"restaurant"},{"id":"node-13126420923","lat":25.042168,"lon":121.467267,"name":"萊爾富","decorType":"convenience"},{"id":"node-13335209103","lat":25.05243,"lon":121.459441,"name":"萊爾富","decorType":"convenience"},{"id":"node-13423799004","lat":25.053351,"lon":121.458169,"name":"萊爾富","decorType":"convenience"},{"id":"node-13423799007","lat":25.0509,"lon":121.465985,"name":"萊爾富","decorType":"convenience"},{"id":"node-13423799010","lat":25.043737,"lon":121.457925,"name":"萊爾富","decorType":"convenience"},{"id":"node-13423799011","lat":25.046519,"lon":121.465517,"name":"萊爾富","decorType":"convenience"},{"id":"node-13423799014","lat":25.049246,"lon":121.460406,"name":"萊爾富","decorType":"convenience"},{"id":"node-13423799017","lat":25.052162,"lon":121.461859,"name":"萊爾富","decorType":"convenience"},{"id":"way-225901788","lat":25.051181,"lon":121.462897,"name":"頭前運動公園","decorType":"park"},{"id":"way-230842168","lat":25.051913,"lon":121.457326,"name":"福壽公園","decorType":"park"},{"id":"way-231440046","lat":25.054125,"lon":121.458907,"name":"千葉火鍋","decorType":"restaurant"},{"id":"way-232888055","lat":25.0414,"lon":121.467207,"name":"新莊越堤道","decorType":"bridge"},{"id":"way-241781647","lat":25.054154,"lon":121.458333,"name":"錢都涮涮鍋","decorType":"restaurant"},{"id":"way-288206615","lat":25.050461,"lon":121.463,"name":"未命名橋樑","decorType":"bridge"},{"id":"way-288206625","lat":25.050447,"lon":121.463014,"name":"未命名水邊","decorType":"waterside"},{"id":"way-311471483","lat":25.047564,"lon":121.46169,"name":"化成公園","decorType":"park"},{"id":"way-363297880","lat":25.043251,"lon":121.467878,"name":"家樂福","decorType":"supermarket"},{"id":"way-366911428","lat":25.043553,"lon":121.467128,"name":"未命名橋樑","decorType":"bridge"},{"id":"way-448608798","lat":25.042596,"lon":121.466609,"name":"生態池","decorType":"waterside"},{"id":"way-456140225","lat":25.041028,"lon":121.462771,"name":"Uniqlo","decorType":"clothing"},{"id":"way-456140232","lat":25.043417,"lon":121.467327,"name":"未命名橋樑","decorType":"bridge"},{"id":"way-456140234","lat":25.041895,"lon":121.466831,"name":"未命名橋樑","decorType":"bridge"},{"id":"way-456140246","lat":25.038898,"lon":121.458954,"name":"未命名橋樑","decorType":"bridge"},{"id":"way-459063302","lat":25.04574,"lon":121.457389,"name":"未命名體育館","decorType":"stadium"},{"id":"way-531653601","lat":25.051125,"lon":121.461213,"name":"幸福讚精品飯店","decorType":"restaurant"},{"id":"way-765172812","lat":25.049865,"lon":121.460065,"name":"捷運幸福站","decorType":"station"},{"id":"way-765172818","lat":25.039634,"lon":121.460405,"name":"捷運頭前庄站","decorType":"station"},{"id":"way-943590940","lat":25.04485,"lon":121.468433,"name":"二重埔公園","decorType":"park"},{"id":"way-1015909551","lat":25.050159,"lon":121.465699,"name":"燦坤3C","decorType":"electronics"},{"id":"way-1015909552","lat":25.050399,"lon":121.465718,"name":"家樂福超市","decorType":"supermarket"},{"id":"way-1015909562","lat":25.05239,"lon":121.46588,"name":"未命名橋樑","decorType":"bridge"},{"id":"way-1016225562","lat":25.049772,"lon":121.459946,"name":"未命名橋樑","decorType":"bridge"},{"id":"way-1023830439","lat":25.048167,"lon":121.460434,"name":"藏壽司","decorType":"burger"},{"id":"way-1228832729","lat":25.039622,"lon":121.460333,"name":"未命名公車站","decorType":"bus_stop"},{"id":"way-1228832730","lat":25.039663,"lon":121.460484,"name":"未命名公車站","decorType":"bus_stop"},{"id":"way-1228832771","lat":25.050049,"lon":121.460059,"name":"未命名公車站","decorType":"bus_stop"},{"id":"way-1228832813","lat":25.050046,"lon":121.459903,"name":"未命名公車站","decorType":"bus_stop"},{"id":"way-1316259124","lat":25.039616,"lon":121.461623,"name":"未命名公車站","decorType":"bus_stop"},{"id":"way-1380601696","lat":25.042797,"lon":121.467696,"name":"未命名橋樑","decorType":"bridge"},{"id":"way-1380601697","lat":25.043723,"lon":121.468082,"name":"未命名橋樑","decorType":"bridge"},{"id":"way-1380601698","lat":25.043655,"lon":121.468111,"name":"未命名橋樑","decorType":"bridge"},{"id":"way-1380601709","lat":25.043334,"lon":121.467201,"name":"未命名橋樑","decorType":"bridge"}]}