{"bbox":{"south":25.038731,"north":25.054338,"west":121.600344,"east":121.613375},"pois":[{"id":"node-860227978","lat":25.052558,"lon":121.6078,"name":"捷運南港站","decorType":"bus_stop"},{"id":"node-873134180","lat":25.054321,"lon":121.60567,"name":"麥當勞","decorType":"burger"},{"id":"node-913277611","lat":25.05431,"lon":121.606832,"name":"南港行政中心","decorType":"bus_stop"},{"id":"node-2083458283","lat":25.040732,"lon":121.61298,"name":"摩斯漢堡","decorType":"burger"},{"id":"node-2309134841","lat":25.052391,"lon":121.610312,"name":"台北生技園區","decorType":"bus_stop"},{"id":"node-2309134843","lat":25.051471,"lon":121.602636,"name":"南港機廠","decorType":"bus_stop"},{"id":"node-2310689462","lat":25.052208,"lon":121.60716,"name":"捷運南港站","decorType":"bus_stop"},{"id":"node-2310689463","lat":25.052586,"lon":121.6103,"name":"台北生技園區","decorType":"bus_stop"},{"id":"node-2310689464","lat":25.051563,"lon":121.601074,"name":"南港機廠","decorType":"bus_stop"},{"id":"node-2482625777","lat":25.049644,"lon":121.602007,"name":"三重埔山","decorType":"mountain"},{"id":"node-2482646667","lat":25.050506,"lon":121.613057,"name":"中南山","decorType":"mountain"},{"id":"node-2525034839","lat":25.053938,"lon":121.603895,"name":"台肥新村","decorType":"bus_stop"},{"id":"node-2525080146","lat":25.053312,"lon":121.600616,"name":"南港路二段178巷口","decorType":"bus_stop"},{"id":"node-2525080150","lat":25.053623,"lon":121.602944,"name":"台肥新村","decorType":"bus_stop"},{"id":"node-2525424713","lat":25.053418,"lon":121.600745,"name":"南港路二段178巷口","decorType":"bus_stop"},{"id":"node-3180122267","lat":25.053357,"lon":121.607085,"name":"南港車站","decorType":"bus_stop"},{"id":"node-3180122268","lat":25.053168,"lon":121.607117,"name":"南港車站","decorType":"bus_stop"},{"id":"node-3639530941","lat":25.052091,"lon":121.607192,"name":"南港","decorType":"station"},{"id":"node-3689350528","lat":25.051987,"lon":121.607764,"name":"出口2（國家文官學院）","decorType":"station"},{"id":"node-3689350529","lat":25.051827,"lon":121.606596,"name":"出口1（忠孝東路七段）","decorType":"station"},{"id":"node-3699944611","lat":25.040825,"lon":121.612701,"name":"中研院餐廳","decorType":"restaurant"},{"id":"node-4114407089","lat":25.052776,"lon":121.605999,"name":"7-Eleven","decorType":"convenience"},{"id":"node-4114407189","lat":25.052841,"lon":121.607483,"name":"星巴克","decorType":"cafe"},{"id":"node-4114511324","lat":25.052825,"lon":121.607401,"name":"山崎麵包","decorType":"bakery"},{"id":"node-4127807976","lat":25.052754,"lon":121.605829,"name":"台北六福萬怡","decorType":"hotel"},{"id":"node-4275358087","lat":25.053277,"lon":121.607306,"name":"南港","decorType":"station"},{"id":"node-4275358088","lat":25.052869,"lon":121.607258,"name":"南港","decorType":"station"},{"id":"node-4368461971","lat":25.0525,"lon":121.60258,"name":"市民大道八段","decorType":"bus_stop"},{"id":"node-4368462966","lat":25.052663,"lon":121.602616,"name":"市民大道八段","decorType":"bus_stop"},{"id":"node-4524863600","lat":25.05386,"lon":121.60348,"name":"未命名郵局","decorType":"post_office"},{"id":"node-4588837337","lat":25.040302,"lon":121.608869,"name":"茅草埔山北峰","decorType":"mountain"},{"id":"node-5110349481","lat":25.053023,"lon":121.61324,"name":"恩友中心南港教會","decorType":"shrine"},{"id":"node-5680820504","lat":25.052793,"lon":121.606103,"name":"摩斯漢堡","decorType":"burger"},{"id":"node-5733249172","lat":25.052411,"lon":121.604708,"name":"大戸屋","decorType":"restaurant"},{"id":"node-5733258827","lat":25.052703,"lon":121.605594,"name":"QB HOUSE","decorType":"hair_salon"},{"id":"node-6327136504","lat":25.052377,"lon":121.606059,"name":"南港轉運站西站","decorType":"bus_stop"},{"id":"node-6327136506","lat":25.052331,"lon":121.605761,"name":"南港轉運站西站","decorType":"bus_stop"},{"id":"node-6327136508","lat":25.052451,"lon":121.606037,"name":"南港轉運站西站","decorType":"station"},{"id":"node-6327136510","lat":25.052361,"lon":121.605963,"name":"南港轉運站西站","decorType":"bus_stop"},{"id":"node-6327136511","lat":25.052346,"lon":121.605863,"name":"南港轉運站西站","decorType":"bus_stop"},{"id":"node-6327136513","lat":25.052403,"lon":121.606248,"name":"南港轉運站西站","decorType":"bus_stop"},{"id":"node-6327136514","lat":25.052391,"lon":121.606149,"name":"南港轉運站西站","decorType":"bus_stop"},{"id":"node-6438451356","lat":25.052735,"lon":121.60578,"name":"Subway","decorType":"burger"},{"id":"node-6681649179","lat":25.052041,"lon":121.605831,"name":"未命名車站","decorType":"station"},{"id":"node-7004305905","lat":25.052627,"lon":121.604726,"name":"22:02火鍋","decorType":"restaurant"},{"id":"node-7004305907","lat":25.053112,"lon":121.607262,"name":"丸亀製麺","decorType":"burger"},{"id":"node-7004305908","lat":25.053218,"lon":121.60835,"name":"甩尾卡丁車主題式餐廳","decorType":"restaurant"},{"id":"node-7106020086","lat":25.054235,"lon":121.605111,"name":"Tea沃克","decorType":"cafe"},{"id":"node-7114067442","lat":25.052885,"lon":121.606853,"name":"日本蔦屋書店","decorType":"library"},{"id":"node-7194706952","lat":25.052987,"lon":121.612634,"name":"南桂坊農情館","decorType":"restaurant"},{"id":"node-7213752462","lat":25.052507,"lon":121.604582,"name":"瓦城泰國料理","decorType":"restaurant"},{"id":"node-7765594317","lat":25.040974,"lon":121.612601,"name":"小南門傳統豆花","decorType":"restaurant"},{"id":"node-7849377517","lat":25.052669,"lon":121.605877,"name":"路易莎咖啡","decorType":"cafe"},{"id":"node-7849377518","lat":25.052713,"lon":121.606126,"name":"Semeur聖娜","decorType":"bakery"},{"id":"node-7849377519","lat":25.05275,"lon":121.605857,"name":"Ikinari Steak","decorType":"restaurant"},{"id":"node-7849377520","lat":25.052725,"lon":121.605705,"name":"繼光香香雞","decorType":"burger"},{"id":"node-7849377521","lat":25.052691,"lon":121.606021,"name":"爭鮮外帶壽司","decorType":"restaurant"},{"id":"node-7849449242","lat":25.052736,"lon":121.607202,"name":"全家便利商店","decorType":"convenience"},{"id":"node-7849449243","lat":25.052732,"lon":121.606763,"name":"星巴克","decorType":"cafe"},{"id":"node-8410741327","lat":25.052763,"lon":121.605933,"name":"松本清","decorType":"pharmacy"},{"id":"node-8412095986","lat":25.052923,"lon":121.607301,"name":"MAGiC TOUCH 点爭鮮","decorType":"restaurant"},{"id":"node-8412095987","lat":25.052682,"lon":121.605951,"name":"Duckling 喝鴨鴨","decorType":"cafe"},{"id":"node-8412095988","lat":25.052789,"lon":121.607187,"name":"日藥本舖","decorType":"pharmacy"},{"id":"node-8412095990","lat":25.052872,"lon":121.606526,"name":"萊爾富","decorType":"convenience"},{"id":"node-8432380503","lat":25.051962,"lon":121.606717,"name":"捷運南港站","decorType":"bus_stop"},{"id":"node-8438740355","lat":25.052947,"lon":121.607468,"name":"Mister Donut","decorType":"burger"},{"id":"node-8438740356","lat":25.052938,"lon":121.607387,"name":"すき家","decorType":"burger"},{"id":"node-8441425938","lat":25.052728,"lon":121.606064,"name":"這一小鍋","decorType":"restaurant"},{"id":"node-8441425939","lat":25.05271,"lon":121.605946,"name":"Mövenpick Café","decorType":"cafe"},{"id":"node-8441425940","lat":25.052635,"lon":121.604611,"name":"必勝客","decorType":"restaurant"},{"id":"node-8441425941","lat":25.052558,"lon":121.604655,"name":"豆腐村","decorType":"restaurant"},{"id":"node-8441425959","lat":25.052576,"lon":121.604766,"name":"高麗園銅盤烤肉","decorType":"restaurant"},{"id":"node-8441425960","lat":25.052539,"lon":121.605028,"name":"金色三麥 Le Blé d'Or","decorType":"restaurant"},{"id":"node-8441425961","lat":25.052654,"lon":121.604863,"name":"牛角","decorType":"restaurant"},{"id":"node-8441425962","lat":25.052666,"lon":121.604941,"name":"麵家三士","decorType":"restaurant"},{"id":"node-8441425963","lat":25.052676,"lon":121.605028,"name":"串家物語","decorType":"restaurant"},{"id":"node-8441425964","lat":25.052422,"lon":121.604801,"name":"Mo-Mo Paradise","decorType":"restaurant"},{"id":"node-8441425965","lat":25.052671,"lon":121.605525,"name":"貳樓","decorType":"restaurant"},{"id":"node-9016392866","lat":25.053718,"lon":121.600539,"name":"家樂福","decorType":"supermarket"},{"id":"node-9063577974","lat":25.053007,"lon":121.607378,"name":"藏壽司","decorType":"burger"},{"id":"node-9063577975","lat":25.052434,"lon":121.604895,"name":"GU","decorType":"clothing"},{"id":"node-9063577976","lat":25.052446,"lon":121.604964,"name":"Uniqlo","decorType":"clothing"},{"id":"node-9063577978","lat":25.052897,"lon":121.607135,"name":"聖瑪莉","decorType":"bakery"},{"id":"node-9064494062","lat":25.052625,"lon":121.605211,"name":"Chaffee","decorType":"cafe"},{"id":"node-9064494063","lat":25.052628,"lon":121.605241,"name":"天仁茗茶","decorType":"cafe"},{"id":"node-9064494064","lat":25.052541,"lon":121.605546,"name":"The Body Shop","decorType":"cosmetics"},{"id":"node-9518867717","lat":25.054144,"lon":121.60157,"name":"玉虫画室","decorType":"cafe"},{"id":"node-9944380218","lat":25.052518,"lon":121.604701,"name":"喜樂時代影城","decorType":"movie_theater"},{"id":"node-11813554566","lat":25.053044,"lon":121.607279,"name":"TR Lounge 臺鐵南港禮賓室","decorType":"cafe"},{"id":"node-12133991466","lat":25.052428,"lon":121.606864,"name":"大河牧場","decorType":"restaurant"},{"id":"node-12531330992","lat":25.040767,"lon":121.612993,"name":"路易莎咖啡","decorType":"cafe"},{"id":"node-13165334918","lat":25.051886,"lon":121.609775,"name":"樂雅樂","decorType":"restaurant"},{"id":"node-13165334919","lat":25.051965,"lon":121.609882,"name":"摩斯漢堡","decorType":"burger"},{"id":"way-73567632","lat":25.053922,"lon":121.60694,"name":"南興公園","decorType":"park"},{"id":"way-73750289","lat":25.054085,"lon":121.603453,"name":"南港郵局","decorType":"post_office"},{"id":"way-74920640","lat":25.04998,"lon":121.602841,"name":"未命名森林","decorType":"forest"},{"id":"way-83228948","lat":25.046873,"lon":121.613106,"name":"中研公園","decorType":"park"},{"id":"way-127948707","lat":25.041063,"lon":121.611393,"name":"人文社會科學館","decorType":"library"},{"id":"way-127950347","lat":25.040806,"lon":121.61223,"name":"北雲餐廳","decorType":"restaurant"},{"id":"way-135640775","lat":25.04252,"lon":121.61244,"name":"家驊橋","decorType":"bridge"},{"id":"way-135640781","lat":25.046368,"lon":121.612275,"name":"未命名橋樑","decorType":"bridge"},{"id":"way-135640786","lat":25.046959,"lon":121.609738,"name":"未命名水邊","decorType":"waterside"},{"id":"way-135640799","lat":25.047353,"lon":121.607116,"name":"未命名水邊","decorType":"waterside"},{"id":"way-156280781","lat":25.042375,"lon":121.61278,"name":"生態池","decorType":"waterside"},{"id":"way-233331393","lat":25.052891,"lon":121.606574,"name":"南港車站","decorType":"station"},{"id":"way-237887422","lat":25.040453,"lon":121.611433,"name":"未命名水邊","decorType":"waterside"},{"id":"way-253766607","lat":25.040283,"lon":121.611458,"name":"時光的斷章","decorType":"park"},{"id":"way-254447006","lat":25.04197,"lon":121.611481,"name":"中研福德宮","decorType":"shrine"},{"id":"way-255359572","lat":25.040468,"lon":121.611287,"name":"未命名橋樑","decorType":"bridge"},{"id":"way-255359573","lat":25.040475,"lon":121.611572,"name":"未命名橋樑","decorType":"bridge"},{"id":"way-255393981","lat":25.039687,"lon":121.612359,"name":"未命名森林","decorType":"forest"},{"id":"way-259489537","lat":25.042017,"lon":121.612936,"name":"未命名森林","decorType":"forest"},{"id":"way-286919494","lat":25.051494,"lon":121.607398,"name":"臺北市極限運動訓練中心","decorType":"stadium"},{"id":"way-298486595","lat":25.047427,"lon":121.612247,"name":"勤力橋","decorType":"bridge"},{"id":"way-313682637","lat":25.053523,"lon":121.60446,"name":"瓶蓋工廠台北製造所","decorType":"art_gallery"},{"id":"way-365993919","lat":25.047668,"lon":121.613127,"name":"國際研究生教學研究大樓","decorType":"university"},{"id":"way-371541998","lat":25.046659,"lon":121.613165,"name":"未命名公園","decorType":"park"},{"id":"way-438607062","lat":25.052931,"lon":121.61175,"name":"未命名森林","decorType":"forest"},{"id":"way-556511634","lat":25.046281,"lon":121.605695,"name":"未命名橋樑","decorType":"bridge"},{"id":"way-556511638","lat":25.045928,"lon":121.604732,"name":"未命名橋樑","decorType":"bridge"},{"id":"way-556511643","lat":25.046142,"lon":121.606818,"name":"未命名橋樑","decorType":"bridge"},{"id":"way-556511645","lat":25.046606,"lon":121.608411,"name":"未命名橋樑","decorType":"bridge"},{"id":"way-556511658","lat":25.05231,"lon":121.61154,"name":"洛碁大飯店南港館","decorType":"hotel"},{"id":"way-556511685","lat":25.046082,"lon":121.606061,"name":"未命名水邊","decorType":"waterside"},{"id":"way-558419120","lat":25.04328,"lon":121.602232,"name":"未命名森林","decorType":"forest"},{"id":"way-615595612","lat":25.052854,"lon":121.607821,"name":"未命名橋樑","decorType":"bridge"},{"id":"way-640049476","lat":25.042948,"lon":121.61273,"name":"未命名森林","decorType":"forest"},{"id":"way-702660269","lat":25.052642,"lon":121.60438,"name":"未命名橋樑","decorType":"bridge"},{"id":"way-705365216","lat":25.054142,"lon":121.607255,"name":"未命名公園","decorType":"park"},{"id":"way-705366277","lat":25.05369,"lon":121.606135,"name":"瓶蓋印象公園","decorType":"park"},{"id":"way-706686410","lat":25.052913,"lon":121.606069,"name":"未命名公車站","decorType":"bus_stop"},{"id":"way-706686411","lat":25.052737,"lon":121.606101,"name":"未命名公車站","decorType":"bus_stop"},{"id":"way-706888511","lat":25.053721,"lon":121.6121,"name":"未命名公園","decorType":"park"},{"id":"way-710690883","lat":25.053077,"lon":121.606057,"name":"未命名公車站","decorType":"bus_stop"},{"id":"way-710692150","lat":25.052754,"lon":121.606294,"name":"未命名公車站","decorType":"bus_stop"},{"id":"way-750986399","lat":25.049033,"lon":121.611198,"name":"未命名橋樑","decorType":"bridge"},{"id":"way-764218159","lat":25.047679,"lon":121.612099,"name":"研究院路一段130巷","decorType":"bridge"},{"id":"way-831595860","lat":25.046646,"lon":121.608567,"name":"未命名橋樑","decorType":"bridge"},{"id":"way-831595861","lat":25.047499,"lon":121.611546,"name":"未命名水邊","decorType":"waterside"},{"id":"way-831595862","lat":25.047677,"lon":121.612193,"name":"未命名水邊","decorType":"waterside"},{"id":"way-831595874","lat":25.046992,"lon":121.610692,"name":"未命名水邊","decorType":"waterside"},{"id":"way-877532229","lat":25.052172,"lon":121.607288,"name":"未命名公車站","decorType":"bus_stop"},{"id":"way-990611484","lat":25.051785,"lon":121.60705,"name":"未命名水邊","decorType":"waterside"},{"id":"way-1011576659","lat":25.047504,"lon":121.612239,"name":"勤力橋","decorType":"bridge"},{"id":"way-1011576660","lat":25.047427,"lon":121.612243,"name":"勤力橋","decorType":"bridge"},{"id":"way-1011576662","lat":25.047361,"lon":121.612249,"name":"未命名橋樑","decorType":"bridge"},{"id":"way-1019902082","lat":25.049477,"lon":121.610308,"name":"未命名森林","decorType":"forest"},{"id":"way-1019902083","lat":25.044701,"lon":121.609895,"name":"未命名森林","decorType":"forest"},{"id":"way-1022793678","lat":25.0524,"lon":121.603182,"name":"未命名橋樑","decorType":"bridge"},{"id":"way-1022793679","lat":25.052483,"lon":121.603341,"name":"未命名橋樑","decorType":"bridge"},{"id":"way-1061049273","lat":25.053122,"lon":121.606323,"name":"未命名公車站","decorType":"bus_stop"},{"id":"way-1067121258","lat":25.046872,"lon":121.608275,"name":"未命名水邊","decorType":"waterside"},{"id":"way-1105967486","lat":25.042526,"lon":121.612438,"name":"家驊橋","decorType":"bridge"},{"id":"way-1258907222","lat":25.047389,"lon":121.609697,"name":"三重埔埤","decorType":"waterside"},{"id":"way-1451937948","lat":25.051832,"lon":121.600775,"name":"未命名水邊","decorType":"waterside"},{"id":"way-1451937949","lat":25.051844,"lon":121.601573,"name":"未命名水邊","decorType":"waterside"}]}