{"bbox":{"south":25.038731249999998,"north":25.0543375,"west":121.457,"east":121.47003124999999},"pois":[{"id":"node-2083320835","lat":25.0399026,"lon":121.4603193,"name":"頭前庄","decorType":"station"},{"id":"node-2392783264","lat":25.0518471,"lon":121.4578162,"name":"福壽公園","decorType":"bus_stop"},{"id":"node-2392783265","lat":25.0520645,"lon":121.4577747,"name":"福壽公園","decorType":"bus_stop"},{"id":"node-2398287834","lat":25.0515137,"lon":121.4577247,"name":"全家便利商店","decorType":"convenience"},{"id":"node-2398287835","lat":25.0523827,"lon":121.4576219,"name":"昌明店","decorType":"supermarket"},{"id":"node-2398287836","lat":25.0512954,"lon":121.457392,"name":"家樂福超市","decorType":"supermarket"},{"id":"node-2398287837","lat":25.0518052,"lon":121.4578291,"name":"7-Eleven","decorType":"convenience"},{"id":"node-2398288180","lat":25.0495223,"lon":121.4583277,"name":"85度C","decorType":"cafe"},{"id":"node-2399952145","lat":25.0389965,"lon":121.4608386,"name":"捷運頭前庄站 (2號出口)","decorType":"station"},{"id":"node-2399952146","lat":25.0397765,"lon":121.4605447,"name":"捷運頭前庄站 (1號出口)","decorType":"station"},{"id":"node-2399952148","lat":25.0397135,"lon":121.4620379,"name":"捷運頭前庄站 (3號出口)","decorType":"station"},{"id":"node-2399952151","lat":25.0403788,"lon":121.4622696,"name":"捷運頭前庄站 (4號出口)","decorType":"station"},{"id":"node-2399952183","lat":25.0480477,"lon":121.4596893,"name":"仁義里","decorType":"bus_stop"},{"id":"node-2399952187","lat":25.0493823,"lon":121.4576394,"name":"幸福思源路口","decorType":"bus_stop"},{"id":"node-2399952188","lat":25.0494726,"lon":121.4577821,"name":"幸福思源路口","decorType":"bus_stop"},{"id":"node-2399952191","lat":25.045709,"lon":121.4599501,"name":"思源復興路口","decorType":"bus_stop"},{"id":"node-2399952192","lat":25.0454311,"lon":121.4597332,"name":"思源復興路口","decorType":"bus_stop"},{"id":"node-2399952194","lat":25.04005,"lon":121.4598751,"name":"捷運頭前庄站 (思源路)","decorType":"bus_stop"},{"id":"node-2399952195","lat":25.0424191,"lon":121.4600056,"name":"臺北醫院","decorType":"bus_stop"},{"id":"node-2399952196","lat":25.0429391,"lon":121.4597363,"name":"臺北醫院","decorType":"bus_stop"},{"id":"node-2400423295","lat":25.0526,"lon":121.4580664,"name":"OK超商","decorType":"convenience"},{"id":"node-2400423398","lat":25.0526993,"lon":121.4575639,"name":"未命名神社","decorType":"shrine"},{"id":"node-2401355965","lat":25.0488886,"lon":121.4581877,"name":"眼鏡張雞肉飯","decorType":"restaurant"},{"id":"node-2401355966","lat":25.0495152,"lon":121.457772,"name":"7-Eleven","decorType":"convenience"},{"id":"node-2401356575","lat":25.0510889,"lon":121.4573815,"name":"未命名美髮院","decorType":"hair_salon"},{"id":"node-2410061269","lat":25.0517299,"lon":121.4577986,"name":"未命名五金行","decorType":"hardware"},{"id":"node-2410061382","lat":25.0499443,"lon":121.458126,"name":"全家便利商店","decorType":"convenience"},{"id":"node-2410061384","lat":25.0499888,"lon":121.459967,"name":"幸福","decorType":"station"},{"id":"node-2412235273","lat":25.0542318,"lon":121.4581253,"name":"全家便利商店","decorType":"convenience"},{"id":"node-2419824439","lat":25.0398667,"lon":121.462248,"name":"捷運頭前庄站","decorType":"bus_stop"},{"id":"node-2419824440","lat":25.0401242,"lon":121.4621547,"name":"捷運頭前庄站","decorType":"bus_stop"},{"id":"node-2419824444","lat":25.0526704,"lon":121.4580631,"name":"正統肉羹麵","decorType":"restaurant"},{"id":"node-2493724158","lat":25.0510249,"lon":121.4578265,"name":"未命名神社","decorType":"shrine"},{"id":"node-2493724202","lat":25.0523924,"lon":121.4574332,"name":"悟饕","decorType":"restaurant"},{"id":"node-2498533931","lat":25.0532001,"lon":121.4579084,"name":"未命名美髮院","decorType":"hair_salon"},{"id":"node-2498534027","lat":25.0493245,"lon":121.4650834,"name":"化成路口","decorType":"bus_stop"},{"id":"node-2498534028","lat":25.0494183,"lon":121.4648964,"name":"化成路口","decorType":"bus_stop"},{"id":"node-2498534031","lat":25.0493936,"lon":121.4611494,"name":"幸福東路","decorType":"bus_stop"},{"id":"node-2498534032","lat":25.0495434,"lon":121.4612724,"name":"幸福東路","decorType":"bus_stop"},{"id":"node-2498534033","lat":25.0531357,"lon":121.4662389,"name":"頭前國小","decorType":"bus_stop"},{"id":"node-2498534034","lat":25.0534056,"lon":121.4663288,"name":"頭前國小","decorType":"bus_stop"},{"id":"node-2498534037","lat":25.0509679,"lon":121.4658807,"name":"頭前里","decorType":"bus_stop"},{"id":"node-2498534038","lat":25.0511489,"lon":121.4660478,"name":"頭前里","decorType":"bus_stop"},{"id":"node-2536508250","lat":25.0479004,"lon":121.4580983,"name":"全家便利商店","decorType":"convenience"},{"id":"node-2536508253","lat":25.0522485,"lon":121.4579968,"name":"北港香菇肉羹","decorType":"restaurant"},{"id":"node-2536508255","lat":25.0523882,"lon":121.4577313,"name":"自助餐","decorType":"restaurant"},{"id":"node-2536516053","lat":25.0529272,"lon":121.4580763,"name":"萊爾富","decorType":"convenience"},{"id":"node-2536516055","lat":25.0495002,"lon":121.4575803,"name":"樂福健保藥局","decorType":"pharmacy"},{"id":"node-2559685931","lat":25.0508833,"lon":121.4580037,"name":"未命名藥局","decorType":"pharmacy"},{"id":"node-2592662741","lat":25.0495871,"lon":121.4582838,"name":"未命名美髮院","decorType":"hair_salon"},{"id":"node-2592662743","lat":25.0525811,"lon":121.4588192,"name":"未命名神社","decorType":"shrine"},{"id":"node-2618582885","lat":25.0490976,"lon":121.458182,"name":"未命名餐廳","decorType":"restaurant"},{"id":"node-2618582890","lat":25.0495198,"lon":121.4579115,"name":"未命名電器行","decorType":"electronics"},{"id":"node-2618582910","lat":25.0493609,"lon":121.4585466,"name":"吉俐通訊","decorType":"electronics"},{"id":"node-2691111082","lat":25.0498271,"lon":121.4582492,"name":"康是美","decorType":"pharmacy"},{"id":"node-2691111091","lat":25.0497323,"lon":121.4582683,"name":"鮮茶道","decorType":"cafe"},{"id":"node-2706850917","lat":25.0505402,"lon":121.4581373,"name":"未命名五金行","decorType":"hardware"},{"id":"node-2706851309","lat":25.0498246,"lon":121.458138,"name":"未命名餐廳","decorType":"restaurant"},{"id":"node-2706851310","lat":25.0500407,"lon":121.458095,"name":"未命名藥局","decorType":"pharmacy"},{"id":"node-2713423084","lat":25.0448207,"lon":121.4684937,"name":"中興街口","decorType":"bus_stop"},{"id":"node-2713423085","lat":25.0454891,"lon":121.4695034,"name":"中興街口","decorType":"bus_stop"},{"id":"node-2713423087","lat":25.0431252,"lon":121.4666582,"name":"金陵女中","decorType":"bus_stop"},{"id":"node-2713423092","lat":25.0427605,"lon":121.4665784,"name":"金陵女中","decorType":"bus_stop"},{"id":"node-2713429036","lat":25.0426221,"lon":121.4646521,"name":"化成路","decorType":"bus_stop"},{"id":"node-2713429037","lat":25.0429647,"lon":121.4649418,"name":"化成路","decorType":"bus_stop"},{"id":"node-2713449515","lat":25.0445758,"lon":121.4627517,"name":"復興路三段","decorType":"bus_stop"},{"id":"node-2713449520","lat":25.0444859,"lon":121.4627812,"name":"復興路三段","decorType":"bus_stop"},{"id":"node-2713449524","lat":25.0444665,"lon":121.4585004,"name":"臺北醫院(復興路)","decorType":"bus_stop"},{"id":"node-2713449528","lat":25.0443693,"lon":121.4583851,"name":"臺北醫院(復興路)","decorType":"bus_stop"},{"id":"node-2783002899","lat":25.0493249,"lon":121.457917,"name":"未命名服飾店","decorType":"clothing"},{"id":"node-2799088228","lat":25.0531915,"lon":121.458064,"name":"永和豆漿","decorType":"restaurant"},{"id":"node-2799088237","lat":25.0536117,"lon":121.4579417,"name":"龍鳳圓環滷肉飯","decorType":"restaurant"},{"id":"node-2808425655","lat":25.0543082,"lon":121.4575855,"name":"頭前國中(中原路)","decorType":"bus_stop"},{"id":"node-2917574040","lat":25.0507057,"lon":121.4580738,"name":"未命名超市","decorType":"supermarket"},{"id":"node-2917574216","lat":25.0529698,"lon":121.4579274,"name":"未命名超市","decorType":"supermarket"},{"id":"node-2917574235","lat":25.0497345,"lon":121.4581486,"name":"刀削麵","decorType":"restaurant"},{"id":"node-2917574236","lat":25.05039,"lon":121.4580389,"name":"台南擔仔麵","decorType":"restaurant"},{"id":"node-2917574237","lat":25.0521795,"lon":121.4579779,"name":"老仔麵攤快炒","decorType":"restaurant"},{"id":"node-2917574238","lat":25.049949,"lon":121.4582539,"name":"知味滷肉飯","decorType":"restaurant"},{"id":"node-2917574239","lat":25.0523012,"lon":121.4580111,"name":"自助餐","decorType":"restaurant"},{"id":"node-2984580128","lat":25.052147,"lon":121.4579676,"name":"好餃舍手工水餃","decorType":"restaurant"},{"id":"node-3039544239","lat":25.0526339,"lon":121.4573207,"name":"未命名美髮院","decorType":"hair_salon"},{"id":"node-3039574433","lat":25.0537951,"lon":121.457939,"name":"美麗角早午餐","decorType":"restaurant"},{"id":"node-3039574633","lat":25.0526762,"lon":121.4579534,"name":"阿財水果店","decorType":"supermarket"},{"id":"node-3057602846","lat":25.0492423,"lon":121.45994,"name":"捷運幸福站","decorType":"bus_stop"},{"id":"node-3057602847","lat":25.0507343,"lon":121.4596693,"name":"捷運幸福站","decorType":"bus_stop"},{"id":"node-3649228904","lat":25.0461417,"lon":121.4580256,"name":"臺灣基督長老教會","decorType":"shrine"},{"id":"node-3666291990","lat":25.0492424,"lon":121.465913,"name":"7-Eleven","decorType":"convenience"},{"id":"node-3674723637","lat":25.0410841,"lon":121.4637245,"name":"頭前","decorType":"bus_stop"},{"id":"node-3674723638","lat":25.0417298,"lon":121.465134,"name":"頭前","decorType":"bus_stop"},{"id":"node-3689283570","lat":25.0534577,"lon":121.4690901,"name":"中興北街","decorType":"bus_stop"},{"id":"node-3689283571","lat":25.0540962,"lon":121.468888,"name":"中興北街","decorType":"bus_stop"},{"id":"node-3689283613","lat":25.0523456,"lon":121.4691464,"name":"萊爾富","decorType":"convenience"},{"id":"node-3812564427","lat":25.0395009,"lon":121.4613873,"name":"頭前庄","decorType":"station"},{"id":"node-3826540533","lat":25.0525571,"lon":121.4682539,"name":"安國宮","decorType":"bus_stop"},{"id":"node-4116867903","lat":25.0453973,"lon":121.4579729,"name":"全家便利商店","decorType":"convenience"},{"id":"node-4223293711","lat":25.0443321,"lon":121.4574905,"name":"7-Eleven","decorType":"convenience"},{"id":"node-4439861340","lat":25.0444489,"lon":121.461937,"name":"祖德素食超市","decorType":"supermarket"},{"id":"node-4524191959","lat":25.0415765,"lon":121.4653827,"name":"宜家家居餐廳","decorType":"restaurant"},{"id":"node-4937873728","lat":25.0428596,"lon":121.467638,"name":"吉豚屋","decorType":"burger"},{"id":"node-5010481124","lat":25.0430844,"lon":121.4678468,"name":"家樂福","decorType":"supermarket"},{"id":"node-5010481125","lat":25.04319,"lon":121.467853,"name":"Puma Outlet","decorType":"clothing"},{"id":"node-5010481126","lat":25.0432297,"lon":121.4680342,"name":"Adidas outlet","decorType":"clothing"},{"id":"node-5160603238","lat":25.0535147,"lon":121.4602943,"name":"星巴克","decorType":"cafe"},{"id":"node-5160603248","lat":25.0510986,"lon":121.4611951,"name":"幸福讚精品飯店","decorType":"restaurant"},{"id":"node-5534085072","lat":25.0427403,"lon":121.4579421,"name":"長青街台北醫院站","decorType":"bus_stop"},{"id":"node-5534085099","lat":25.0427939,"lon":121.4578993,"name":"長青街台北醫院站","decorType":"bus_stop"},{"id":"node-6182991537","lat":25.0527434,"lon":121.4663378,"name":"頭前國小好吃炸雞","decorType":"restaurant"},{"id":"node-6480711085","lat":25.0433167,"lon":121.4676206,"name":"星巴克","decorType":"cafe"},{"id":"node-6919810818","lat":25.0513471,"lon":121.4662492,"name":"貴族世家","decorType":"restaurant"},{"id":"node-7001356665","lat":25.0460061,"lon":121.459651,"name":"新莊慈悲四面佛","decorType":"shrine"},{"id":"node-7001372011","lat":25.0425992,"lon":121.460284,"name":"晶宴會館","decorType":"restaurant"},{"id":"node-7813817885","lat":25.0523422,"lon":121.4625969,"name":"頭前運動公園","decorType":"bus_stop"},{"id":"node-7813817886","lat":25.052596,"lon":121.4623673,"name":"頭前運動公園","decorType":"bus_stop"},{"id":"node-7813817887","lat":25.0522656,"lon":121.4685076,"name":"安國宮","decorType":"bus_stop"},{"id":"node-7813817894","lat":25.0403459,"lon":121.460266,"name":"捷運頭前庄站 (思源路)","decorType":"bus_stop"},{"id":"node-7813817897","lat":25.0524036,"lon":121.4599063,"name":"思源頭前路口","decorType":"bus_stop"},{"id":"node-8059100995","lat":25.050988,"lon":121.461143,"name":"幸福讚精品飯店","decorType":"hotel"},{"id":"node-8118239046","lat":25.0392104,"lon":121.4574824,"name":"全家便利商店","decorType":"convenience"},{"id":"node-8118239047","lat":25.0430021,"lon":121.4593912,"name":"全家便利商店","decorType":"convenience"},{"id":"node-8118239061","lat":25.0456998,"lon":121.469538,"name":"全家便利商店","decorType":"convenience"},{"id":"node-8118239062","lat":25.0460435,"lon":121.4675124,"name":"全家便利商店","decorType":"convenience"},{"id":"node-8118272859","lat":25.0538207,"lon":121.4665603,"name":"全家便利商店","decorType":"convenience"},{"id":"node-8129076897","lat":25.0510579,"lon":121.4618424,"name":"波比髮型-新莊","decorType":"hair_salon"},{"id":"node-8129122961","lat":25.0493374,"lon":121.4575704,"name":"阿娥涼麵","decorType":"burger"},{"id":"node-8385313482","lat":25.0497237,"lon":121.4657256,"name":"八方雲集","decorType":"burger"},{"id":"node-8385313653","lat":25.0467807,"lon":121.4674206,"name":"八方雲集","decorType":"burger"},{"id":"node-8432380448","lat":25.0452357,"lon":121.4578134,"name":"思賢國小站","decorType":"bus_stop"},{"id":"node-8432380449","lat":25.0452407,"lon":121.4578675,"name":"福樂街自立街","decorType":"bus_stop"},{"id":"node-8432400038","lat":25.045887,"lon":121.4577133,"name":"思賢國小站","decorType":"bus_stop"},{"id":"node-8432400039","lat":25.0482146,"lon":121.4580572,"name":"幸福路站","decorType":"bus_stop"},{"id":"node-8432400040","lat":25.0482146,"lon":121.4581572,"name":"幸福路站","decorType":"bus_stop"},{"id":"node-9340934991","lat":25.0508138,"lon":121.4610022,"name":"蝦皮店到店","decorType":"convenience"},{"id":"node-9340934996","lat":25.0443635,"lon":121.4588928,"name":"蝦皮店到店","decorType":"convenience"},{"id":"node-9367391620","lat":25.05381,"lon":121.466093,"name":"六扇門","decorType":"restaurant"},{"id":"node-9370672585","lat":25.0478845,"lon":121.465745,"name":"頭前派出所","decorType":"bus_stop"},{"id":"node-9370672586","lat":25.0481056,"lon":121.465576,"name":"頭前派出所","decorType":"bus_stop"},{"id":"node-9370672595","lat":25.0495077,"lon":121.4656645,"name":"霸味羊肉爐","decorType":"restaurant"},{"id":"node-9370672596","lat":25.0499985,"lon":121.4660038,"name":"一帆穿的流行廣場","decorType":"clothing"},{"id":"node-9370672598","lat":25.0500264,"lon":121.4657396,"name":"三媽臭臭鍋","decorType":"restaurant"},{"id":"node-9370672626","lat":25.0515877,"lon":121.4659032,"name":"50嵐","decorType":"cafe"},{"id":"node-9370672627","lat":25.0517189,"lon":121.4659354,"name":"7-Eleven","decorType":"convenience"},{"id":"node-9370672628","lat":25.0519181,"lon":121.4662412,"name":"清心福全","decorType":"cafe"},{"id":"node-9373325210","lat":25.0500787,"lon":121.4603162,"name":"未命名車站","decorType":"station"},{"id":"node-9373325211","lat":25.0497968,"lon":121.4603242,"name":"未命名車站","decorType":"station"},{"id":"node-9385689519","lat":25.0492805,"lon":121.4581597,"name":"50嵐","decorType":"cafe"},{"id":"node-9385689520","lat":25.0493461,"lon":121.4584896,"name":"烏弄","decorType":"cafe"},{"id":"node-9385689522","lat":25.0495889,"lon":121.4596198,"name":"寶雅","decorType":"pharmacy"},{"id":"node-9385929630","lat":25.0493315,"lon":121.4579827,"name":"不二弄咖啡","decorType":"cafe"},{"id":"node-9831175515","lat":25.0490067,"lon":121.465853,"name":"吉野烤肉飯","decorType":"restaurant"},{"id":"node-10196239196","lat":25.048243,"lon":121.4594647,"name":"米歐中西式早午餐越式料理","decorType":"restaurant"},{"id":"node-10196239197","lat":25.0474589,"lon":121.4574381,"name":"羴羴","decorType":"restaurant"},{"id":"node-10196239198","lat":25.0480183,"lon":121.458011,"name":"原味廣東粥","decorType":"restaurant"},{"id":"node-11262727359","lat":25.046996,"lon":121.4573603,"name":"新莊仁愛福德宮","decorType":"shrine"},{"id":"node-12345194429","lat":25.04986,"lon":121.4596497,"name":"Pig Flower 豚花韓式料理","decorType":"restaurant"},{"id":"node-12345194430","lat":25.0502628,"lon":121.4596262,"name":"すき家","decorType":"burger"},{"id":"node-12570502798","lat":25.0421703,"lon":121.459651,"name":"EGG BUN Breakfast Sandwich & Espresso","decorType":"restaurant"},{"id":"node-12782181530","lat":25.0432455,"lon":121.4677373,"name":"ASICS","decorType":"clothing"},{"id":"node-12782181563","lat":25.0432865,"lon":121.4674029,"name":"12MINI快煮鍋","decorType":"restaurant"},{"id":"node-12782181564","lat":25.0431528,"lon":121.4676784,"name":"Nike Factory Store","decorType":"clothing"},{"id":"node-12782181565","lat":25.0432659,"lon":121.4678387,"name":"Skechers","decorType":"clothing"},{"id":"node-12782181566","lat":25.0433604,"lon":121.4678343,"name":"Timberland","decorType":"clothing"},{"id":"node-12782181567","lat":25.043136,"lon":121.4680609,"name":"ABC MART","decorType":"clothing"},{"id":"node-12782181568","lat":25.0432282,"lon":121.4676503,"name":"NET","decorType":"clothing"},{"id":"node-12782181569","lat":25.043041,"lon":121.4677025,"name":"義式屋 古拉爵","decorType":"restaurant"},{"id":"node-12782181570","lat":25.043213,"lon":121.4674211,"name":"石二鍋","decorType":"restaurant"},{"id":"node-12782181571","lat":25.0429407,"lon":121.4677267,"name":"三商巧福","decorType":"restaurant"},{"id":"node-12782181572","lat":25.0428315,"lon":121.4675229,"name":"Mo-Mo Paradise","decorType":"restaurant"},{"id":"node-12782181573","lat":25.043341,"lon":121.4677273,"name":"Mister Donut","decorType":"burger"},{"id":"node-12782181574","lat":25.0429129,"lon":121.4676058,"name":"和民 手作廚房","decorType":"restaurant"},{"id":"node-12782181575","lat":25.0431264,"lon":121.4674427,"name":"定食8","decorType":"restaurant"},{"id":"node-12782181576","lat":25.0429672,"lon":121.4678426,"name":"らあめん花月嵐","decorType":"restaurant"},{"id":"node-12782181577","lat":25.0430695,"lon":121.4680794,"name":"哈林運動世界","decorType":"clothing"},{"id":"node-12782181579","lat":25.0429151,"lon":121.4678503,"name":"瓦城EXPRESS","decorType":"restaurant"},{"id":"node-13064632013","lat":25.0490633,"lon":121.4696262,"name":"EGG BUN Breakfast Sandwich & Espresso","decorType":"restaurant"},{"id":"node-13126420923","lat":25.0421683,"lon":121.4672667,"name":"萊爾富","decorType":"convenience"},{"id":"node-13335209103","lat":25.0524302,"lon":121.4594412,"name":"萊爾富","decorType":"convenience"},{"id":"node-13423799004","lat":25.0533505,"lon":121.4581691,"name":"萊爾富","decorType":"convenience"},{"id":"node-13423799007","lat":25.0509,"lon":121.4659854,"name":"萊爾富","decorType":"convenience"},{"id":"node-13423799010","lat":25.0437365,"lon":121.4579245,"name":"萊爾富","decorType":"convenience"},{"id":"node-13423799011","lat":25.0465188,"lon":121.465517,"name":"萊爾富","decorType":"convenience"},{"id":"node-13423799014","lat":25.0492464,"lon":121.4604059,"name":"萊爾富","decorType":"convenience"},{"id":"node-13423799017","lat":25.0521618,"lon":121.4618589,"name":"萊爾富","decorType":"convenience"},{"id":"way-225901788","lat":25.0511809,"lon":121.4628967,"name":"頭前運動公園","decorType":"park"},{"id":"way-230842168","lat":25.0519129,"lon":121.4573261,"name":"福壽公園","decorType":"park"},{"id":"way-231440046","lat":25.0541252,"lon":121.4589065,"name":"千葉火鍋","decorType":"restaurant"},{"id":"way-232888055","lat":25.0413997,"lon":121.4672073,"name":"新莊越堤道","decorType":"bridge"},{"id":"way-241781647","lat":25.0541541,"lon":121.4583326,"name":"錢都涮涮鍋","decorType":"restaurant"},{"id":"way-288206615","lat":25.050461,"lon":121.4630001,"name":"未命名橋樑","decorType":"bridge"},{"id":"way-288206625","lat":25.0504465,"lon":121.4630137,"name":"未命名水邊","decorType":"waterside"},{"id":"way-311471483","lat":25.047564,"lon":121.4616903,"name":"化成公園","decorType":"park"},{"id":"way-363297880","lat":25.0432505,"lon":121.4678777,"name":"家樂福","decorType":"supermarket"},{"id":"way-366911428","lat":25.043553,"lon":121.4671278,"name":"未命名橋樑","decorType":"bridge"},{"id":"way-448608798","lat":25.0425964,"lon":121.4666086,"name":"生態池","decorType":"waterside"},{"id":"way-456140225","lat":25.0410281,"lon":121.4627711,"name":"Uniqlo","decorType":"clothing"},{"id":"way-456140232","lat":25.0434172,"lon":121.4673265,"name":"未命名橋樑","decorType":"bridge"},{"id":"way-456140234","lat":25.0418947,"lon":121.4668312,"name":"未命名橋樑","decorType":"bridge"},{"id":"way-456140246","lat":25.0388977,"lon":121.4589539,"name":"未命名橋樑","decorType":"bridge"},{"id":"way-459063302","lat":25.0457397,"lon":121.4573893,"name":"未命名體育館","decorType":"stadium"},{"id":"way-531653601","lat":25.0511253,"lon":121.4612125,"name":"幸福讚精品飯店","decorType":"restaurant"},{"id":"way-765172812","lat":25.0498649,"lon":121.4600648,"name":"捷運幸福站","decorType":"station"},{"id":"way-765172818","lat":25.0396342,"lon":121.4604054,"name":"捷運頭前庄站","decorType":"station"},{"id":"way-943590940","lat":25.0448501,"lon":121.4684333,"name":"二重埔公園","decorType":"park"},{"id":"way-1015909551","lat":25.0501588,"lon":121.465699,"name":"燦坤3C","decorType":"electronics"},{"id":"way-1015909552","lat":25.0503994,"lon":121.4657178,"name":"家樂福超市","decorType":"supermarket"},{"id":"way-1015909562","lat":25.0523902,"lon":121.4658797,"name":"未命名橋樑","decorType":"bridge"},{"id":"way-1016225562","lat":25.0497718,"lon":121.4599462,"name":"未命名橋樑","decorType":"bridge"},{"id":"way-1023830439","lat":25.048167,"lon":121.4604343,"name":"藏壽司","decorType":"burger"},{"id":"way-1228832729","lat":25.0396221,"lon":121.4603328,"name":"未命名公車站","decorType":"bus_stop"},{"id":"way-1228832730","lat":25.039663,"lon":121.4604839,"name":"未命名公車站","decorType":"bus_stop"},{"id":"way-1228832771","lat":25.0500493,"lon":121.460059,"name":"未命名公車站","decorType":"bus_stop"},{"id":"way-1228832813","lat":25.0500459,"lon":121.4599025,"name":"未命名公車站","decorType":"bus_stop"},{"id":"way-1316259124","lat":25.0396162,"lon":121.4616233,"name":"未命名公車站","decorType":"bus_stop"},{"id":"way-1380601696","lat":25.0427965,"lon":121.4676963,"name":"未命名橋樑","decorType":"bridge"},{"id":"way-1380601697","lat":25.0437231,"lon":121.4680824,"name":"未命名橋樑","decorType":"bridge"},{"id":"way-1380601698","lat":25.0436553,"lon":121.4681109,"name":"未命名橋樑","decorType":"bridge"},{"id":"way-1380601709","lat":25.0433336,"lon":121.4672012,"name":"未命名橋樑","decorType":"bridge"}]}