{"bbox":{"south":25.0543375,"north":25.06994375,"west":121.509125,"east":121.52215625},"pois":[{"id":"way-50893534","lat":25.0631773,"lon":121.5096991,"name":"台北大橋","decorType":"bridge"},{"id":"way-51392699","lat":25.0632832,"lon":121.5097569,"name":"台北大橋機慢車引道","decorType":"bridge"},{"id":"way-311689672","lat":25.063065,"lon":121.5096951,"name":"台北大橋機慢車引道","decorType":"bridge"},{"id":"node-1234328197","lat":25.067595,"lon":121.520953,"name":"活肺操場裏","decorType":"stadium"},{"id":"node-1234328206","lat":25.067769,"lon":121.520663,"name":"籃球場(2)","decorType":"stadium"},{"id":"node-2124843027","lat":25.0576209,"lon":121.5192473,"name":"7-Eleven","decorType":"convenience"},{"id":"node-2124843029","lat":25.0584772,"lon":121.5151947,"name":"7-Eleven","decorType":"convenience"},{"id":"node-2124843033","lat":25.0602462,"lon":121.521797,"name":"全家便利商店","decorType":"convenience"},{"id":"node-2124843037","lat":25.0602256,"lon":121.5219335,"name":"百利旅館","decorType":"hotel"},{"id":"node-2124843038","lat":25.05711,"lon":121.5176192,"name":"7-Eleven","decorType":"convenience"},{"id":"node-2124843040","lat":25.0575452,"lon":121.5208699,"name":"全家便利商店","decorType":"convenience"},{"id":"node-2124843047","lat":25.0579206,"lon":121.5216701,"name":"肯德基","decorType":"burger"},{"id":"node-2124843052","lat":25.0577398,"lon":121.5203484,"name":"麥當勞","decorType":"burger"},{"id":"node-2124843059","lat":25.0576792,"lon":121.5197071,"name":"摩斯漢堡","decorType":"burger"},{"id":"node-2124843063","lat":25.0580729,"lon":121.5217182,"name":"萊爾富","decorType":"convenience"},{"id":"node-2124843075","lat":25.0602685,"lon":121.52122,"name":"7-Eleven","decorType":"convenience"},{"id":"node-2152782067","lat":25.0609871,"lon":121.5098148,"name":"賣麵炎仔 金泉小吃店","decorType":"restaurant"},{"id":"node-2166428733","lat":25.0595975,"lon":121.515616,"name":"涼洲街越南美食","decorType":"restaurant"},{"id":"node-2441345996","lat":25.0625569,"lon":121.5194908,"name":"未命名車站","decorType":"station"},{"id":"node-2441346005","lat":25.0627293,"lon":121.516121,"name":"朝代戲院","decorType":"movie_theater"},{"id":"node-2507914373","lat":25.0557066,"lon":121.5130993,"name":"有記名茶","decorType":"cafe"},{"id":"node-2509668573","lat":25.0683835,"lon":121.5206862,"name":"花博公園","decorType":"bus_stop"},{"id":"node-2509668574","lat":25.0685553,"lon":121.5208753,"name":"花博公園","decorType":"bus_stop"},{"id":"node-2509668586","lat":25.0690841,"lon":121.5199371,"name":"捷運圓山站","decorType":"bus_stop"},{"id":"node-2517658824","lat":25.0648373,"lon":121.5181585,"name":"大同國小","decorType":"bus_stop"},{"id":"node-2517658825","lat":25.0661866,"lon":121.5184942,"name":"大同國小","decorType":"bus_stop"},{"id":"node-2517658850","lat":25.0543798,"lon":121.5182148,"name":"建成公園","decorType":"bus_stop"},{"id":"node-2517658859","lat":25.062156,"lon":121.5180868,"name":"成淵高中","decorType":"bus_stop"},{"id":"node-2517658931","lat":25.0680562,"lon":121.5182331,"name":"民族承德路口","decorType":"bus_stop"},{"id":"node-2517658936","lat":25.0687627,"lon":121.5185522,"name":"民族承德路口","decorType":"bus_stop"},{"id":"node-2517658943","lat":25.0568595,"lon":121.5180164,"name":"民生西路口","decorType":"bus_stop"},{"id":"node-2517658948","lat":25.0579002,"lon":121.5183556,"name":"民生西路口","decorType":"bus_stop"},{"id":"node-2517659483","lat":25.0634931,"lon":121.518466,"name":"防癆協會","decorType":"bus_stop"},{"id":"node-2528868387","lat":25.0554377,"lon":121.5140353,"name":"朝陽公園 (鈕釦街)","decorType":"bus_stop"},{"id":"node-2528868388","lat":25.0556934,"lon":121.514162,"name":"朝陽公園 (鈕釦街)","decorType":"bus_stop"},{"id":"node-2532090488","lat":25.0552549,"lon":121.5132878,"name":"振南皮飾五金有限公司","decorType":"clothing"},{"id":"node-2532090489","lat":25.055241,"lon":121.5132427,"name":"火車牌蒸氣熨斗","decorType":"electronics"},{"id":"node-2532090491","lat":25.0552218,"lon":121.5131169,"name":"節盈股份有限公司","decorType":"clothing"},{"id":"node-2532090492","lat":25.0552149,"lon":121.5130603,"name":"允順紗線行","decorType":"clothing"},{"id":"node-2559997193","lat":25.0550906,"lon":121.5098352,"name":"萊爾富","decorType":"convenience"},{"id":"node-2559997219","lat":25.0549093,"lon":121.5099991,"name":"全家便利商店","decorType":"convenience"},{"id":"node-2559997220","lat":25.0549536,"lon":121.5102523,"name":"耀篷布行","decorType":"clothing"},{"id":"node-2560204209","lat":25.065356,"lon":121.5109869,"name":"施家湯圓","decorType":"restaurant"},{"id":"node-2579109182","lat":25.0652636,"lon":121.5109835,"name":"杉味豆花","decorType":"cafe"},{"id":"node-2619610222","lat":25.055152,"lon":121.5151826,"name":"7-Eleven","decorType":"convenience"},{"id":"node-2631129013","lat":25.0571806,"lon":121.5137218,"name":"民生重慶路口","decorType":"bus_stop"},{"id":"node-2631129014","lat":25.056778,"lon":121.5138316,"name":"民生重慶路口","decorType":"bus_stop"},{"id":"node-2631129015","lat":25.0609359,"lon":121.513517,"name":"涼州重慶路口","decorType":"bus_stop"},{"id":"node-2631129016","lat":25.0606612,"lon":121.5135744,"name":"涼州重慶路口","decorType":"bus_stop"},{"id":"node-2631129017","lat":25.0627447,"lon":121.5136249,"name":"捷運大橋頭站","decorType":"bus_stop"},{"id":"node-2631129018","lat":25.0632735,"lon":121.5136165,"name":"捷運大橋頭站","decorType":"bus_stop"},{"id":"node-2631129019","lat":25.0661118,"lon":121.5136548,"name":"昌吉重慶路口","decorType":"bus_stop"},{"id":"node-2631129020","lat":25.0657907,"lon":121.5137321,"name":"昌吉重慶路口","decorType":"bus_stop"},{"id":"node-2631129022","lat":25.0684598,"lon":121.5137802,"name":"民族重慶路口","decorType":"bus_stop"},{"id":"node-2638333410","lat":25.0575929,"lon":121.5214092,"name":"百八魚場","decorType":"restaurant"},{"id":"node-2638333425","lat":25.0576594,"lon":121.5213662,"name":"馬偕醫院","decorType":"bus_stop"},{"id":"node-2638505683","lat":25.0578353,"lon":121.521329,"name":"馬偕醫院","decorType":"bus_stop"},{"id":"node-2638610782","lat":25.0572836,"lon":121.5189006,"name":"双連口仔湯","decorType":"restaurant"},{"id":"node-2638610910","lat":25.0547795,"lon":121.5100345,"name":"未命名郵局","decorType":"post_office"},{"id":"node-2651256441","lat":25.0562773,"lon":121.5197779,"name":"美依修改衣服換拉鏈工作室","decorType":"clothing"},{"id":"node-2651256488","lat":25.0562692,"lon":121.5200883,"name":"北玄宮","decorType":"shrine"},{"id":"node-2651256514","lat":25.0549876,"lon":121.5184311,"name":"全家便利商店","decorType":"convenience"},{"id":"node-2700749823","lat":25.068041,"lon":121.5109657,"name":"天師宮","decorType":"bus_stop"},{"id":"node-2700749824","lat":25.0680643,"lon":121.5108525,"name":"天師宮","decorType":"bus_stop"},{"id":"node-2700750818","lat":25.0661295,"lon":121.5109534,"name":"延平國小","decorType":"bus_stop"},{"id":"node-2700750819","lat":25.0662453,"lon":121.5110397,"name":"延平國小","decorType":"bus_stop"},{"id":"node-2700751797","lat":25.0644425,"lon":121.5110576,"name":"延三觀光夜市","decorType":"bus_stop"},{"id":"node-2700753009","lat":25.0635752,"lon":121.5112182,"name":"延三觀光夜市","decorType":"bus_stop"},{"id":"node-2700754539","lat":25.0615203,"lon":121.5113259,"name":"臺北橋","decorType":"bus_stop"},{"id":"node-2700754540","lat":25.0615258,"lon":121.5112162,"name":"臺北橋","decorType":"bus_stop"},{"id":"node-2700756622","lat":25.0598738,"lon":121.511456,"name":"保安街口","decorType":"bus_stop"},{"id":"node-2700756623","lat":25.0598722,"lon":121.5113374,"name":"保安街口","decorType":"bus_stop"},{"id":"node-2700757811","lat":25.0579309,"lon":121.511456,"name":"民生西路口(大稻埕碼頭)","decorType":"bus_stop"},{"id":"node-2700760318","lat":25.0575173,"lon":121.5115975,"name":"民生西路口(大稻埕碼頭)","decorType":"bus_stop"},{"id":"node-2700761152","lat":25.0544425,"lon":121.5117848,"name":"南京西路口(鈕扣街)","decorType":"bus_stop"},{"id":"node-2700761742","lat":25.0546083,"lon":121.5116796,"name":"南京西路口(鈕扣街)","decorType":"bus_stop"},{"id":"node-2706343208","lat":25.06882,"lon":121.513688,"name":"民族重慶路口","decorType":"bus_stop"},{"id":"node-2713414521","lat":25.0628603,"lon":121.5179453,"name":"捷運民權西路站","decorType":"bus_stop"},{"id":"node-2713414522","lat":25.0629729,"lon":121.5164043,"name":"民權大龍街口","decorType":"bus_stop"},{"id":"node-2779084522","lat":25.0569299,"lon":121.5150018,"name":"靜修女中","decorType":"bus_stop"},{"id":"node-2923881157","lat":25.0632888,"lon":121.5172789,"name":"日月蔬食坊","decorType":"restaurant"},{"id":"node-2950841623","lat":25.0568621,"lon":121.5130309,"name":"全聯福利中心","decorType":"supermarket"},{"id":"node-2950843062","lat":25.0660586,"lon":121.5139621,"name":"伯朗咖啡","decorType":"cafe"},{"id":"node-3034546864","lat":25.0698088,"lon":121.5186624,"name":"金春發牛肉麵","decorType":"restaurant"},{"id":"node-3034549125","lat":25.0658768,"lon":121.5185639,"name":"未命名郵局","decorType":"post_office"},{"id":"node-3100254481","lat":25.0626609,"lon":121.5197741,"name":"NET","decorType":"clothing"},{"id":"node-3100255230","lat":25.0627388,"lon":121.5189009,"name":"未命名車站","decorType":"station"},{"id":"node-3188090053","lat":25.0568709,"lon":121.5112494,"name":"迪化街","decorType":"bus_stop"},{"id":"node-3188090054","lat":25.0569611,"lon":121.5110571,"name":"迪化街","decorType":"bus_stop"},{"id":"node-3188090057","lat":25.0573401,"lon":121.5188226,"name":"捷運雙連站","decorType":"bus_stop"},{"id":"node-3188090058","lat":25.0575329,"lon":121.5189145,"name":"捷運雙連站","decorType":"bus_stop"},{"id":"node-3188090770","lat":25.056358,"lon":121.5116351,"name":"民生西路口(大稻埕碼頭)","decorType":"bus_stop"},{"id":"node-3188090787","lat":25.0570922,"lon":121.5149156,"name":"靜修女中","decorType":"bus_stop"},{"id":"node-3188479010","lat":25.0629198,"lon":121.5186223,"name":"捷運民權西路站","decorType":"bus_stop"},{"id":"node-3221768723","lat":25.0627023,"lon":121.5201953,"name":"未命名車站","decorType":"station"},{"id":"node-3221770058","lat":25.0626876,"lon":121.5205751,"name":"未命名車站","decorType":"station"},{"id":"node-3221770059","lat":25.0629533,"lon":121.5206136,"name":"未命名車站","decorType":"station"},{"id":"node-3221770885","lat":25.062964,"lon":121.5201532,"name":"未命名車站","decorType":"station"},{"id":"node-3221770918","lat":25.0575061,"lon":121.5205912,"name":"未命名車站","decorType":"station"},{"id":"node-3221771075","lat":25.0626213,"lon":121.5200933,"name":"屈臣氏","decorType":"pharmacy"},{"id":"node-3229482484","lat":25.0578233,"lon":121.5206013,"name":"未命名車站","decorType":"station"},{"id":"node-3270616971","lat":25.0544574,"lon":121.5194984,"name":"SOBDEALL graceful gentlemen","decorType":"clothing"},{"id":"node-3270616972","lat":25.054552,"lon":121.5202995,"name":"蘑菇MOGU 中山本店","decorType":"clothing"},{"id":"node-3270616974","lat":25.0547788,"lon":121.5203008,"name":"御之香","decorType":"restaurant"},{"id":"node-3270616975","lat":25.0549436,"lon":121.5203273,"name":"R9 cafe","decorType":"cafe"},{"id":"node-3270616976","lat":25.0551904,"lon":121.5201457,"name":"Misty Mint","decorType":"clothing"},{"id":"node-3270616977","lat":25.0548136,"lon":121.5199052,"name":"赤峰洋行","decorType":"clothing"},{"id":"node-3270616978","lat":25.0549499,"lon":121.519781,"name":"E goat","decorType":"clothing"},{"id":"node-3270620068","lat":25.0558196,"lon":121.5203705,"name":"登波咖啡","decorType":"cafe"},{"id":"node-3270665661","lat":25.0565418,"lon":121.5203204,"name":"松柏農 SONBERNOR 台茶 咖啡 司康 戚風 肉桂捲 專門店","decorType":"restaurant"},{"id":"node-3270665662","lat":25.0567148,"lon":121.5201286,"name":"圍裙咖啡","decorType":"cafe"},{"id":"node-3270665663","lat":25.0565718,"lon":121.5200455,"name":"Alice wrkshop","decorType":"clothing"},{"id":"node-3270665664","lat":25.0566967,"lon":121.5196353,"name":"MB more","decorType":"clothing"},{"id":"node-3270665665","lat":25.0569392,"lon":121.5196695,"name":"極度剪髮SAM Supercut","decorType":"hair_salon"},{"id":"node-3270665667","lat":25.0571172,"lon":121.5196712,"name":"la boutique","decorType":"clothing"},{"id":"node-3270665668","lat":25.0572103,"lon":121.5196736,"name":"蕙比壽","decorType":"clothing"},{"id":"node-3270665669","lat":25.0570996,"lon":121.5195063,"name":"芙歐娜","decorType":"clothing"},{"id":"node-3270665670","lat":25.0573012,"lon":121.5196782,"name":"名古屋台所","decorType":"restaurant"},{"id":"node-3270665672","lat":25.0571597,"lon":121.5204238,"name":"原味湯廚","decorType":"restaurant"},{"id":"node-3270665674","lat":25.0570964,"lon":121.5204244,"name":"豆酥朋","decorType":"cafe"},{"id":"node-3270665675","lat":25.0562833,"lon":121.5195125,"name":"Le Gaulois穀樂","decorType":"cafe"},{"id":"node-3270665676","lat":25.0562811,"lon":121.51963,"name":"Dolly Nails","decorType":"cosmetics"},{"id":"node-3273605579","lat":25.0617554,"lon":121.519822,"name":"未命名車站","decorType":"station"},{"id":"node-3273605580","lat":25.0618614,"lon":121.5196316,"name":"未命名車站","decorType":"station"},{"id":"node-3273605581","lat":25.0619382,"lon":121.5198576,"name":"未命名車站","decorType":"station"},{"id":"node-3273605586","lat":25.0631526,"lon":121.5122626,"name":"未命名車站","decorType":"station"},{"id":"node-3273605587","lat":25.0632098,"lon":121.5187807,"name":"未命名車站","decorType":"station"},{"id":"node-3273605588","lat":25.0631815,"lon":121.5132018,"name":"未命名車站","decorType":"station"},{"id":"node-3273605589","lat":25.0638491,"lon":121.5134306,"name":"未命名車站","decorType":"station"},{"id":"node-3305647700","lat":25.0648159,"lon":121.5136886,"name":"捷運大橋頭站","decorType":"bus_stop"},{"id":"node-3305647703","lat":25.0629131,"lon":121.5136571,"name":"民權重慶路口","decorType":"bus_stop"},{"id":"node-3396604307","lat":25.0625903,"lon":121.5203148,"name":"福勝亭","decorType":"restaurant"},{"id":"node-3487358004","lat":25.0558304,"lon":121.5151332,"name":"全家便利商店","decorType":"convenience"},{"id":"node-3495094872","lat":25.057632,"lon":121.5206986,"name":"雙連","decorType":"station"},{"id":"node-3495094873","lat":25.0628506,"lon":121.519403,"name":"民權西路","decorType":"station"},{"id":"node-3510209907","lat":25.0544105,"lon":121.5217306,"name":"AN-Burger","decorType":"burger"},{"id":"node-3510514465","lat":25.0589139,"lon":121.5116687,"name":"保安捌肆","decorType":"cafe"},{"id":"node-3510597156","lat":25.0571354,"lon":121.5177867,"name":"高雄黑輪大王","decorType":"restaurant"},{"id":"node-3541171395","lat":25.0645887,"lon":121.5215226,"name":"大同工學院科學博物館","decorType":"art_gallery"},{"id":"node-3541175894","lat":25.064662,"lon":121.5221075,"name":"未命名郵局","decorType":"post_office"},{"id":"node-3541175994","lat":25.0636979,"lon":121.5205555,"name":"OK超商","decorType":"convenience"},{"id":"node-3541200793","lat":25.0634958,"lon":121.5208644,"name":"全家便利商店","decorType":"convenience"},{"id":"node-3541200794","lat":25.064146,"lon":121.5194057,"name":"cafe wien","decorType":"cafe"},{"id":"node-3541200893","lat":25.063473,"lon":121.5217244,"name":"法尼斯小館","decorType":"cafe"},{"id":"node-3541200993","lat":25.0625015,"lon":121.5217372,"name":"未命名郵局","decorType":"post_office"},{"id":"node-3541201094","lat":25.0650569,"lon":121.5220143,"name":"漢堡王","decorType":"burger"},{"id":"node-3541201294","lat":25.0650901,"lon":121.5216983,"name":"Tonup cafe","decorType":"cafe"},{"id":"node-3542104232","lat":25.0631239,"lon":121.5205934,"name":"神召會","decorType":"shrine"},{"id":"node-3699452814","lat":25.0666474,"lon":121.52188,"name":"萊爾富","decorType":"convenience"},{"id":"node-3738520752","lat":25.0621042,"lon":121.5095356,"name":"醒心宮","decorType":"shrine"},{"id":"node-3738520753","lat":25.0622418,"lon":121.5096915,"name":"福德宮","decorType":"shrine"},{"id":"node-3738533126","lat":25.0617607,"lon":121.5091524,"name":"明峰摃丸","decorType":"burger"},{"id":"node-3794141096","lat":25.0645834,"lon":121.5112452,"name":"三重知高飯","decorType":"restaurant"},{"id":"node-3794141097","lat":25.0693204,"lon":121.5109203,"name":"全家便利商店","decorType":"convenience"},{"id":"node-3794141116","lat":25.0647092,"lon":121.5109358,"name":"萊爾富","decorType":"convenience"},{"id":"node-3794154664","lat":25.0593868,"lon":121.5183656,"name":"成淵高中","decorType":"bus_stop"},{"id":"node-3794154665","lat":25.0608903,"lon":121.5184178,"name":"成淵高中","decorType":"bus_stop"},{"id":"node-3811440914","lat":25.0571429,"lon":121.5156597,"name":"Hangten","decorType":"clothing"},{"id":"node-3811440915","lat":25.0570069,"lon":121.5165621,"name":"未命名漢堡店","decorType":"burger"},{"id":"node-3811440916","lat":25.0570076,"lon":121.5166126,"name":"未命名服飾店","decorType":"clothing"},{"id":"node-3811440917","lat":25.0571291,"lon":121.5180188,"name":"未命名郵局","decorType":"post_office"},{"id":"node-3811440918","lat":25.057932,"lon":121.5217467,"name":"星巴克","decorType":"cafe"},{"id":"node-3811445822","lat":25.0573293,"lon":121.5193034,"name":"士紀豆漿大王","decorType":"restaurant"},{"id":"node-3811445878","lat":25.057446,"lon":121.5201668,"name":"孫東寶","decorType":"restaurant"},{"id":"node-3811445879","lat":25.0572861,"lon":121.5190852,"name":"路易莎咖啡","decorType":"cafe"},{"id":"node-3811446149","lat":25.0577395,"lon":121.5201587,"name":"全家便利商店","decorType":"convenience"},{"id":"node-3811446151","lat":25.0573347,"lon":121.5191774,"name":"大樹藥局","decorType":"pharmacy"},{"id":"node-3811446152","lat":25.0572394,"lon":121.5185186,"name":"雙福食品","decorType":"bakery"},{"id":"node-3811446939","lat":25.0575015,"lon":121.5204688,"name":"大盜陳","decorType":"cafe"},{"id":"node-3811446940","lat":25.05736,"lon":121.5195205,"name":"Honor","decorType":"clothing"},{"id":"node-3811446943","lat":25.0570322,"lon":121.5167813,"name":"未命名漢堡店","decorType":"burger"},{"id":"node-3812564398","lat":25.063198,"lon":121.5126944,"name":"大橋頭","decorType":"station"},{"id":"node-3826541457","lat":25.0610501,"lon":121.5209377,"name":"下港吔羊肉專賣店","decorType":"restaurant"},{"id":"node-3835265057","lat":25.0611361,"lon":121.5094959,"name":"永興農具工廠","decorType":"hardware"},{"id":"node-3835268457","lat":25.0605644,"lon":121.5111967,"name":"全家便利商店","decorType":"convenience"},{"id":"node-3835269657","lat":25.0625126,"lon":121.5093028,"name":"稻舍","decorType":"restaurant"},{"id":"node-3835271157","lat":25.0616106,"lon":121.5093134,"name":"林豐益商行","decorType":"convenience"},{"id":"node-3835272258","lat":25.0566543,"lon":121.5097977,"name":"百安堂","decorType":"pharmacy"},{"id":"node-3835273957","lat":25.0592486,"lon":121.5094025,"name":"誠記蔘藥行","decorType":"pharmacy"},{"id":"node-3835274357","lat":25.0589352,"lon":121.5094639,"name":"高建桶店","decorType":"convenience"},{"id":"node-3835274557","lat":25.0591362,"lon":121.5095714,"name":"蘑菇","decorType":"clothing"},{"id":"node-3835277357","lat":25.0592421,"lon":121.509667,"name":"孔雀歐亞料理餐酒館","decorType":"restaurant"},{"id":"node-3835281161","lat":25.0583212,"lon":121.512394,"name":"開心茶舖","decorType":"restaurant"},{"id":"node-3835295060","lat":25.0560292,"lon":121.509996,"name":"乾元參藥行","decorType":"pharmacy"},{"id":"node-3835295061","lat":25.0556889,"lon":121.5099081,"name":"福來許","decorType":"cafe"},{"id":"node-3835296357","lat":25.0550913,"lon":121.510275,"name":"老媽麵店","decorType":"restaurant"},{"id":"node-3835318157","lat":25.0561696,"lon":121.5110993,"name":"花生騷","decorType":"clothing"},{"id":"node-3835324082","lat":25.0548054,"lon":121.5100083,"name":"臺北迪化街郵局","decorType":"post_office"},{"id":"node-3835331157","lat":25.0559481,"lon":121.5101579,"name":"點子生活","decorType":"sweetshop"},{"id":"node-3835833777","lat":25.0622498,"lon":121.5137165,"name":"捷運大橋頭站","decorType":"bus_stop"},{"id":"node-3840317457","lat":25.0609278,"lon":121.509373,"name":"248農學市集","decorType":"restaurant"},{"id":"node-3840470157","lat":25.0546549,"lon":121.5100183,"name":"屈臣氏大藥局","decorType":"pharmacy"},{"id":"node-3842772506","lat":25.0576716,"lon":121.5096714,"name":"臻味茶苑","decorType":"restaurant"},{"id":"node-3842874057","lat":25.0580011,"lon":121.5098029,"name":"泉通行","decorType":"cosmetics"},{"id":"node-3843183295","lat":25.0580544,"lon":121.5097792,"name":"永利行","decorType":"supermarket"},{"id":"node-3881368454","lat":25.0692821,"lon":121.5185605,"name":"民族承德路口","decorType":"bus_stop"},{"id":"node-3881368455","lat":25.0685515,"lon":121.5128899,"name":"民族西路","decorType":"bus_stop"},{"id":"node-3881368456","lat":25.0685055,"lon":121.5144154,"name":"民族重慶路口","decorType":"bus_stop"},{"id":"node-3881369157","lat":25.0607006,"lon":121.5128873,"name":"涼州重慶路口","decorType":"bus_stop"},{"id":"node-3881369162","lat":25.0684563,"lon":121.5160399,"name":"蘭州國中","decorType":"bus_stop"},{"id":"node-3881369163","lat":25.0686768,"lon":121.5161335,"name":"蘭州國中","decorType":"bus_stop"},{"id":"node-3887274155","lat":25.0599286,"lon":121.5120105,"name":"台北當代藝術中心","decorType":"art_gallery"},{"id":"node-3889227326","lat":25.0607499,"lon":121.5209654,"name":"曼特林咖啡館","decorType":"cafe"},{"id":"node-3889227327","lat":25.0610529,"lon":121.5211406,"name":"多禮咖啡","decorType":"cafe"},{"id":"node-3889230208","lat":25.0625998,"lon":121.5211122,"name":"康是美","decorType":"pharmacy"},{"id":"node-3889230209","lat":25.063039,"lon":121.5209447,"name":"三商巧福","decorType":"restaurant"},{"id":"node-3889230210","lat":25.0630198,"lon":121.5210033,"name":"鬍鬚張","decorType":"restaurant"},{"id":"node-3889230211","lat":25.0625934,"lon":121.5213352,"name":"松屋","decorType":"burger"},{"id":"node-3889230212","lat":25.0630085,"lon":121.5213564,"name":"摩斯漢堡","decorType":"burger"},{"id":"node-3914109555","lat":25.0657357,"lon":121.5162286,"name":"未命名體育館","decorType":"stadium"},{"id":"node-3939157999","lat":25.0578508,"lon":121.5211445,"name":"全家便利商店","decorType":"convenience"},{"id":"node-3939158014","lat":25.0581408,"lon":121.5216568,"name":"城光教會","decorType":"shrine"},{"id":"node-4031296809","lat":25.0684058,"lon":121.5189174,"name":"丞德路口","decorType":"bus_stop"},{"id":"node-4031296841","lat":25.0699082,"lon":121.5182656,"name":"庫倫街口","decorType":"bus_stop"},{"id":"node-4031297483","lat":25.0650612,"lon":121.518923,"name":"承德宮","decorType":"shrine"},{"id":"node-4031297496","lat":25.0624925,"lon":121.5207179,"name":"萊爾富","decorType":"convenience"},{"id":"node-4104062190","lat":25.0578278,"lon":121.5208834,"name":"老董牛肉麵","decorType":"restaurant"},{"id":"node-4160651808","lat":25.0660253,"lon":121.5181465,"name":"牛老大涮牛肉","decorType":"restaurant"},{"id":"node-4160651809","lat":25.0657714,"lon":121.5181264,"name":"馬可先生","decorType":"bakery"},{"id":"node-4160651810","lat":25.065362,"lon":121.5181223,"name":"7-Eleven","decorType":"convenience"},{"id":"node-4160651813","lat":25.0652236,"lon":121.5185502,"name":"7-Eleven","decorType":"convenience"},{"id":"node-4175821990","lat":25.0627903,"lon":121.5148854,"name":"珠記大橋頭油飯","decorType":"restaurant"},{"id":"node-4206677963","lat":25.0698652,"lon":121.5197369,"name":"21工房","decorType":"restaurant"},{"id":"node-4225593280","lat":25.0548017,"lon":121.5202004,"name":"Ilha Formosa Cafe","decorType":"cafe"},{"id":"node-4236764836","lat":25.0546575,"lon":121.515032,"name":"191寧夏旅店","decorType":"hotel"},{"id":"node-4265555089","lat":25.0555198,"lon":121.511576,"name":"老媽麵店","decorType":"restaurant"},{"id":"node-4317096446","lat":25.0557605,"lon":121.511558,"name":"加福奇士蛋糕","decorType":"sweetshop"},{"id":"node-4317096447","lat":25.055638,"lon":121.5115696,"name":"十字軒糕餅舖","decorType":"sweetshop"},{"id":"node-4317096448","lat":25.0547738,"lon":121.511858,"name":"義美食品","decorType":"convenience"},{"id":"node-4318556090","lat":25.0545461,"lon":121.5145194,"name":"三元號","decorType":"restaurant"},{"id":"node-4338081989","lat":25.0554164,"lon":121.5167616,"name":"家樂福","decorType":"supermarket"},{"id":"node-4340216595","lat":25.0560555,"lon":121.5151984,"name":"寧夏素食","decorType":"restaurant"},{"id":"node-4341417590","lat":25.0578941,"lon":121.521345,"name":"阿瘦皮鞋","decorType":"clothing"},{"id":"node-4344542422","lat":25.0551693,"lon":121.5211905,"name":"公寓咖啡館","decorType":"restaurant"},{"id":"node-4344543604","lat":25.0551654,"lon":121.5211229,"name":"長春飯館","decorType":"restaurant"},{"id":"node-4351000299","lat":25.0569059,"lon":121.5155564,"name":"大昌沙拉船","decorType":"restaurant"},{"id":"node-4353617480","lat":25.0575672,"lon":121.5210014,"name":"麵店","decorType":"restaurant"},{"id":"node-4353617481","lat":25.0575731,"lon":121.5210389,"name":"水果","decorType":"supermarket"},{"id":"node-4353617482","lat":25.0575864,"lon":121.521117,"name":"屈臣氏","decorType":"pharmacy"},{"id":"node-4353617487","lat":25.0575996,"lon":121.5211729,"name":"Giordano","decorType":"clothing"},{"id":"node-4355316077","lat":25.0576113,"lon":121.521285,"name":"瑞松電器公司","decorType":"electronics"},{"id":"node-4355316078","lat":25.0575993,"lon":121.5213423,"name":"馬可先生麵包坊","decorType":"bakery"},{"id":"node-4397232199","lat":25.0576195,"lon":121.5215462,"name":"巧味包子饅頭","decorType":"restaurant"},{"id":"node-4397232200","lat":25.0576269,"lon":121.5216074,"name":"美蓉刀削麵之家","decorType":"restaurant"},{"id":"node-4397232201","lat":25.0576324,"lon":121.5216618,"name":"三花生活館","decorType":"hardware"},{"id":"node-4397232202","lat":25.0576453,"lon":121.521721,"name":"達生中西藥行","decorType":"pharmacy"},{"id":"node-4397232203","lat":25.0576545,"lon":121.5217718,"name":"iROO","decorType":"clothing"},{"id":"node-4397232205","lat":25.0576371,"lon":121.5219219,"name":"民生雙連食堂","decorType":"restaurant"},{"id":"node-4397232207","lat":25.057672,"lon":121.5219568,"name":"日藥本舖","decorType":"pharmacy"},{"id":"node-4397232208","lat":25.0576737,"lon":121.5219929,"name":"彩虹全球3C","decorType":"electronics"},{"id":"node-4397232210","lat":25.0576695,"lon":121.5220844,"name":"Mamaway媽媽餵孕婦裝","decorType":"clothing"},{"id":"node-4400929026","lat":25.0697601,"lon":121.520219,"name":"捷運圓山站(玉門街)","decorType":"bus_stop"},{"id":"node-4424881797","lat":25.0641526,"lon":121.5185372,"name":"維格餅家","decorType":"sweetshop"},{"id":"node-4429728194","lat":25.0607724,"lon":121.5149504,"name":"涼州街無名涼麵","decorType":"restaurant"},{"id":"node-4429913290","lat":25.0593589,"lon":121.5127596,"name":"呷二嘴","decorType":"restaurant"},{"id":"node-4430893490","lat":25.0548271,"lon":121.5106039,"name":"永樂車輪餅","decorType":"bakery"},{"id":"node-4440624790","lat":25.0565542,"lon":121.5153175,"name":"千歲宴","decorType":"restaurant"},{"id":"node-4440636290","lat":25.0557605,"lon":121.5152544,"name":"劉芋仔蛋黄芋餅","decorType":"sweetshop"},{"id":"node-4520803812","lat":25.0571599,"lon":121.5179508,"name":"宸品咖啡","decorType":"cafe"},{"id":"node-4524400584","lat":25.0570485,"lon":121.5165023,"name":"雙連市場","decorType":"bus_stop"},{"id":"node-4524863564","lat":25.0570848,"lon":121.511389,"name":"萊爾富","decorType":"convenience"},{"id":"node-4524863566","lat":25.0546007,"lon":121.520287,"name":"蘑菇","decorType":"cafe"},{"id":"node-4524864139","lat":25.0583369,"lon":121.511648,"name":"7-Eleven","decorType":"convenience"},{"id":"node-4524864142","lat":25.0570456,"lon":121.5110488,"name":"7-Eleven","decorType":"convenience"},{"id":"node-4524864143","lat":25.0571188,"lon":121.5103876,"name":"啟文飯店","decorType":"hotel"},{"id":"node-4533443390","lat":25.0659501,"lon":121.5169634,"name":"手工蛋餅","decorType":"restaurant"},{"id":"node-4535893293","lat":25.0686924,"lon":121.5144986,"name":"廣嚴閣","decorType":"shrine"},{"id":"node-4549415489","lat":25.0580788,"lon":121.5116559,"name":"意麵王","decorType":"restaurant"},{"id":"node-4563648141","lat":25.056715,"lon":121.5153676,"name":"鬍鬚張","decorType":"restaurant"},{"id":"node-4563700391","lat":25.0563594,"lon":121.5152754,"name":"圓環邊蚵仔煎","decorType":"restaurant"},{"id":"node-4563703690","lat":25.0567492,"lon":121.5154934,"name":"山東赤肉蒸餃","decorType":"restaurant"},{"id":"node-4563720689","lat":25.0564076,"lon":121.5152881,"name":"蔡家嘉義火雛肉飯","decorType":"restaurant"},{"id":"node-4563977990","lat":25.059191,"lon":121.5099827,"name":"Doorway Cafe","decorType":"cafe"},{"id":"node-4596733575","lat":25.0569688,"lon":121.5166685,"name":"C U Hotel","decorType":"hotel"},{"id":"node-4633606690","lat":25.0632205,"lon":121.5180372,"name":"隆發五金行","decorType":"hardware"},{"id":"node-4633697989","lat":25.0571253,"lon":121.5178819,"name":"大埔鐵板燒","decorType":"restaurant"},{"id":"node-4634215397","lat":25.0687913,"lon":121.5107695,"name":"萬鄉烤鴨莊","decorType":"restaurant"},{"id":"node-4644280790","lat":25.0660602,"lon":121.5146347,"name":"美廉社","decorType":"supermarket"},{"id":"node-4705045000","lat":25.0568752,"lon":121.5151996,"name":"燦坤3C","decorType":"electronics"},{"id":"node-4705120089","lat":25.0593548,"lon":121.5138628,"name":"太子油飯","decorType":"restaurant"},{"id":"node-4707090391","lat":25.0632373,"lon":121.5120895,"name":"郵局","decorType":"post_office"},{"id":"node-4721548095","lat":25.0636116,"lon":121.5212554,"name":"實驗攝","decorType":"electronics"},{"id":"node-4790130021","lat":25.0627493,"lon":121.5138139,"name":"全家便利商店","decorType":"convenience"},{"id":"node-4809511027","lat":25.0543445,"lon":121.5103385,"name":"民樂旗魚米粉湯","decorType":"restaurant"},{"id":"node-4828108425","lat":25.060071,"lon":121.5092319,"name":"La Lupa Classic","decorType":"restaurant"},{"id":"node-4828117121","lat":25.0595142,"lon":121.5095244,"name":"迪化207博物館","decorType":"art_gallery"},{"id":"node-4832102524","lat":25.0635405,"lon":121.5199411,"name":"路易莎咖啡","decorType":"cafe"},{"id":"node-4838086672","lat":25.0627168,"lon":121.5158692,"name":"全家便利商店","decorType":"convenience"},{"id":"node-4838086676","lat":25.0630384,"lon":121.5190597,"name":"捷運民權西路站","decorType":"bus_stop"},{"id":"node-4838086680","lat":25.0629832,"lon":121.5221535,"name":"BEST 最佳風情","decorType":"clothing"},{"id":"node-4838086683","lat":25.0624405,"lon":121.5148111,"name":"玄天宮","decorType":"shrine"},{"id":"node-4838086684","lat":25.0623823,"lon":121.5145513,"name":"蓬萊廟","decorType":"shrine"},{"id":"node-4838086685","lat":25.063117,"lon":121.5147395,"name":"未命名郵局","decorType":"post_office"},{"id":"node-4838086687","lat":25.0631473,"lon":121.5164337,"name":"7-Eleven","decorType":"convenience"},{"id":"node-4838086688","lat":25.0626041,"lon":121.5157963,"name":"基督教新生教團重慶教會","decorType":"shrine"},{"id":"node-4838086690","lat":25.0642607,"lon":121.5151259,"name":"一加書店","decorType":"library"},{"id":"node-4838086691","lat":25.0649594,"lon":121.5155485,"name":"蘭州街湯包","decorType":"restaurant"},{"id":"node-4838086692","lat":25.0647774,"lon":121.5134733,"name":"未命名郵局","decorType":"post_office"},{"id":"node-4838086693","lat":25.0655785,"lon":121.5165204,"name":"地藏王廟","decorType":"shrine"},{"id":"node-4838086694","lat":25.065771,"lon":121.5167351,"name":"紅昌吉豬血湯","decorType":"restaurant"},{"id":"node-4838086695","lat":25.0659514,"lon":121.5173695,"name":"永緣素食餐館","decorType":"restaurant"},{"id":"node-4838086696","lat":25.0660329,"lon":121.517903,"name":"昌吉一號記憶旅店","decorType":"hotel"},{"id":"node-4838086697","lat":25.0662249,"lon":121.5186011,"name":"大同靈糧福音中心","decorType":"shrine"},{"id":"node-4838086698","lat":25.0658768,"lon":121.5184909,"name":"未命名郵局","decorType":"post_office"},{"id":"node-4838086700","lat":25.0651619,"lon":121.5180891,"name":"台灣長老教會圓山教會","decorType":"shrine"},{"id":"node-4838086715","lat":25.0622562,"lon":121.5198862,"name":"F2法式甜點","decorType":"bakery"},{"id":"node-4838087694","lat":25.0549413,"lon":121.5163472,"name":"玩味旅舍","decorType":"hotel"},{"id":"node-4838087695","lat":25.0552765,"lon":121.5167165,"name":"ID COFFEE","decorType":"cafe"},{"id":"node-4838087701","lat":25.0568096,"lon":121.5120891,"name":"波麗路","decorType":"restaurant"},{"id":"node-4838087702","lat":25.0568203,"lon":121.5119473,"name":"波麗路","decorType":"restaurant"},{"id":"node-4838087704","lat":25.0545941,"lon":121.5095888,"name":"轉角咖啡豆咖啡","decorType":"cafe"},{"id":"node-4838087723","lat":25.0596715,"lon":121.5092724,"name":"老阿伯魷魚羹","decorType":"restaurant"},{"id":"node-4838087724","lat":25.0602105,"lon":121.5092237,"name":"AMA Cafe","decorType":"cafe"},{"id":"node-4838087727","lat":25.059261,"lon":121.5106516,"name":"佳興魚丸店","decorType":"restaurant"},{"id":"node-4838087748","lat":25.0644115,"lon":121.5134923,"name":"捷運大橋頭站","decorType":"bus_stop"},{"id":"node-4838087750","lat":25.0650619,"lon":121.5109697,"name":"雞蛋客仔煎","decorType":"restaurant"},{"id":"node-4838087751","lat":25.064072,"lon":121.5107167,"name":"龍雲寺","decorType":"shrine"},{"id":"node-4838087752","lat":25.0649627,"lon":121.5103238,"name":"靈聖宮","decorType":"shrine"},{"id":"node-4838087753","lat":25.0659692,"lon":121.5102736,"name":"廣信府","decorType":"shrine"},{"id":"node-4838087754","lat":25.0657787,"lon":121.510936,"name":"未命名郵局","decorType":"post_office"},{"id":"node-4838087757","lat":25.0683437,"lon":121.5109972,"name":"OK超商","decorType":"convenience"},{"id":"node-4838087758","lat":25.0658076,"lon":121.5111729,"name":"7-Eleven","decorType":"convenience"},{"id":"node-4838087759","lat":25.0643913,"lon":121.5112591,"name":"全家便利商店","decorType":"convenience"},{"id":"node-4838087761","lat":25.0634321,"lon":121.5109567,"name":"橋泰商務旅館","decorType":"hotel"},{"id":"node-4838087762","lat":25.0632019,"lon":121.5110416,"name":"未命名郵局","decorType":"post_office"},{"id":"node-4848960023","lat":25.0568764,"lon":121.5133262,"name":"燦坤3C","decorType":"electronics"},{"id":"node-4848972921","lat":25.0574711,"lon":121.5154999,"name":"四海豆漿大王","decorType":"restaurant"},{"id":"node-4931821023","lat":25.054625,"lon":121.5100498,"name":"Lugou","decorType":"cafe"},{"id":"node-4945133722","lat":25.0593356,"lon":121.5132683,"name":"星巴克","decorType":"cafe"},{"id":"node-4945137021","lat":25.0590946,"lon":121.5140354,"name":"爭鮮","decorType":"restaurant"},{"id":"node-4953075493","lat":25.0568706,"lon":121.5149801,"name":"7-Eleven","decorType":"convenience"},{"id":"node-4953075501","lat":25.0606338,"lon":121.5126139,"name":"阿輝牛肉","decorType":"restaurant"},{"id":"node-4973714947","lat":25.0593232,"lon":121.5095461,"name":"鹹花生","decorType":"cafe"},{"id":"node-4973810990","lat":25.0546566,"lon":121.5100121,"name":"二十年代","decorType":"library"},{"id":"node-5001056822","lat":25.0550126,"lon":121.50921,"name":"破朽","decorType":"clothing"},{"id":"node-5052921367","lat":25.0578933,"lon":121.5215023,"name":"雙連高記水餃","decorType":"restaurant"},{"id":"node-5052921368","lat":25.057901,"lon":121.5213998,"name":"康是美","decorType":"pharmacy"},{"id":"node-5052921369","lat":25.0579136,"lon":121.521564,"name":"三五手工水餃","decorType":"restaurant"},{"id":"node-5110488710","lat":25.0602424,"lon":121.521042,"name":"Rayca Coffee","decorType":"cafe"},{"id":"node-5110488711","lat":25.0604432,"lon":121.5213103,"name":"肉老大","decorType":"restaurant"},{"id":"node-5110488712","lat":25.0604551,"lon":121.5207878,"name":"雅式食品","decorType":"bakery"},{"id":"node-5110488714","lat":25.05918,"lon":121.5216911,"name":"好佳麵食館","decorType":"restaurant"},{"id":"node-5110488715","lat":25.0593235,"lon":121.5217129,"name":"維康醫療用品(北馬院外店)","decorType":"convenience"},{"id":"node-5110488716","lat":25.0591594,"lon":121.5215586,"name":"佳佳豆漿","decorType":"restaurant"},{"id":"node-5110488718","lat":25.0602209,"lon":121.5214536,"name":"50嵐","decorType":"cafe"},{"id":"node-5110488719","lat":25.0602231,"lon":121.5215953,"name":"春天連鎖藥局","decorType":"pharmacy"},{"id":"node-5110488720","lat":25.0602165,"lon":121.5216674,"name":"全聯福利中心","decorType":"supermarket"},{"id":"node-5110488921","lat":25.0602484,"lon":121.5213499,"name":"燦坤3C","decorType":"electronics"},{"id":"node-5110488922","lat":25.0605434,"lon":121.5214165,"name":"永靜廟","decorType":"shrine"},{"id":"node-5110488923","lat":25.060617,"lon":121.5206065,"name":"九府先師普惠堂","decorType":"shrine"},{"id":"node-5110489230","lat":25.0569317,"lon":121.5161162,"name":"賴家蛤仔煎","decorType":"restaurant"},{"id":"node-5110489231","lat":25.056919,"lon":121.5164515,"name":"建成分館","decorType":"library"},{"id":"node-5110489232","lat":25.0568589,"lon":121.5142222,"name":"全國電子","decorType":"electronics"},{"id":"node-5110489239","lat":25.0567544,"lon":121.5135941,"name":"WENDY","decorType":"clothing"},{"id":"node-5110489241","lat":25.055797,"lon":121.5138257,"name":"7-Eleven","decorType":"convenience"},{"id":"node-5110491055","lat":25.062995,"lon":121.5220477,"name":"ARTCO DE CAFE","decorType":"cafe"},{"id":"node-5110491056","lat":25.0625837,"lon":121.521195,"name":"全家便利商店","decorType":"convenience"},{"id":"node-5110491057","lat":25.0625825,"lon":121.5212956,"name":"美術系壽司","decorType":"restaurant"},{"id":"node-5110491058","lat":25.062591,"lon":121.5209686,"name":"洪瑞珍三明治","decorType":"bakery"},{"id":"node-5144548821","lat":25.0548115,"lon":121.5200514,"name":"Coffee Stand By Me","decorType":"cafe"},{"id":"node-5208155828","lat":25.0546562,"lon":121.5099793,"name":"未命名咖啡廳","decorType":"cafe"},{"id":"node-5236381023","lat":25.0568379,"lon":121.5114865,"name":"果原農產行","decorType":"supermarket"},{"id":"node-5251477699","lat":25.0599125,"lon":121.5219389,"name":"家鄉味水餃","decorType":"restaurant"},{"id":"node-5251477700","lat":25.0578727,"lon":121.5212266,"name":"留乃堂","decorType":"bakery"},{"id":"node-5251477701","lat":25.0599224,"lon":121.5218954,"name":"家和素食","decorType":"restaurant"},{"id":"node-5274513724","lat":25.0549838,"lon":121.5105946,"name":"林合發油飯","decorType":"restaurant"},{"id":"node-5314334356","lat":25.0650804,"lon":121.5096693,"name":"大橋教會","decorType":"shrine"},{"id":"node-5314334357","lat":25.0628003,"lon":121.5127212,"name":"未命名郵局","decorType":"post_office"},{"id":"node-5332524926","lat":25.05437,"lon":121.510555,"name":"金仙魚丸店","decorType":"restaurant"},{"id":"node-5335025723","lat":25.0548454,"lon":121.51141,"name":"未命名超市","decorType":"supermarket"},{"id":"node-5335039022","lat":25.0549835,"lon":121.5143892,"name":"未命名餐廳","decorType":"restaurant"},{"id":"node-5335045521","lat":25.0568024,"lon":121.51039,"name":"未命名超市","decorType":"supermarket"},{"id":"node-5335045621","lat":25.0568454,"lon":121.50975,"name":"妙口四神湯.肉包專賣店","decorType":"restaurant"},{"id":"node-5340265923","lat":25.0557769,"lon":121.5138333,"name":"林三益旗艦店","decorType":"cosmetics"},{"id":"node-5342451422","lat":25.0547044,"lon":121.5144841,"name":"龍緣魯肉飯","decorType":"restaurant"},{"id":"node-5344337522","lat":25.0689208,"lon":121.5109548,"name":"津津豆漿","decorType":"restaurant"},{"id":"node-5344367621","lat":25.0685699,"lon":121.5110694,"name":"老牌張豬腳飯","decorType":"restaurant"},{"id":"node-5490093322","lat":25.0632062,"lon":121.5126032,"name":"未命名車站","decorType":"station"},{"id":"node-5493901122","lat":25.0556843,"lon":121.5219781,"name":"跳舞咖啡廳","decorType":"restaurant"},{"id":"node-5544090027","lat":25.0571243,"lon":121.5199115,"name":"蜜菓拾伍甜點店","decorType":"cafe"},{"id":"node-5636490721","lat":25.0611271,"lon":121.5203426,"name":"豆咖鮮烘咖啡坊","decorType":"cafe"},{"id":"node-5643524621","lat":25.056314,"lon":121.5152709,"name":"感恩牛羊肉小館","decorType":"restaurant"},{"id":"node-5643534921","lat":25.0569911,"lon":121.5163707,"name":"阿川","decorType":"restaurant"},{"id":"node-5666895650","lat":25.0659559,"lon":121.5217181,"name":"學餐:大野狼小火鍋蓋飯","decorType":"restaurant"},{"id":"node-5666895651","lat":25.0659992,"lon":121.5218228,"name":"學餐:早餐店","decorType":"restaurant"},{"id":"node-5666895652","lat":25.0660452,"lon":121.5216977,"name":"學餐:自助餐","decorType":"restaurant"},{"id":"node-5666895653","lat":25.0659715,"lon":121.5217846,"name":"學餐:義大利麵店","decorType":"restaurant"},{"id":"node-5666895654","lat":25.065949,"lon":121.5216617,"name":"學餐:滷味","decorType":"restaurant"},{"id":"node-5666895655","lat":25.0659379,"lon":121.5215941,"name":"學餐:中華麵店","decorType":"restaurant"},{"id":"node-5666895656","lat":25.0659697,"lon":121.5215453,"name":"學餐:麵包店","decorType":"restaurant"},{"id":"node-5666895657","lat":25.0661474,"lon":121.5216896,"name":"學餐:手搖飲料店","decorType":"restaurant"},{"id":"node-5666895658","lat":25.0661133,"lon":121.5214614,"name":"理髮廳","decorType":"hair_salon"},{"id":"node-5666994085","lat":25.066638,"lon":121.5219917,"name":"學餐:早餐","decorType":"restaurant"},{"id":"node-5666994086","lat":25.0665907,"lon":121.5219873,"name":"學餐:早餐&滷味","decorType":"restaurant"},{"id":"node-5666994087","lat":25.0665578,"lon":121.521982,"name":"學餐:手搖影料店","decorType":"restaurant"},{"id":"node-5667002227","lat":25.0664753,"lon":121.5219696,"name":"學餐:日韓料理&炸物","decorType":"restaurant"},{"id":"node-5667002228","lat":25.0661587,"lon":121.5219209,"name":"學餐:自助餐","decorType":"restaurant"},{"id":"node-5843095485","lat":25.0602427,"lon":121.5198226,"name":"未命名咖啡廳","decorType":"cafe"},{"id":"node-5843097587","lat":25.0596927,"lon":121.5151128,"name":"Laundry","decorType":"laundry"},{"id":"node-5843180886","lat":25.0587796,"lon":121.5149384,"name":"Steep Stairs","decorType":"cafe"},{"id":"node-5851984997","lat":25.0687469,"lon":121.5141609,"name":"正中藥局","decorType":"pharmacy"},{"id":"node-5851985004","lat":25.0698299,"lon":121.5154852,"name":"龍安宮","decorType":"shrine"},{"id":"node-5851985016","lat":25.0664953,"lon":121.5169229,"name":"順天府","decorType":"shrine"},{"id":"node-5851985017","lat":25.0664965,"lon":121.516833,"name":"蓮興宮","decorType":"shrine"},{"id":"node-5851985018","lat":25.0664953,"lon":121.5167311,"name":"民聖堂","decorType":"shrine"},{"id":"node-5851985019","lat":25.0662973,"lon":121.5168062,"name":"朝安宮","decorType":"shrine"},{"id":"node-5851985020","lat":25.0663009,"lon":121.5167123,"name":"澤安宮","decorType":"shrine"},{"id":"node-5851985024","lat":25.0690743,"lon":121.5144753,"name":"民族教會","decorType":"shrine"},{"id":"node-5851985026","lat":25.067376,"lon":121.5173346,"name":"老地方牛肉麵","decorType":"restaurant"},{"id":"node-5851985027","lat":25.0665925,"lon":121.5167083,"name":"北安府","decorType":"shrine"},{"id":"node-5851985028","lat":25.0662584,"lon":121.5162724,"name":"台北行天府","decorType":"shrine"},{"id":"node-5851985029","lat":25.0656826,"lon":121.5159103,"name":"7-Eleven","decorType":"convenience"},{"id":"node-5851985030","lat":25.0662317,"lon":121.5158111,"name":"景福宮","decorType":"shrine"},{"id":"node-5851985032","lat":25.0673566,"lon":121.5160578,"name":"全家便利商店","decorType":"convenience"},{"id":"node-5851985033","lat":25.0668294,"lon":121.5152559,"name":"報安堂","decorType":"shrine"},{"id":"node-5851985034","lat":25.0669752,"lon":121.5154758,"name":"五龍宮","decorType":"shrine"},{"id":"node-5851985037","lat":25.0677988,"lon":121.514757,"name":"太子壜","decorType":"shrine"},{"id":"node-5883211185","lat":25.0566622,"lon":121.515333,"name":"青蛙下","decorType":"burger"},{"id":"node-6024333533","lat":25.0600341,"lon":121.5093137,"name":"同安樂","decorType":"restaurant"},{"id":"node-6026319586","lat":25.0683651,"lon":121.5195153,"name":"鴉咖啡","decorType":"cafe"},{"id":"node-6114015235","lat":25.0618554,"lon":121.5148011,"name":"未命名公園","decorType":"park"},{"id":"node-6129972003","lat":25.0657385,"lon":121.517373,"name":"好杯咖啡","decorType":"cafe"},{"id":"node-6204895486","lat":25.058218,"lon":121.5117302,"name":"Apple 203","decorType":"restaurant"},{"id":"node-6253878186","lat":25.0546607,"lon":121.5208104,"name":"銷魂麵舖","decorType":"restaurant"},{"id":"node-6259442485","lat":25.0658315,"lon":121.5186175,"name":"臺北大同郵局","decorType":"post_office"},{"id":"node-6334684521","lat":25.058128,"lon":121.5124639,"name":"清心福全","decorType":"cafe"},{"id":"node-6384886387","lat":25.0555542,"lon":121.5096108,"name":"Chance Cafe","decorType":"cafe"},{"id":"node-6400241777","lat":25.0582595,"lon":121.5130088,"name":"全家便利商店","decorType":"convenience"},{"id":"node-6403449999","lat":25.0583779,"lon":121.5110173,"name":"八方雲集","decorType":"burger"},{"id":"node-6418121431","lat":25.0625664,"lon":121.5116071,"name":"久居棧旅店","decorType":"hotel"},{"id":"node-6418121441","lat":25.0573938,"lon":121.5177938,"name":"未命名拉麵店","decorType":"ramen"},{"id":"node-6418121442","lat":25.0624111,"lon":121.5111223,"name":"鞋全家福","decorType":"clothing"},{"id":"node-6418121443","lat":25.0631346,"lon":121.5119924,"name":"Lucky Foot","decorType":"cafe"},{"id":"node-6418121448","lat":25.0626928,"lon":121.5117014,"name":"未命名美髮院","decorType":"hair_salon"},{"id":"node-6418121458","lat":25.0624245,"lon":121.5113708,"name":"萊爾富","decorType":"convenience"},{"id":"node-6422218527","lat":25.0549072,"lon":121.5092822,"name":"有木的森","decorType":"cafe"},{"id":"node-6433456342","lat":25.0548696,"lon":121.5118516,"name":"行冊","decorType":"restaurant"},{"id":"node-6433456343","lat":25.0548367,"lon":121.5113353,"name":"永久號","decorType":"restaurant"},{"id":"node-6433466703","lat":25.0545941,"lon":121.5118651,"name":"森林小鎮洗衣店","decorType":"laundry"},{"id":"node-6440001986","lat":25.0559976,"lon":121.515181,"name":"明吉小館","decorType":"restaurant"},{"id":"node-6499848126","lat":25.0576775,"lon":121.5105174,"name":"未命名咖啡廳","decorType":"cafe"},{"id":"node-6499848128","lat":25.0546165,"lon":121.510262,"name":"早餐吃了沒","decorType":"restaurant"},{"id":"node-6499848129","lat":25.057518,"lon":121.5106404,"name":"也賣咖啡","decorType":"cafe"},{"id":"node-6499848138","lat":25.0581377,"lon":121.5127196,"name":"未命名美髮院","decorType":"hair_salon"},{"id":"node-6499848145","lat":25.0564572,"lon":121.5106128,"name":"未命名咖啡廳","decorType":"cafe"},{"id":"node-6499848151","lat":25.05752,"lon":121.5108981,"name":"未命名漢堡店","decorType":"burger"},{"id":"node-6499848154","lat":25.0576104,"lon":121.5106254,"name":"Station 26","decorType":"cafe"},{"id":"node-6499848155","lat":25.0576426,"lon":121.5104173,"name":"玩藝工廠","decorType":"art_gallery"},{"id":"node-6499848158","lat":25.0581378,"lon":121.5126779,"name":"未命名漢堡店","decorType":"burger"},{"id":"node-6499848161","lat":25.0581288,"lon":121.5121659,"name":"未命名自主洗衣店&乾洗店","decorType":"laundry"},{"id":"node-6499848163","lat":25.0578981,"lon":121.5130679,"name":"未命名公園","decorType":"park"},{"id":"node-6499848164","lat":25.0565968,"lon":121.5117421,"name":"OH MI! CAFE","decorType":"cafe"},{"id":"node-6499848166","lat":25.0576164,"lon":121.5105216,"name":"未命名咖啡廳","decorType":"cafe"},{"id":"node-6499848167","lat":25.0574219,"lon":121.5106536,"name":"DaMa kitchen","decorType":"burger"},{"id":"node-6499848168","lat":25.0571328,"lon":121.5139604,"name":"台南碗粿","decorType":"restaurant"},{"id":"node-6499848170","lat":25.0581301,"lon":121.512227,"name":"Jian Shan","decorType":"hotel"},{"id":"node-6499848176","lat":25.0585616,"lon":121.511376,"name":"福州料理","decorType":"restaurant"},{"id":"node-6499848183","lat":25.058106,"lon":121.5118955,"name":"鮮堡漢堡","decorType":"burger"},{"id":"node-6510454287","lat":25.0582368,"lon":121.5127596,"name":"世界美食","decorType":"restaurant"},{"id":"node-6516663886","lat":25.0596948,"lon":121.5137605,"name":"未命名自主洗衣店&乾洗店","decorType":"laundry"},{"id":"node-6559456885","lat":25.0658112,"lon":121.5166237,"name":"拉亞漢堡","decorType":"burger"},{"id":"node-6579380113","lat":25.0660172,"lon":121.5109294,"name":"錢都","decorType":"restaurant"},{"id":"node-6579380114","lat":25.0654653,"lon":121.5128421,"name":"未命名公園","decorType":"park"},{"id":"node-6579380116","lat":25.0658777,"lon":121.5116932,"name":"牡丹居","decorType":"hotel"},{"id":"node-6579661152","lat":25.0581947,"lon":121.5103193,"name":"孵咖啡洋館","decorType":"cafe"},{"id":"node-6579661153","lat":25.062078,"lon":121.50917,"name":"孵咖啡","decorType":"cafe"},{"id":"node-6579661155","lat":25.0620511,"lon":121.5098126,"name":"未命名便利商店","decorType":"convenience"},{"id":"node-6579661157","lat":25.0609547,"lon":121.5092555,"name":"Modern mode café","decorType":"cafe"},{"id":"node-6579661158","lat":25.0583364,"lon":121.5111,"name":"正心牛肉飯麵館","decorType":"restaurant"},{"id":"node-6579661159","lat":25.0582713,"lon":121.5100164,"name":"琢磨","decorType":"cafe"},{"id":"node-6681493385","lat":25.0564434,"lon":121.509843,"name":"度小月擔仔麵","decorType":"restaurant"},{"id":"node-6709918285","lat":25.0556753,"lon":121.5201346,"name":"三角三圓","decorType":"restaurant"},{"id":"node-6720843989","lat":25.0627826,"lon":121.5129174,"name":"肉羹 魯肉飯","decorType":"restaurant"},{"id":"node-6720843990","lat":25.0627455,"lon":121.5126475,"name":"未命名郵局","decorType":"post_office"},{"id":"node-6720844000","lat":25.0625198,"lon":121.5115409,"name":"未命名漢堡店","decorType":"burger"},{"id":"node-6720844003","lat":25.0627822,"lon":121.5133856,"name":"未命名漢堡店","decorType":"burger"},{"id":"node-6720844005","lat":25.0623553,"lon":121.5113515,"name":"Just for U","decorType":"burger"},{"id":"node-6720844007","lat":25.0593296,"lon":121.5113503,"name":"擺渡咖啡","decorType":"cafe"},{"id":"node-6720844008","lat":25.0552496,"lon":121.5102186,"name":"未命名神社","decorType":"shrine"},{"id":"node-6720844009","lat":25.0622721,"lon":121.5137563,"name":"Pythonism","decorType":"cafe"},{"id":"node-6720844023","lat":25.0573268,"lon":121.5106736,"name":"未命名漢堡店","decorType":"burger"},{"id":"node-6720844025","lat":25.0692115,"lon":121.5185868,"name":"一流男士西服","decorType":"clothing"},{"id":"node-6720844026","lat":25.0627895,"lon":121.51329,"name":"Qburger","decorType":"burger"},{"id":"node-6720844029","lat":25.0620492,"lon":121.5105867,"name":"Lab Man Mano","decorType":"cafe"},{"id":"node-6720844030","lat":25.0627574,"lon":121.512429,"name":"一品佳油飯","decorType":"restaurant"},{"id":"node-6720844031","lat":25.0627891,"lon":121.5130477,"name":"品越小館","decorType":"cafe"},{"id":"node-6720844035","lat":25.0568034,"lon":121.5107748,"name":"Sugar Café bar","decorType":"cafe"},{"id":"node-6720844039","lat":25.0623255,"lon":121.511367,"name":"未命名漢堡店","decorType":"burger"},{"id":"node-6858306521","lat":25.0601267,"lon":121.5146165,"name":"大同分局","decorType":"bus_stop"},{"id":"node-6872618285","lat":25.0571245,"lon":121.5197948,"name":"小良絆","decorType":"restaurant"},{"id":"node-6886468241","lat":25.0633771,"lon":121.5117039,"name":"未命名車站","decorType":"station"},{"id":"node-6900173326","lat":25.0622094,"lon":121.5114833,"name":"阿角紅燒肉","decorType":"restaurant"},{"id":"node-6925887686","lat":25.0562245,"lon":121.5109747,"name":"迪化街32巷口米粉湯","decorType":"restaurant"},{"id":"node-6925916485","lat":25.0673207,"lon":121.5110527,"name":"旗魚新竹米粉","decorType":"restaurant"},{"id":"node-6939523047","lat":25.05895,"lon":121.5188956,"name":"雷達壇","decorType":"shrine"},{"id":"node-6939523049","lat":25.058775,"lon":121.5191129,"name":"雙福宮","decorType":"shrine"},{"id":"node-6939523050","lat":25.0582865,"lon":121.5189943,"name":"皇冠租書","decorType":"library"},{"id":"node-6939523052","lat":25.0584786,"lon":121.5191451,"name":"滿庭香滷肉飯","decorType":"restaurant"},{"id":"node-6939523053","lat":25.0581482,"lon":121.5191773,"name":"品香越南牛肉河粉","decorType":"restaurant"},{"id":"node-6939523055","lat":25.0579392,"lon":121.5192202,"name":"雙連街滷肉飯","decorType":"restaurant"},{"id":"node-6939523056","lat":25.0578199,"lon":121.5186879,"name":"三聖堂","decorType":"shrine"},{"id":"node-6939523061","lat":25.0574022,"lon":121.5196694,"name":"達芙妮","decorType":"clothing"},{"id":"node-6944250287","lat":25.0574474,"lon":121.5106464,"name":"永樂米苔目","decorType":"restaurant"},{"id":"node-7008579986","lat":25.0568378,"lon":121.5143508,"name":"霸味薑母鴨民生西店","decorType":"restaurant"},{"id":"node-7014022773","lat":25.0635087,"lon":121.5110722,"name":"林家鯊魚煙","decorType":"burger"},{"id":"node-7014033279","lat":25.0643684,"lon":121.5111601,"name":"大橋頭延三夜市蒸餃","decorType":"restaurant"},{"id":"node-7021208675","lat":25.0572728,"lon":121.513952,"name":"大橋頭筒仔米糕","decorType":"restaurant"},{"id":"node-7037347315","lat":25.0578503,"lon":121.5210142,"name":"唐滷","decorType":"restaurant"},{"id":"node-7037347316","lat":25.0578684,"lon":121.5210744,"name":"鶴 現滷滷味","decorType":"restaurant"},{"id":"node-7037347317","lat":25.0578312,"lon":121.5209608,"name":"源美素食","decorType":"restaurant"},{"id":"node-7090080380","lat":25.0589593,"lon":121.5102819,"name":"未命名公園","decorType":"park"},{"id":"node-7129638620","lat":25.0562427,"lon":121.5195593,"name":"紅拾玖","decorType":"burger"},{"id":"node-7130046505","lat":25.0571057,"lon":121.5126071,"name":"新芳春","decorType":"art_gallery"},{"id":"node-7170215707","lat":25.0635162,"lon":121.5112809,"name":"保記小籠包","decorType":"restaurant"},{"id":"node-7170215708","lat":25.0635375,"lon":121.5110581,"name":"黃大腸煎","decorType":"restaurant"},{"id":"node-7170215709","lat":25.0636843,"lon":121.5110369,"name":"素麵線攤","decorType":"restaurant"},{"id":"node-7170215710","lat":25.0642066,"lon":121.5110077,"name":"魏祥記純糖麻糬","decorType":"restaurant"},{"id":"node-7170215711","lat":25.0638539,"lon":121.5112789,"name":"灶頂","decorType":"restaurant"},{"id":"node-7170215712","lat":25.0639994,"lon":121.5112839,"name":"麻辣鹽水雞健康蔬菜","decorType":"restaurant"},{"id":"node-7170215713","lat":25.0640966,"lon":121.5112216,"name":"阿欉大橋頭肉粽","decorType":"restaurant"},{"id":"node-7170215714","lat":25.0640883,"lon":121.5110262,"name":"台北橋頭滷肉飯","decorType":"restaurant"},{"id":"node-7170215715","lat":25.0641338,"lon":121.5110125,"name":"林記牛肉麵","decorType":"restaurant"},{"id":"node-7170215716","lat":25.0647473,"lon":121.5110634,"name":"汕頭四神湯刈包肉粽","decorType":"restaurant"},{"id":"node-7170215717","lat":25.0648842,"lon":121.5110144,"name":"大呼過癮臭臭鍋","decorType":"restaurant"},{"id":"node-7170215718","lat":25.0649095,"lon":121.5109935,"name":"東石鮮蚵","decorType":"restaurant"},{"id":"node-7170215719","lat":25.0651517,"lon":121.5110147,"name":"汕頭牛肉麵","decorType":"restaurant"},{"id":"node-7170215720","lat":25.0652385,"lon":121.5111655,"name":"寶神涮涮鍋","decorType":"restaurant"},{"id":"node-7170215721","lat":25.0653754,"lon":121.5109658,"name":"大橋頭魯肉飯","decorType":"restaurant"},{"id":"node-7170215722","lat":25.0654485,"lon":121.5112005,"name":"胖老爹美式炸雞","decorType":"burger"},{"id":"node-7170215723","lat":25.065409,"lon":121.511155,"name":"帝一好生猛快炒","decorType":"restaurant"},{"id":"node-7194693214","lat":25.0690192,"lon":121.5220918,"name":"肉舖廚房","decorType":"restaurant"},{"id":"node-7194693264","lat":25.0693615,"lon":121.5134881,"name":"貳分之一串燒丼飯","decorType":"restaurant"},{"id":"node-7194693284","lat":25.0660311,"lon":121.5141259,"name":"紅蘿蔔早餐店","decorType":"restaurant"},{"id":"node-7194706692","lat":25.0689543,"lon":121.5220682,"name":"三隻獅子英國餐廳 The Three Lions Inn","decorType":"restaurant"},{"id":"node-7194706712","lat":25.0658337,"lon":121.5133071,"name":"武吉家","decorType":"restaurant"},{"id":"node-7194706742","lat":25.0696764,"lon":121.5196483,"name":"駱師父醬味川客菜","decorType":"restaurant"},{"id":"node-7194706762","lat":25.0661231,"lon":121.5186101,"name":"靈芝茶藝館","decorType":"restaurant"},{"id":"node-7194706769","lat":25.0693017,"lon":121.5221426,"name":"POPEYE波派地中海料理餐廳","decorType":"restaurant"},{"id":"node-7194706774","lat":25.0683647,"lon":121.5134694,"name":"英仕堡早餐店","decorType":"restaurant"},{"id":"node-7194706789","lat":25.0658386,"lon":121.5132208,"name":"認真煮麵","decorType":"restaurant"},{"id":"node-7194706823","lat":25.0695599,"lon":121.5196267,"name":"如意泰式料理","decorType":"restaurant"},{"id":"node-7194706842","lat":25.0681172,"lon":121.5189738,"name":"農物小舖","decorType":"restaurant"},{"id":"node-7194706849","lat":25.0691732,"lon":121.5139732,"name":"馥鍋日式涮涮鍋","decorType":"restaurant"},{"id":"node-7194706856","lat":25.0689705,"lon":121.518632,"name":"金春發牛肉店","decorType":"restaurant"},{"id":"node-7194706924","lat":25.0664129,"lon":121.5134506,"name":"洪瑞珍三明治","decorType":"restaurant"},{"id":"node-7194706932","lat":25.0658881,"lon":121.5130191,"name":"台北橋頭魯肉飯","decorType":"restaurant"},{"id":"node-7194706939","lat":25.0689071,"lon":121.5220359,"name":"GAUCHO高卓人","decorType":"restaurant"},{"id":"node-7194706959","lat":25.0657732,"lon":121.5139527,"name":"君城本家","decorType":"restaurant"},{"id":"node-7194707010","lat":25.0658797,"lon":121.5128809,"name":"美而美","decorType":"restaurant"},{"id":"node-7205578387","lat":25.0556216,"lon":121.5202955,"name":"Miss V Bakery","decorType":"bakery"},{"id":"node-7214103918","lat":25.0592209,"lon":121.5120721,"name":"延平分館","decorType":"library"},{"id":"node-7216196568","lat":25.0608148,"lon":121.5131128,"name":"涼州重慶路口","decorType":"bus_stop"},{"id":"node-7216987765","lat":25.0688241,"lon":121.5121552,"name":"全聯福利中心","decorType":"supermarket"},{"id":"node-7216987766","lat":25.0684669,"lon":121.5124503,"name":"7-Eleven","decorType":"convenience"},{"id":"node-7216987767","lat":25.0551911,"lon":121.5110046,"name":"紅燒土鯽魚鯗","decorType":"restaurant"},{"id":"node-7216987768","lat":25.0552446,"lon":121.5109979,"name":"古早口味水餃阿姨的店","decorType":"restaurant"},{"id":"node-7216987769","lat":25.0552992,"lon":121.5109938,"name":"海山便當","decorType":"restaurant"},{"id":"node-7216987770","lat":25.0553418,"lon":121.5109965,"name":"四十年歷史魷魚羹","decorType":"restaurant"},{"id":"node-7216987771","lat":25.0560221,"lon":121.5107766,"name":"幹嘛西班牙酒館","decorType":"restaurant"},{"id":"node-7217000493","lat":25.0604418,"lon":121.511482,"name":"延平四面佛","decorType":"shrine"},{"id":"node-7217000496","lat":25.0597627,"lon":121.5121043,"name":"小葉海鮮","decorType":"restaurant"},{"id":"node-7217000497","lat":25.0597967,"lon":121.5120077,"name":"秀秀小吃店","decorType":"restaurant"},{"id":"node-7217000500","lat":25.0584337,"lon":121.5128539,"name":"棟發鼓亭","decorType":"art_gallery"},{"id":"node-7296140686","lat":25.0634709,"lon":121.518517,"name":"美加炸雞","decorType":"burger"},{"id":"node-7343439093","lat":25.0557844,"lon":121.5150013,"name":"越春真","decorType":"restaurant"},{"id":"node-7643770585","lat":25.0572881,"lon":121.517293,"name":"文大叔蔬食麵线","decorType":"restaurant"},{"id":"node-7652736150","lat":25.0591454,"lon":121.5116467,"name":"葳皇時尚飯店","decorType":"hotel"},{"id":"node-7652736151","lat":25.0593159,"lon":121.5116069,"name":"意芙旅店","decorType":"hotel"},{"id":"node-7652736155","lat":25.0592987,"lon":121.5129335,"name":"保慶藥局","decorType":"pharmacy"},{"id":"node-7652736181","lat":25.0590147,"lon":121.5140537,"name":"三商巧福","decorType":"restaurant"},{"id":"node-7652736182","lat":25.0591065,"lon":121.5141964,"name":"百八魚場","decorType":"restaurant"},{"id":"node-7652736183","lat":25.0590237,"lon":121.5141947,"name":"薩莉亞","decorType":"restaurant"},{"id":"node-7682149834","lat":25.05575,"lon":121.5099097,"name":"三銘大藥局","decorType":"pharmacy"},{"id":"node-7747684806","lat":25.0636757,"lon":121.5159311,"name":"美又堡","decorType":"restaurant"},{"id":"node-7747684815","lat":25.0633313,"lon":121.5160518,"name":"尚品香","decorType":"restaurant"},{"id":"node-7749776768","lat":25.0619069,"lon":121.521201,"name":"一口良甜-甜點工作室","decorType":"restaurant"},{"id":"node-7749776782","lat":25.0616536,"lon":121.5211473,"name":"麵線傳奇","decorType":"restaurant"},{"id":"node-7749776784","lat":25.0617423,"lon":121.5204895,"name":"吉祥海鮮樓","decorType":"restaurant"},{"id":"node-7749782388","lat":25.0617557,"lon":121.5208335,"name":"品司和食","decorType":"restaurant"},{"id":"node-7749782392","lat":25.0616482,"lon":121.5209093,"name":"美而美","decorType":"restaurant"},{"id":"node-7749782394","lat":25.0614739,"lon":121.5209529,"name":"頂香快餐","decorType":"restaurant"},{"id":"node-7749782398","lat":25.0623309,"lon":121.5198284,"name":"F2 法式甜點","decorType":"restaurant"},{"id":"node-7749782399","lat":25.0620624,"lon":121.5211467,"name":"十方緣養生素食","decorType":"restaurant"},{"id":"node-7749782402","lat":25.0621839,"lon":121.5198793,"name":"冰豆","decorType":"restaurant"},{"id":"node-7749782403","lat":25.0617296,"lon":121.5211527,"name":"潘朵拉複合式早午餐店","decorType":"restaurant"},{"id":"node-7749782412","lat":25.0619364,"lon":121.5201187,"name":"天善素苑","decorType":"restaurant"},{"id":"node-7749782413","lat":25.0626306,"lon":121.5199675,"name":"麥當勞","decorType":"burger"},{"id":"node-7749782414","lat":25.062354,"lon":121.520505,"name":"天祥豬腳飯","decorType":"restaurant"},{"id":"node-7749782415","lat":25.0624445,"lon":121.5204279,"name":"巷仔內","decorType":"restaurant"},{"id":"node-7749782416","lat":25.0626352,"lon":121.5204459,"name":"頂呱呱","decorType":"burger"},{"id":"node-7749782419","lat":25.0629724,"lon":121.5092226,"name":"如記蔬廚","decorType":"restaurant"},{"id":"node-7749806934","lat":25.069197,"lon":121.5139939,"name":"馥鍋日式涮涮鍋","decorType":"restaurant"},{"id":"node-7749806944","lat":25.0616986,"lon":121.5159935,"name":"大同海產商行","decorType":"restaurant"},{"id":"node-7749806946","lat":25.0617666,"lon":121.5160089,"name":"惠發燒臘小吃店","decorType":"restaurant"},{"id":"node-7749806951","lat":25.0687791,"lon":121.514708,"name":"酒食無雙","decorType":"restaurant"},{"id":"node-7749806954","lat":25.0621426,"lon":121.515974,"name":"呷尚寶","decorType":"burger"},{"id":"node-7749806964","lat":25.062063,"lon":121.5160163,"name":"昇冠雞排專賣店","decorType":"restaurant"},{"id":"node-7749806967","lat":25.0691041,"lon":121.5158453,"name":"圓環魯肉飯肉羹","decorType":"restaurant"},{"id":"node-7749806975","lat":25.0689176,"lon":121.515846,"name":"簡家大龍峒肉圓","decorType":"restaurant"},{"id":"node-7749822701","lat":25.0672096,"lon":121.5176343,"name":"阿儒食堂","decorType":"restaurant"},{"id":"node-7749822703","lat":25.0673548,"lon":121.5173963,"name":"老地方牛肉麵食館","decorType":"restaurant"},{"id":"node-7749822729","lat":25.067404,"lon":121.5169946,"name":"JOMO COFFEE","decorType":"restaurant"},{"id":"node-7749822732","lat":25.0674088,"lon":121.5170811,"name":"小林麵食店","decorType":"restaurant"},{"id":"node-7749832492","lat":25.0634255,"lon":121.5160498,"name":"三大牛肉麵","decorType":"restaurant"},{"id":"node-7749832493","lat":25.0646506,"lon":121.5154255,"name":"和太咖哩屋","decorType":"restaurant"},{"id":"node-7749832495","lat":25.0636168,"lon":121.5210763,"name":"小珍園拉麵","decorType":"restaurant"},{"id":"node-7749832498","lat":25.0630951,"lon":121.5208885,"name":"民權台菜自助餐","decorType":"restaurant"},{"id":"node-7749832500","lat":25.0643439,"lon":121.5153585,"name":"無名豆漿店","decorType":"restaurant"},{"id":"node-7749832501","lat":25.0628272,"lon":121.5148502,"name":"柴寮仔涼麵","decorType":"restaurant"},{"id":"node-7749832502","lat":25.0645401,"lon":121.5152901,"name":"傳統清粥小菜早餐","decorType":"restaurant"},{"id":"node-7749832503","lat":25.0643573,"lon":121.5156374,"name":"漸層蘭","decorType":"restaurant"},{"id":"node-7749832505","lat":25.0638306,"lon":121.5159184,"name":"Ray yummy亞米雷早午餐","decorType":"restaurant"},{"id":"node-7749832506","lat":25.063143,"lon":121.516198,"name":"蒜翻天 鹹酥雞","decorType":"restaurant"},{"id":"node-7749832507","lat":25.0637699,"lon":121.5160793,"name":"弘爺漢堡","decorType":"burger"},{"id":"node-7749832508","lat":25.0647363,"lon":121.5134353,"name":"米拉圖鳥花園","decorType":"restaurant"},{"id":"node-7749832509","lat":25.0635393,"lon":121.5208884,"name":"御村日本廣島燒","decorType":"restaurant"},{"id":"node-7749832510","lat":25.0645698,"lon":121.5153933,"name":"梔の坊 複合式早午餐","decorType":"restaurant"},{"id":"node-7749832511","lat":25.0623911,"lon":121.5158574,"name":"一方豬腳飯","decorType":"restaurant"},{"id":"node-7749832513","lat":25.0634704,"lon":121.5194884,"name":"美而美","decorType":"restaurant"},{"id":"node-7749832514","lat":25.0647302,"lon":121.5139402,"name":"達美樂","decorType":"restaurant"},{"id":"node-7749832515","lat":25.062996,"lon":121.521838,"name":"圈子 Brunch.Coffee","decorType":"restaurant"},{"id":"node-7749832516","lat":25.06314,"lon":121.5162496,"name":"初","decorType":"restaurant"},{"id":"node-7749832517","lat":25.0636016,"lon":121.5160666,"name":"歐浮找餐-大同店","decorType":"restaurant"},{"id":"node-7749832519","lat":25.063058,"lon":121.5198036,"name":"すき家","decorType":"burger"},{"id":"node-7749832520","lat":25.063307,"lon":121.5209026,"name":"八方雲集","decorType":"burger"},{"id":"node-7749832522","lat":25.0633058,"lon":121.521148,"name":"銀座小路日式拉麵","decorType":"restaurant"},{"id":"node-7749832523","lat":25.064678,"lon":121.5139382,"name":"旺盛苑和牛燒肉","decorType":"restaurant"},{"id":"node-7749832524","lat":25.0622501,"lon":121.5169101,"name":"大楊牛肉麵店","decorType":"restaurant"},{"id":"node-7749832526","lat":25.0625223,"lon":121.5146665,"name":"陳壽司","decorType":"restaurant"},{"id":"node-7765178673","lat":25.0553591,"lon":121.5153639,"name":"隨緣素食","decorType":"restaurant"},{"id":"node-7765187637","lat":25.054448,"lon":121.5162423,"name":"日新現做早餐店","decorType":"restaurant"},{"id":"node-7765187760","lat":25.0545464,"lon":121.5159902,"name":"四喜堂私廚","decorType":"restaurant"},{"id":"node-7765187774","lat":25.055514,"lon":121.5179784,"name":"好吃羊肉爐","decorType":"restaurant"},{"id":"node-7765187835","lat":25.0554891,"lon":121.5158225,"name":"日船章魚燒","decorType":"restaurant"},{"id":"node-7765187970","lat":25.0552182,"lon":121.5159392,"name":"龍賛鍋","decorType":"restaurant"},{"id":"node-7765188482","lat":25.0551915,"lon":121.5160371,"name":"澎湖活生蠔","decorType":"restaurant"},{"id":"node-7778780617","lat":25.0554084,"lon":121.5179502,"name":"Taiwan Bistro","decorType":"restaurant"},{"id":"node-7780481069","lat":25.0558715,"lon":121.5151593,"name":"豆花莊","decorType":"restaurant"},{"id":"node-7780481071","lat":25.0559356,"lon":121.5151847,"name":"里長伯麻辣臭豆腐","decorType":"restaurant"},{"id":"node-7780481072","lat":25.0565506,"lon":121.5154564,"name":"豬肝榮仔","decorType":"restaurant"},{"id":"node-7780481073","lat":25.0565542,"lon":121.5155791,"name":"牛媽媽","decorType":"restaurant"},{"id":"node-7780481074","lat":25.0563927,"lon":121.5154785,"name":"鴻記鐵板燒蔥餅捲","decorType":"restaurant"},{"id":"node-7780481075","lat":25.056457,"lon":121.5154879,"name":"方家雞肉飯","decorType":"restaurant"},{"id":"node-7780481076","lat":25.0569831,"lon":121.5166077,"name":"古早味豆花","decorType":"restaurant"},{"id":"node-7780481077","lat":25.0565178,"lon":121.5155187,"name":"慈音古早味阿婆飯糰","decorType":"restaurant"},{"id":"node-7780481078","lat":25.0566065,"lon":121.515504,"name":"三星蔥肉捲","decorType":"restaurant"},{"id":"node-7780481079","lat":25.0566502,"lon":121.5155402,"name":"感恩東山鴨頭","decorType":"restaurant"},{"id":"node-7780481080","lat":25.0568051,"lon":121.5154027,"name":"東石鮮蚵","decorType":"restaurant"},{"id":"node-7780481081","lat":25.0564421,"lon":121.5153017,"name":"客家放山雞","decorType":"restaurant"},{"id":"node-7780481082","lat":25.0562543,"lon":121.5152586,"name":"環記麻油雞","decorType":"restaurant"},{"id":"node-7780481083","lat":25.0561826,"lon":121.5153364,"name":"鴨頭正二代滷肉飯","decorType":"restaurant"},{"id":"node-7780481084","lat":25.0567201,"lon":121.5156213,"name":"料理長胡椒蝦","decorType":"restaurant"},{"id":"node-7780482085","lat":25.057387,"lon":121.5156104,"name":"老攤肉粥","decorType":"restaurant"},{"id":"node-7780482086","lat":25.057289,"lon":121.5156692,"name":"福州胡椒餅攤","decorType":"restaurant"},{"id":"node-7786748172","lat":25.0624544,"lon":121.5203387,"name":"天祥豬腳飯","decorType":"restaurant"},{"id":"node-7786748173","lat":25.062621,"lon":121.5201423,"name":"星巴克","decorType":"cafe"},{"id":"node-7786748174","lat":25.0626292,"lon":121.5200375,"name":"7-Eleven","decorType":"convenience"},{"id":"node-7786874208","lat":25.0613305,"lon":121.5219017,"name":"和韵WAING","decorType":"restaurant"},{"id":"node-7786874209","lat":25.0610387,"lon":121.5217118,"name":"古早味陽春麵","decorType":"restaurant"},{"id":"node-7786874210","lat":25.0611282,"lon":121.5211312,"name":"正功夫港式煨湯","decorType":"restaurant"},{"id":"node-7786874211","lat":25.060803,"lon":121.5209542,"name":"阿珍福州麵","decorType":"restaurant"},{"id":"node-7786874212","lat":25.0607352,"lon":121.5209489,"name":"魚港生猛海鮮","decorType":"restaurant"},{"id":"node-7786874213","lat":25.060649,"lon":121.5209234,"name":"鍋媽媽牛奶火鍋","decorType":"restaurant"},{"id":"node-7786874214","lat":25.0605749,"lon":121.5209274,"name":"滿腹早午餐","decorType":"restaurant"},{"id":"node-7786874215","lat":25.0602425,"lon":121.5211226,"name":"禾崧牛排屋","decorType":"restaurant"},{"id":"node-7786874216","lat":25.0602347,"lon":121.5212139,"name":"阿國切仔麵","decorType":"restaurant"},{"id":"node-7786874217","lat":25.0602246,"lon":121.5215104,"name":"錦西街車輪餅","decorType":"restaurant"},{"id":"node-7786874218","lat":25.0603726,"lon":121.5221009,"name":"天食堂涮涮鍋","decorType":"restaurant"},{"id":"node-7786874224","lat":25.0598897,"lon":121.5220315,"name":"開封包公府的私房麵","decorType":"restaurant"},{"id":"node-7787035839","lat":25.0686831,"lon":121.5173675,"name":"101咖哩肉圓甜不辣","decorType":"restaurant"},{"id":"node-7787035840","lat":25.068837,"lon":121.5181794,"name":"牆角一扇門","decorType":"restaurant"},{"id":"node-7787035841","lat":25.0695031,"lon":121.5196373,"name":"吉米究食廚房","decorType":"restaurant"},{"id":"node-7800411570","lat":25.0684287,"lon":121.5110001,"name":"炒飯專家","decorType":"restaurant"},{"id":"node-7800450789","lat":25.0683778,"lon":121.5110056,"name":"歐陽麵店","decorType":"restaurant"},{"id":"node-7800461584","lat":25.0681346,"lon":121.5108121,"name":"老程麵店","decorType":"restaurant"},{"id":"node-7800467585","lat":25.0658077,"lon":121.5105305,"name":"昌吉便當","decorType":"restaurant"},{"id":"node-7800467587","lat":25.068807,"lon":121.5115404,"name":"大食神炭燒薑母鴨","decorType":"restaurant"},{"id":"node-7800467590","lat":25.0687815,"lon":121.5129492,"name":"富山天滿","decorType":"restaurant"},{"id":"node-7800467591","lat":25.068784,"lon":121.5124825,"name":"味津烤鴨","decorType":"restaurant"},{"id":"node-7800467592","lat":25.0656717,"lon":121.5109416,"name":"新營人牛肉","decorType":"restaurant"},{"id":"node-7800467593","lat":25.0690372,"lon":121.5109624,"name":"好味快餐便當","decorType":"restaurant"},{"id":"node-7800467594","lat":25.0675971,"lon":121.5121928,"name":"見來成魯肉飯","decorType":"restaurant"},{"id":"node-7800467597","lat":25.065846,"lon":121.5097252,"name":"百九麵攤","decorType":"restaurant"},{"id":"node-7800467599","lat":25.0688678,"lon":121.5109785,"name":"赤肉胡椒餅","decorType":"restaurant"},{"id":"node-7800467600","lat":25.068971,"lon":121.5107672,"name":"林森北路章記魷魚羹","decorType":"restaurant"},{"id":"node-7800467601","lat":25.0675084,"lon":121.5108222,"name":"大橋町","decorType":"restaurant"},{"id":"node-7800467603","lat":25.068183,"lon":121.510799,"name":"八方雲集","decorType":"burger"},{"id":"node-7800467604","lat":25.0687736,"lon":121.5130263,"name":"佳裕香冒菜涼皮","decorType":"restaurant"},{"id":"node-7800467605","lat":25.0587258,"lon":121.5096514,"name":"牧山丘","decorType":"restaurant"},{"id":"node-7800467606","lat":25.0689953,"lon":121.5109671,"name":"勁雞小子","decorType":"restaurant"},{"id":"node-7800467607","lat":25.0682968,"lon":121.5105841,"name":"素香飯糰","decorType":"restaurant"},{"id":"node-7800467608","lat":25.0683649,"lon":121.5134749,"name":"英仕堡早餐店","decorType":"restaurant"},{"id":"node-7800467611","lat":25.0683054,"lon":121.510995,"name":"徐記涼麵","decorType":"restaurant"},{"id":"node-7800467612","lat":25.0682731,"lon":121.5106988,"name":"阿桃油飯","decorType":"restaurant"},{"id":"node-7800467613","lat":25.0580771,"lon":121.5096266,"name":"金桔檸檬汁","decorType":"restaurant"},{"id":"node-7800467616","lat":25.0687742,"lon":121.5131001,"name":"嗑一鍋","decorType":"restaurant"},{"id":"node-7800467617","lat":25.0691939,"lon":121.5109865,"name":"香港榮華燒臘","decorType":"restaurant"},{"id":"node-7800467618","lat":25.0680229,"lon":121.5108175,"name":"燒蝦","decorType":"restaurant"},{"id":"node-7800467619","lat":25.0685477,"lon":121.5112916,"name":"世界豆漿大王","decorType":"restaurant"},{"id":"node-7800467621","lat":25.0681978,"lon":121.5135091,"name":"禾楓創意烘焙","decorType":"restaurant"},{"id":"node-7800467622","lat":25.0684839,"lon":121.5109979,"name":"牛爺爺生炒沙茶牛肉店","decorType":"restaurant"},{"id":"node-7800467625","lat":25.0677231,"lon":121.5110262,"name":"廟口厚切牛排","decorType":"restaurant"},{"id":"node-7800467626","lat":25.0678905,"lon":121.5107451,"name":"美而美早餐店","decorType":"restaurant"},{"id":"node-7800467627","lat":25.0679877,"lon":121.5108229,"name":"無名生魚片握壽司鴨肉","decorType":"restaurant"},{"id":"node-7820748091","lat":25.0648274,"lon":121.5185724,"name":"向陽庭自助餐","decorType":"restaurant"},{"id":"node-7820748092","lat":25.0657968,"lon":121.5178977,"name":"雞佬餓","decorType":"restaurant"},{"id":"node-7820748093","lat":25.066008,"lon":121.51651,"name":"八方雲集","decorType":"burger"},{"id":"node-7820748094","lat":25.0659978,"lon":121.5162676,"name":"昌吉紅燒鰻","decorType":"restaurant"},{"id":"node-7820748095","lat":25.0655835,"lon":121.5157752,"name":"東區小賴甜不辣","decorType":"restaurant"},{"id":"node-7820748096","lat":25.0657688,"lon":121.5156185,"name":"正宗川味福州牛肉麵","decorType":"restaurant"},{"id":"node-7820748097","lat":25.065783,"lon":121.5149708,"name":"大慈素食","decorType":"restaurant"},{"id":"node-7820748098","lat":25.0657717,"lon":121.5148739,"name":"雙胖子","decorType":"restaurant"},{"id":"node-7820748099","lat":25.0658061,"lon":121.5146228,"name":"找餐趣複合式早午餐","decorType":"restaurant"},{"id":"node-7820748100","lat":25.0657953,"lon":121.5144716,"name":"油飯、肉羹","decorType":"restaurant"},{"id":"node-7839875695","lat":25.0602531,"lon":121.5119608,"name":"許仔豬腳麵線","decorType":"restaurant"},{"id":"node-7911265785","lat":25.0598537,"lon":121.5094779,"name":"合興1947","decorType":"bakery"},{"id":"node-8118207178","lat":25.0656778,"lon":121.5139389,"name":"7-Eleven","decorType":"convenience"},{"id":"node-8118207179","lat":25.059648,"lon":121.5113051,"name":"7-Eleven","decorType":"convenience"},{"id":"node-8118207180","lat":25.0606338,"lon":121.5145934,"name":"7-Eleven","decorType":"convenience"},{"id":"node-8150339517","lat":25.0552154,"lon":121.5202196,"name":"浮光書店","decorType":"library"},{"id":"node-8397520224","lat":25.0546458,"lon":121.5144921,"name":"臺北圓環郵局","decorType":"post_office"},{"id":"node-8397520225","lat":25.0545959,"lon":121.5145083,"name":"好味港式茶餐廳","decorType":"restaurant"},{"id":"node-8397520226","lat":25.0575371,"lon":121.5184243,"name":"梁社漢排骨","decorType":"restaurant"},{"id":"node-8397520227","lat":25.0543993,"lon":121.5145569,"name":"梁社漢排骨","decorType":"restaurant"},{"id":"node-8397520228","lat":25.0543947,"lon":121.5146843,"name":"寧夏2號旅店","decorType":"hotel"},{"id":"node-8397882153","lat":25.0569437,"lon":121.5158235,"name":"慈音古早味阿婆飯糰","decorType":"restaurant"},{"id":"node-8428073317","lat":25.0557443,"lon":121.5210301,"name":"柚子花花","decorType":"restaurant"},{"id":"node-8432400545","lat":25.0610353,"lon":121.518099,"name":"成淵高中","decorType":"bus_stop"},{"id":"node-8518273533","lat":25.0601381,"lon":121.5146577,"name":"大同分局","decorType":"bus_stop"},{"id":"node-8629125664","lat":25.0578822,"lon":121.5205128,"name":"香滿園","decorType":"restaurant"},{"id":"node-8789294950","lat":25.0630185,"lon":121.5211312,"name":"全家便利商店","decorType":"convenience"},{"id":"node-8916363584","lat":25.0639819,"lon":121.5190311,"name":"未命名公園","decorType":"park"},{"id":"node-9239426827","lat":25.0546618,"lon":121.5207059,"name":"Lisa","decorType":"hair_salon"},{"id":"node-9239426829","lat":25.0546522,"lon":121.5209806,"name":"WOW Bistro旺.慢食餐酒館-中山店","decorType":"restaurant"},{"id":"node-9245717461","lat":25.0543426,"lon":121.5208441,"name":"HABIT SELECT中山店","decorType":"clothing"},{"id":"node-9245717468","lat":25.054631,"lon":121.5214892,"name":"玫瑰緣結婚百貨公司","decorType":"clothing"},{"id":"node-9245717469","lat":25.054632,"lon":121.5216083,"name":"Ruby","decorType":"cosmetics"},{"id":"node-9245717470","lat":25.0545865,"lon":121.5216342,"name":"稲町家香料咖哩 中山本舖","decorType":"restaurant"},{"id":"node-9245717474","lat":25.0544505,"lon":121.5216246,"name":"Between服飾中山店","decorType":"clothing"},{"id":"node-9245717475","lat":25.0543636,"lon":121.5216172,"name":"BAZOOKA","decorType":"clothing"},{"id":"node-9245919413","lat":25.0544422,"lon":121.5210795,"name":"ann's中山門市","decorType":"clothing"},{"id":"node-9247054924","lat":25.0546527,"lon":121.5202965,"name":"礫川","decorType":"restaurant"},{"id":"node-9247054925","lat":25.054694,"lon":121.5203204,"name":"未命名服飾店","decorType":"clothing"},{"id":"node-9247054926","lat":25.0548105,"lon":121.5201259,"name":"HYCEIA","decorType":"cosmetics"},{"id":"node-9247054930","lat":25.0549579,"lon":121.5196956,"name":"威基基小島","decorType":"clothing"},{"id":"node-9247131658","lat":25.0552242,"lon":121.5212424,"name":"DEER LASH 美睫 除毛 紋綉 美甲","decorType":"cosmetics"},{"id":"node-9247131660","lat":25.0552294,"lon":121.5213132,"name":"MUKK服飾店","decorType":"clothing"},{"id":"node-9247165589","lat":25.0554006,"lon":121.5197758,"name":"月霞咖啡館","decorType":"restaurant"},{"id":"node-9247165592","lat":25.0574171,"lon":121.5200833,"name":"台灣大哥大","decorType":"electronics"},{"id":"node-9250144670","lat":25.0581822,"lon":121.5206829,"name":"未命名車站","decorType":"station"},{"id":"node-9256917241","lat":25.0565175,"lon":121.5208213,"name":"未命名咖啡廳","decorType":"cafe"},{"id":"node-9258829240","lat":25.0551752,"lon":121.520028,"name":"八時神仙草-赤峰店","decorType":"restaurant"},{"id":"node-9258829241","lat":25.0552011,"lon":121.5202704,"name":"北風社","decorType":"cafe"},{"id":"node-9258829245","lat":25.0549417,"lon":121.519802,"name":"阡日咖啡供應所","decorType":"cafe"},{"id":"node-9258856288","lat":25.0548085,"lon":121.5199731,"name":"Haeng bok","decorType":"cosmetics"},{"id":"node-9258992304","lat":25.0544193,"lon":121.5203003,"name":"AFAD 南西門市","decorType":"clothing"},{"id":"node-9258992313","lat":25.055402,"lon":121.5203624,"name":"double like雙倍喜歡","decorType":"restaurant"},{"id":"node-9258992314","lat":25.0553975,"lon":121.5202485,"name":"#nude showroom","decorType":"clothing"},{"id":"node-9258992315","lat":25.0554292,"lon":121.5197168,"name":"iki_shop","decorType":"restaurant"},{"id":"node-9259008397","lat":25.0562717,"lon":121.5203973,"name":"巷仔內大腸煎","decorType":"restaurant"},{"id":"node-9259026617","lat":25.0556173,"lon":121.5197876,"name":"赤鐵 廣島燒專賣店","decorType":"restaurant"},{"id":"node-9259026618","lat":25.0556348,"lon":121.5199142,"name":"台北中山許許兒沐光店","decorType":"clothing"},{"id":"node-9259026619","lat":25.0556536,"lon":121.5203761,"name":"赤豐 蔬坊","decorType":"restaurant"},{"id":"node-9259026620","lat":25.0558216,"lon":121.5202983,"name":"登波咖啡","decorType":"restaurant"},{"id":"node-9259026623","lat":25.0558129,"lon":121.5202442,"name":"A-ONE ACADEMY髮型教育","decorType":"cosmetics"},{"id":"node-9259026624","lat":25.05583,"lon":121.5197029,"name":"猫蔵咖啡 -《NEZO CAFE》","decorType":"cafe"},{"id":"node-9259026625","lat":25.0558122,"lon":121.5197632,"name":"EWF Vintage","decorType":"clothing"},{"id":"node-9259026626","lat":25.055796,"lon":121.5200484,"name":"香蕉貓。Banana Cats","decorType":"clothing"},{"id":"node-9259026627","lat":25.0558118,"lon":121.5201918,"name":"A-ONE ACADEMY髮型教育","decorType":"cosmetics"},{"id":"node-9259026629","lat":25.0560899,"lon":121.5199894,"name":"三貓小舖-貓咪文創咖啡館","decorType":"cafe"},{"id":"node-9259026630","lat":25.0561037,"lon":121.5197672,"name":"妮可製顏所 紋繡藝術美學","decorType":"cosmetics"},{"id":"node-9260117502","lat":25.0562731,"lon":121.5199072,"name":"MEET Hair Salon","decorType":"cosmetics"},{"id":"node-9260117509","lat":25.0563551,"lon":121.5204046,"name":"Home Page 首頁讀書館","decorType":"library"},{"id":"node-9260117510","lat":25.0564782,"lon":121.5204053,"name":"隱家拉麵 赤峰店","decorType":"restaurant"},{"id":"node-9260117511","lat":25.0565683,"lon":121.5204062,"name":"貨室甜品","decorType":"restaurant"},{"id":"node-9260117514","lat":25.0565431,"lon":121.5198421,"name":"好剪才 - Superbcut (赤峰中山店)","decorType":"cosmetics"},{"id":"node-9260117515","lat":25.0565508,"lon":121.5197695,"name":"Aura Art Nail 尋光美甲美學","decorType":"cosmetics"},{"id":"node-9260166347","lat":25.0567519,"lon":121.5198124,"name":"Circle's cinema 實體門市","decorType":"clothing"},{"id":"node-9260166348","lat":25.0567269,"lon":121.5203964,"name":"未命名餐廳","decorType":"restaurant"},{"id":"node-9260166349","lat":25.0569486,"lon":121.5204232,"name":"未命名餐廳","decorType":"restaurant"},{"id":"node-9260166351","lat":25.0574624,"lon":121.5203681,"name":"艾琳美容","decorType":"cosmetics"},{"id":"node-9260222064","lat":25.0562904,"lon":121.5215262,"name":"Starry hair design","decorType":"hair_salon"},{"id":"node-9260222065","lat":25.056285,"lon":121.5217785,"name":"安妞韓館","decorType":"restaurant"},{"id":"node-9260222066","lat":25.0562784,"lon":121.5219731,"name":"La Fashion","decorType":"clothing"},{"id":"node-9260222085","lat":25.0562903,"lon":121.5221473,"name":"B.simple","decorType":"hair_salon"},{"id":"node-9260222086","lat":25.0562884,"lon":121.5220491,"name":"不放藝廊 Bouffant Hair Design 2nd","decorType":"hair_salon"},{"id":"node-9260222089","lat":25.0562833,"lon":121.5218882,"name":"吉松和漢日本料理","decorType":"restaurant"},{"id":"node-9260286662","lat":25.0569447,"lon":121.5214256,"name":"雅信服裝社","decorType":"clothing"},{"id":"node-9260286664","lat":25.0569401,"lon":121.5215818,"name":"好人好室 x 七二聚場","decorType":"cafe"},{"id":"node-9260286666","lat":25.0569637,"lon":121.5221461,"name":"田園城市生活風格書店","decorType":"library"},{"id":"node-9260305540","lat":25.0569109,"lon":121.520862,"name":"R. mosu 沐蔬","decorType":"restaurant"},{"id":"node-9260305541","lat":25.0568202,"lon":121.5208421,"name":"A&A beauty salon","decorType":"cosmetics"},{"id":"node-9260305542","lat":25.0569195,"lon":121.5211115,"name":"榕豆花","decorType":"restaurant"},{"id":"node-9260305543","lat":25.0567838,"lon":121.521095,"name":"誇手設計","decorType":"cosmetics"},{"id":"node-9260305544","lat":25.0569549,"lon":121.5213507,"name":"雅信服裝社","decorType":"clothing"},{"id":"node-9260305545","lat":25.0566191,"lon":121.5213844,"name":"June Cafe 六月咖啡","decorType":"cafe"},{"id":"node-9260305546","lat":25.0567422,"lon":121.5221472,"name":"f. 美髮","decorType":"cosmetics"},{"id":"node-9260305547","lat":25.0567573,"lon":121.5220482,"name":"La Belleza Hair Salon","decorType":"cosmetics"},{"id":"node-9260305549","lat":25.0567886,"lon":121.5212812,"name":"永恆婚禮顧問社","decorType":"clothing"},{"id":"node-9260636609","lat":25.0571228,"lon":121.5219956,"name":"千采複合式客家菜","decorType":"restaurant"},{"id":"node-9260641947","lat":25.0571517,"lon":121.5208627,"name":"Greedy Beagle 貪吃狗","decorType":"restaurant"},{"id":"node-9260641948","lat":25.057414,"lon":121.5210191,"name":"源本家燒肉火鍋","decorType":"restaurant"},{"id":"node-9260641949","lat":25.0573268,"lon":121.5218777,"name":"菲芮藝術美甲Fairy Nails/台北美甲","decorType":"cosmetics"},{"id":"node-9267638430","lat":25.0568292,"lon":121.51965,"name":"髮藝男女剪燙","decorType":"hair_salon"},{"id":"node-9267638433","lat":25.0569395,"lon":121.5195529,"name":"未命名咖啡廳","decorType":"cafe"},{"id":"node-9267638434","lat":25.0566102,"lon":121.5194554,"name":"豬腸冬粉","decorType":"restaurant"},{"id":"node-9267638435","lat":25.0562202,"lon":121.5196459,"name":"米爾利蛋糕","decorType":"restaurant"},{"id":"node-9267638446","lat":25.055697,"lon":121.5194532,"name":"ulta","decorType":"hair_salon"},{"id":"node-9267638449","lat":25.055279,"lon":121.5191242,"name":"光明五金行","decorType":"hardware"},{"id":"node-9267638454","lat":25.0549765,"lon":121.5186843,"name":"思慕雪","decorType":"restaurant"},{"id":"node-9267638455","lat":25.0549595,"lon":121.5189257,"name":"自助餐便當","decorType":"restaurant"},{"id":"node-9267638456","lat":25.0549486,"lon":121.519104,"name":"快樂早餐坊","decorType":"restaurant"},{"id":"node-9326064076","lat":25.0573632,"lon":121.5177523,"name":"雙連滷味","decorType":"restaurant"},{"id":"node-9355737465","lat":25.0630829,"lon":121.5174272,"name":"大龍街口","decorType":"bus_stop"},{"id":"node-9375541249","lat":25.0587534,"lon":121.5202788,"name":"Savoir Faire","decorType":"cosmetics"},{"id":"node-9375541250","lat":25.0587409,"lon":121.5202182,"name":"Pilates Corner","decorType":"cosmetics"},{"id":"node-9375541252","lat":25.0590492,"lon":121.5201462,"name":"果昂甜品illumine","decorType":"restaurant"},{"id":"node-9375541253","lat":25.0592047,"lon":121.5203723,"name":"未命名化妝品商店","decorType":"cosmetics"},{"id":"node-9375541254","lat":25.0592693,"lon":121.5203583,"name":"未命名餐廳","decorType":"restaurant"},{"id":"node-9375541256","lat":25.0586056,"lon":121.5204687,"name":"未命名餐廳","decorType":"restaurant"},{"id":"node-9375541257","lat":25.058601,"lon":121.5203449,"name":"未命名化妝品商店","decorType":"cosmetics"},{"id":"node-9375541258","lat":25.0585039,"lon":121.5204725,"name":"未命名餐廳","decorType":"restaurant"},{"id":"node-9375541259","lat":25.0583253,"lon":121.5204718,"name":"未命名餐廳","decorType":"restaurant"},{"id":"node-9375541260","lat":25.0580653,"lon":121.5204795,"name":"世紀豆漿","decorType":"restaurant"},{"id":"node-9375541262","lat":25.0579289,"lon":121.5203251,"name":"未命名餐廳","decorType":"restaurant"},{"id":"node-9375541263","lat":25.0579878,"lon":121.5203111,"name":"未命名餐廳","decorType":"restaurant"},{"id":"node-9375541264","lat":25.0581057,"lon":121.5203226,"name":"未命名餐廳","decorType":"restaurant"},{"id":"node-9375541265","lat":25.0582363,"lon":121.5203066,"name":"未命名餐廳","decorType":"restaurant"},{"id":"node-9375541266","lat":25.05842,"lon":121.5202778,"name":"未命名餐廳","decorType":"restaurant"},{"id":"node-9375560790","lat":25.0602429,"lon":121.5208838,"name":"未命名超市","decorType":"supermarket"},{"id":"node-9375560791","lat":25.0602422,"lon":121.5209657,"name":"未命名餐廳","decorType":"restaurant"},{"id":"node-9375560794","lat":25.0599383,"lon":121.5213788,"name":"嘎哩咖啡 ｜ GaliGabi","decorType":"cafe"},{"id":"node-9375560795","lat":25.0599088,"lon":121.5221424,"name":"未命名咖啡廳","decorType":"cafe"},{"id":"node-9375560796","lat":25.0602352,"lon":121.5221277,"name":"未命名電器行","decorType":"electronics"},{"id":"node-9375560798","lat":25.0599579,"lon":121.5208945,"name":"未命名餐廳","decorType":"restaurant"},{"id":"node-9375560800","lat":25.059778,"lon":121.521262,"name":"未命名餐廳","decorType":"restaurant"},{"id":"node-9375560801","lat":25.0597551,"lon":121.5213224,"name":"未命名餐廳","decorType":"restaurant"},{"id":"node-9375560802","lat":25.0597874,"lon":121.521534,"name":"家常飯朴老師1號店 집밥박선생","decorType":"restaurant"},{"id":"node-9375560805","lat":25.0596096,"lon":121.5217483,"name":"美好現炒小吃","decorType":"restaurant"},{"id":"node-9375560807","lat":25.0595958,"lon":121.5211225,"name":"未命名超市","decorType":"supermarket"},{"id":"node-9375560809","lat":25.0594201,"lon":121.5216259,"name":"藝林髮廊","decorType":"hair_salon"},{"id":"node-9375560810","lat":25.0594206,"lon":121.5213502,"name":"六月三十義式手工冰淇淋台北店","decorType":"restaurant"},{"id":"node-9375560811","lat":25.0588456,"lon":121.5219403,"name":"未命名餐廳","decorType":"restaurant"},{"id":"node-9375560812","lat":25.0589987,"lon":121.521572,"name":"未命名咖啡廳","decorType":"cafe"},{"id":"node-9375560813","lat":25.0589992,"lon":121.5216402,"name":"未命名餐廳","decorType":"restaurant"},{"id":"node-9375560814","lat":25.0589946,"lon":121.5213429,"name":"未命名餐廳","decorType":"restaurant"},{"id":"node-9375560815","lat":25.0589946,"lon":121.5214379,"name":"未命名餐廳","decorType":"restaurant"},{"id":"node-9375560816","lat":25.0588328,"lon":121.5216223,"name":"未命名餐廳","decorType":"restaurant"},{"id":"node-9375565017","lat":25.0588438,"lon":121.5215126,"name":"未命名餐廳","decorType":"restaurant"},{"id":"node-9375565018","lat":25.0586652,"lon":121.5215955,"name":"未命名藥局","decorType":"pharmacy"},{"id":"node-9375565019","lat":25.0584889,"lon":121.5216051,"name":"未命名藥局","decorType":"pharmacy"},{"id":"node-9375565021","lat":25.0584564,"lon":121.5214913,"name":"未命名餐廳","decorType":"restaurant"},{"id":"node-9375565023","lat":25.0582718,"lon":121.5215736,"name":"未命名餐廳","decorType":"restaurant"},{"id":"node-9375565024","lat":25.0582718,"lon":121.5214754,"name":"未命名餐廳","decorType":"restaurant"},{"id":"node-9375565025","lat":25.0582684,"lon":121.5213204,"name":"未命名餐廳","decorType":"restaurant"},{"id":"node-9375565026","lat":25.058083,"lon":121.5212082,"name":"未命名餐廳","decorType":"restaurant"},{"id":"node-9375565027","lat":25.0581015,"lon":121.5211316,"name":"未命名餐廳","decorType":"restaurant"},{"id":"node-9375565028","lat":25.0580975,"lon":121.5209486,"name":"未命名餐廳","decorType":"restaurant"},{"id":"node-9375565029","lat":25.058451,"lon":121.5209262,"name":"未命名餐廳","decorType":"restaurant"},{"id":"node-9375565031","lat":25.0588462,"lon":121.5210727,"name":"未命名餐廳","decorType":"restaurant"},{"id":"node-9375565032","lat":25.0590054,"lon":121.5209332,"name":"未命名餐廳","decorType":"restaurant"},{"id":"node-9375565033","lat":25.0590003,"lon":121.5209737,"name":"未命名餐廳","decorType":"restaurant"},{"id":"node-9375565034","lat":25.0589931,"lon":121.5210242,"name":"未命名餐廳","decorType":"restaurant"},{"id":"node-9375565036","lat":25.0590006,"lon":121.521237,"name":"未命名餐廳","decorType":"restaurant"},{"id":"node-9375568415","lat":25.060094,"lon":121.5203191,"name":"未命名餐廳","decorType":"restaurant"},{"id":"node-9375568416","lat":25.0600275,"lon":121.5203472,"name":"未命名餐廳","decorType":"restaurant"},{"id":"node-9375575770","lat":25.0577396,"lon":121.5200681,"name":"未命名餐廳","decorType":"restaurant"},{"id":"node-9375575771","lat":25.0577464,"lon":121.5199611,"name":"未命名餐廳","decorType":"restaurant"},{"id":"node-9375575772","lat":25.0577279,"lon":121.5198891,"name":"未命名餐廳","decorType":"restaurant"},{"id":"node-9375575774","lat":25.0576619,"lon":121.5193641,"name":"未命名藥局","decorType":"pharmacy"},{"id":"node-9375575775","lat":25.0577726,"lon":121.5192366,"name":"未命名餐廳","decorType":"restaurant"},{"id":"node-9375575776","lat":25.0578722,"lon":121.5192381,"name":"未命名餐廳","decorType":"restaurant"},{"id":"node-9375575777","lat":25.0578956,"lon":121.5193868,"name":"未命名化妝品商店","decorType":"cosmetics"},{"id":"node-9375575778","lat":25.0580075,"lon":121.5200918,"name":"丼魂","decorType":"restaurant"},{"id":"node-9375575779","lat":25.0581225,"lon":121.5200765,"name":"未命名餐廳","decorType":"restaurant"},{"id":"node-9375575780","lat":25.0581554,"lon":121.5200938,"name":"未命名餐廳","decorType":"restaurant"},{"id":"node-9375575781","lat":25.0583966,"lon":121.5200435,"name":"未命名餐廳","decorType":"restaurant"},{"id":"node-9375575782","lat":25.058301,"lon":121.5195473,"name":"未命名咖啡廳","decorType":"cafe"},{"id":"node-9375575783","lat":25.0586542,"lon":121.519111,"name":"未命名餐廳","decorType":"restaurant"},{"id":"node-9375575785","lat":25.0589896,"lon":121.5194037,"name":"未命名服飾店","decorType":"clothing"},{"id":"node-9375575786","lat":25.0590664,"lon":121.5199649,"name":"未命名化妝品商店","decorType":"cosmetics"},{"id":"node-9375575787","lat":25.0591252,"lon":121.5190321,"name":"未命名咖啡廳","decorType":"cafe"},{"id":"node-9375575789","lat":25.0593044,"lon":121.5190151,"name":"未命名餐廳","decorType":"restaurant"},{"id":"node-9375575790","lat":25.0601478,"lon":121.5189164,"name":"未命名餐廳","decorType":"restaurant"},{"id":"node-9375575791","lat":25.0601762,"lon":121.519061,"name":"未命名餐廳","decorType":"restaurant"},{"id":"node-9375575792","lat":25.0602095,"lon":121.5202806,"name":"未命名餐廳","decorType":"restaurant"},{"id":"node-9375575793","lat":25.0602474,"lon":121.520029,"name":"未命名化妝品商店","decorType":"cosmetics"},{"id":"node-9375579531","lat":25.0602487,"lon":121.519767,"name":"未命名漢堡店","decorType":"burger"},{"id":"node-9375579532","lat":25.0601534,"lon":121.5186971,"name":"未命名咖啡廳","decorType":"cafe"},{"id":"node-9375579533","lat":25.0599001,"lon":121.5188018,"name":"未命名餐廳","decorType":"restaurant"},{"id":"node-9375579534","lat":25.0600831,"lon":121.5185483,"name":"未命名餐廳","decorType":"restaurant"},{"id":"node-9375579535","lat":25.0597578,"lon":121.5184587,"name":"未命名餐廳","decorType":"restaurant"},{"id":"node-9375579536","lat":25.0597826,"lon":121.5184437,"name":"未命名漢堡店","decorType":"burger"},{"id":"node-9375579537","lat":25.0596075,"lon":121.5187857,"name":"未命名自主洗衣店&乾洗店","decorType":"laundry"},{"id":"node-9375579538","lat":25.0594694,"lon":121.5184325,"name":"未命名咖啡廳","decorType":"cafe"},{"id":"node-9375579539","lat":25.0592526,"lon":121.5188503,"name":"未命名圖書館／書店","decorType":"library"},{"id":"node-9375579541","lat":25.0587672,"lon":121.5188006,"name":"未命名餐廳","decorType":"restaurant"},{"id":"node-9375579542","lat":25.0584202,"lon":121.519006,"name":"洗樂全自助洗衣店","decorType":"laundry"},{"id":"node-9375579545","lat":25.0580925,"lon":121.5190202,"name":"未命名餐廳","decorType":"restaurant"},{"id":"node-9375579546","lat":25.0578932,"lon":121.5190756,"name":"未命名餐廳","decorType":"restaurant"},{"id":"node-9375579547","lat":25.0577351,"lon":121.5191002,"name":"未命名餐廳","decorType":"restaurant"},{"id":"node-9375579548","lat":25.0576751,"lon":121.5195654,"name":"未命名餐廳","decorType":"restaurant"},{"id":"node-9375579549","lat":25.0571261,"lon":121.5194066,"name":"未命名化妝品商店","decorType":"cosmetics"},{"id":"node-9375579550","lat":25.0571179,"lon":121.5190798,"name":"未命名化妝品商店","decorType":"cosmetics"},{"id":"node-9375579553","lat":25.0569549,"lon":121.5193852,"name":"未命名餐廳","decorType":"restaurant"},{"id":"node-9375579556","lat":25.055856,"lon":121.5195904,"name":"未命名餐廳","decorType":"restaurant"},{"id":"node-9375579560","lat":25.0552548,"lon":121.5194505,"name":"未命名化妝品商店","decorType":"cosmetics"},{"id":"node-9375696093","lat":25.0557035,"lon":121.5210253,"name":"未命名餐廳","decorType":"restaurant"},{"id":"node-9427849332","lat":25.0626213,"lon":121.5202086,"name":"天仁茗茶","decorType":"cafe"},{"id":"node-9427849335","lat":25.0630459,"lon":121.5199041,"name":"CoCo壱番屋","decorType":"restaurant"},{"id":"node-9427849336","lat":25.0630525,"lon":121.5198478,"name":"7-Eleven","decorType":"convenience"},{"id":"node-9427849337","lat":25.0625405,"lon":121.5196004,"name":"Mister Donut","decorType":"burger"},{"id":"node-9427849338","lat":25.0625885,"lon":121.5195809,"name":"樂田麵包屋","decorType":"bakery"},{"id":"node-9491209680","lat":25.0620209,"lon":121.5137521,"name":"蝦皮店到店","decorType":"convenience"},{"id":"node-9588074532","lat":25.0657136,"lon":121.5149239,"name":"蝦皮店到店","decorType":"convenience"},{"id":"node-9661917329","lat":25.0584164,"lon":121.5113986,"name":"永樂雞捲大王","decorType":"restaurant"},{"id":"node-9676896682","lat":25.0599301,"lon":121.521754,"name":"呷上飽早餐店","decorType":"burger"},{"id":"node-9682731193","lat":25.0649376,"lon":121.5111735,"name":"大橋頭米糕","decorType":"restaurant"},{"id":"node-9787827350","lat":25.0664321,"lon":121.5135235,"name":"昌吉重慶路口 (延平國小)","decorType":"bus_stop"},{"id":"node-9894637282","lat":25.0627166,"lon":121.5169269,"name":"全家便利商店","decorType":"convenience"},{"id":"node-9894637283","lat":25.062713,"lon":121.5168343,"name":"心心麻辣鍋","decorType":"restaurant"},{"id":"node-9894683561","lat":25.0630252,"lon":121.5210508,"name":"VADDI 凡帝時尚","decorType":"clothing"},{"id":"node-9894683562","lat":25.0625982,"lon":121.5210709,"name":"en-suey","decorType":"clothing"},{"id":"node-9894683564","lat":25.0630635,"lon":121.5209797,"name":"小林髮廊","decorType":"hair_salon"},{"id":"node-9894683565","lat":25.0632299,"lon":121.5209033,"name":"Come Buy","decorType":"cafe"},{"id":"node-9894683567","lat":25.0626243,"lon":121.5203219,"name":"湘滋緹","decorType":"clothing"},{"id":"node-9894683568","lat":25.0625921,"lon":121.5202662,"name":"愛妮雅化妝品","decorType":"pharmacy"},{"id":"node-9894683569","lat":25.0626188,"lon":121.5202676,"name":"MO-BO","decorType":"clothing"},{"id":"node-9909809643","lat":25.0684016,"lon":121.5179249,"name":"蝦皮店到店","decorType":"convenience"},{"id":"node-10076726199","lat":25.0568727,"lon":121.515044,"name":"再睡五分鐘","decorType":"cafe"},{"id":"node-10312585405","lat":25.057042,"lon":121.5120228,"name":"雅米自助餐店","decorType":"restaurant"},{"id":"node-10536274359","lat":25.0568227,"lon":121.5120446,"name":"克雷德國際服飾","decorType":"clothing"},{"id":"node-10536274360","lat":25.0568221,"lon":121.5121324,"name":"吃吃等石頭沙茶火鍋","decorType":"restaurant"},{"id":"node-10801472278","lat":25.0570129,"lon":121.5099089,"name":"365德和蔘茸","decorType":"pharmacy"},{"id":"node-10801488097","lat":25.0575189,"lon":121.511651,"name":"躍獅藥局","decorType":"pharmacy"},{"id":"node-10917747792","lat":25.059818,"lon":121.518443,"name":"Lisa泰式美食","decorType":"restaurant"},{"id":"node-10917747793","lat":25.0588698,"lon":121.5184705,"name":"順豐速運 SF Express","decorType":"post_office"},{"id":"node-10917797645","lat":25.067551,"lon":121.5185925,"name":"普泉精舍","decorType":"shrine"},{"id":"node-10917797647","lat":25.064073,"lon":121.5185362,"name":"1996 台灣茶葉飲品專賣店","decorType":"cafe"},{"id":"node-10917892117","lat":25.0687178,"lon":121.5159841,"name":"7-Eleven","decorType":"convenience"},{"id":"node-11079226544","lat":25.0640718,"lon":121.5219533,"name":"朗咖啡館","decorType":"cafe"},{"id":"node-11198928037","lat":25.0591171,"lon":121.5143657,"name":"未命名超市","decorType":"supermarket"},{"id":"node-11215541431","lat":25.0545917,"lon":121.5116364,"name":"金冠皮鞋","decorType":"clothing"},{"id":"node-11215541432","lat":25.0546383,"lon":121.5116355,"name":"披薩有張臉","decorType":"restaurant"},{"id":"node-11215628858","lat":25.056047,"lon":121.5117739,"name":"桃花源緣","decorType":"restaurant"},{"id":"node-11215628859","lat":25.055981,"lon":121.5117799,"name":"洪裕泰","decorType":"clothing"},{"id":"node-11215628863","lat":25.054349,"lon":121.5116511,"name":"微醺花園","decorType":"restaurant"},{"id":"node-11215628864","lat":25.0546848,"lon":121.5118617,"name":"芙稻菓室","decorType":"restaurant"},{"id":"node-11215628865","lat":25.0544926,"lon":121.5118753,"name":"COOCHAD","decorType":"clothing"},{"id":"node-11220379702","lat":25.0573255,"lon":121.511436,"name":"富康藥局","decorType":"pharmacy"},{"id":"node-11299163756","lat":25.0602654,"lon":121.5112358,"name":"7-Eleven","decorType":"convenience"},{"id":"node-11299163763","lat":25.0583551,"lon":121.5097479,"name":"Backer House","decorType":"cafe"},{"id":"node-11299185771","lat":25.0618841,"lon":121.509279,"name":"Anita's Life Cafe","decorType":"cafe"},{"id":"node-11311415379","lat":25.0611045,"lon":121.5215831,"name":"演咖啡","decorType":"cafe"},{"id":"node-11555970224","lat":25.054514,"lon":121.5100168,"name":"小樽咖啡","decorType":"cafe"},{"id":"node-11555970228","lat":25.0543693,"lon":121.5105847,"name":"嶌日咖啡","decorType":"cafe"},{"id":"node-11774800135","lat":25.0553523,"lon":121.515248,"name":"清心福全","decorType":"cafe"},{"id":"node-11774800137","lat":25.0547616,"lon":121.5148301,"name":"香連鐵板料理","decorType":"restaurant"},{"id":"node-11917369001","lat":25.0545695,"lon":121.5219535,"name":"理茶招待所2.0","decorType":"cafe"},{"id":"node-11951783477","lat":25.0692851,"lon":121.5186127,"name":"力揚體育","decorType":"clothing"},{"id":"node-12085079043","lat":25.054351,"lon":121.5102142,"name":"一郎嫂快炒","decorType":"restaurant"},{"id":"node-12095149690","lat":25.0545804,"lon":121.5149989,"name":"屈臣氏","decorType":"pharmacy"},{"id":"node-12095329001","lat":25.0552889,"lon":121.515216,"name":"Ban Ban Hot Pot","decorType":"restaurant"},{"id":"node-12095329002","lat":25.0561157,"lon":121.5152518,"name":"曾家鮮果汁","decorType":"burger"},{"id":"node-12095329003","lat":25.056741,"lon":121.5153734,"name":"蚵仔煎大王","decorType":"restaurant"},{"id":"node-12095329004","lat":25.0567496,"lon":121.5153913,"name":"芋頭太郎","decorType":"cafe"},{"id":"node-12095329006","lat":25.0568953,"lon":121.5154743,"name":"吉乃川","decorType":"sweetshop"},{"id":"node-12095329007","lat":25.0557168,"lon":121.5151342,"name":"欧家果汁","decorType":"burger"},{"id":"node-12095329009","lat":25.0556139,"lon":121.5151109,"name":"豬血糕","decorType":"restaurant"},{"id":"node-12382177935","lat":25.0632423,"lon":121.5193544,"name":"未命名車站","decorType":"station"},{"id":"node-12382238384","lat":25.0629787,"lon":121.5202193,"name":"未命名車站","decorType":"station"},{"id":"node-12702606801","lat":25.0568236,"lon":121.5092738,"name":"窩窩咖啡廳","decorType":"cafe"},{"id":"node-12802027481","lat":25.0570358,"lon":121.5208596,"name":"一流二事素椒麵","decorType":"restaurant"},{"id":"node-12901648431","lat":25.0558848,"lon":121.519642,"name":"權泉珈琲","decorType":"cafe"},{"id":"node-13041333279","lat":25.0561884,"lon":121.5131648,"name":"現流冊店","decorType":"library"},{"id":"node-13041333282","lat":25.0561047,"lon":121.5127523,"name":"聖南宮","decorType":"shrine"},{"id":"node-13063373601","lat":25.0640016,"lon":121.5110053,"name":"可不可熟成紅茶","decorType":"cafe"},{"id":"node-13063479302","lat":25.0637639,"lon":121.5110367,"name":"樂翻天","decorType":"restaurant"},{"id":"node-13146774801","lat":25.0644497,"lon":121.5180761,"name":"阿嬤家 和平與女性人權館","decorType":"art_gallery"},{"id":"node-13305918325","lat":25.0571001,"lon":121.5125637,"name":"蒔現茶空間","decorType":"cafe"},{"id":"node-13447514474","lat":25.0577579,"lon":121.520304,"name":"雙連文記花枝羹","decorType":"restaurant"},{"id":"node-13447565726","lat":25.0574271,"lon":121.517869,"name":"阿桐阿寶四神湯","decorType":"restaurant"},{"id":"way-50893533","lat":25.0629597,"lon":121.5120214,"name":"台北大橋","decorType":"bridge"},{"id":"way-50893549","lat":25.0630181,"lon":121.5132838,"name":"台北大橋","decorType":"bridge"},{"id":"way-111481151","lat":25.0628915,"lon":121.5182948,"name":"民權西路天橋","decorType":"bridge"},{"id":"way-194618328","lat":25.0576426,"lon":121.5206532,"name":"未命名公車站","decorType":"bus_stop"},{"id":"way-194618331","lat":25.0622962,"lon":121.5195945,"name":"未命名公車站","decorType":"bus_stop"},{"id":"way-201280835","lat":25.0557898,"lon":121.5126413,"name":"福興宮","decorType":"shrine"},{"id":"way-201280859","lat":25.0602397,"lon":121.5123959,"name":"慈聖宮","decorType":"shrine"},{"id":"way-201280861","lat":25.055934,"lon":121.5131688,"name":"朝陽茶葉公園","decorType":"park"},{"id":"way-201280869","lat":25.0555972,"lon":121.5102156,"name":"霞海城隍廟","decorType":"shrine"},{"id":"way-203723648","lat":25.059056,"lon":121.5143617,"name":"家樂福","decorType":"supermarket"},{"id":"way-211853511","lat":25.0670632,"lon":121.5211106,"name":"私立大同大學","decorType":"university"},{"id":"way-211853512","lat":25.0681669,"lon":121.5206013,"name":"室內體育館","decorType":"university"},{"id":"way-211853513","lat":25.0683071,"lon":121.5212473,"name":"A2 實驗大樓","decorType":"university"},{"id":"way-211853515","lat":25.0671709,"lon":121.5217959,"name":"A8 尚志教育研究館","decorType":"university"},{"id":"way-211853517","lat":25.0663723,"lon":121.521921,"name":"A1 經營大樓","decorType":"university"},{"id":"way-211853518","lat":25.0672498,"lon":121.5200456,"name":"A4 綜合大樓","decorType":"university"},{"id":"way-211853520","lat":25.0676847,"lon":121.5201463,"name":"電波無反射室","decorType":"university"},{"id":"way-231659462","lat":25.059601,"lon":121.5125148,"name":"臺灣基督長老教會","decorType":"shrine"},{"id":"way-246582235","lat":25.0553961,"lon":121.5121491,"name":"真聖堂","decorType":"shrine"},{"id":"way-247419611","lat":25.0592729,"lon":121.5210915,"name":"民享公園","decorType":"park"},{"id":"way-247419612","lat":25.0591945,"lon":121.5210086,"name":"文昌宮","decorType":"shrine"},{"id":"way-257354146","lat":25.0668576,"lon":121.5162825,"name":"樹德公園","decorType":"park"},{"id":"way-258432685","lat":25.0548604,"lon":121.5213867,"name":"臺北市中山運動中心","decorType":"stadium"},