{"bbox":{"south":25.0543375,"north":25.06994375,"west":121.65246875,"east":121.6655},"pois":[{"id":"node-289281848","lat":25.0674211,"lon":121.6606848,"name":"汐止","decorType":"station"},{"id":"node-2639182792","lat":25.0691892,"lon":121.6616685,"name":"訪客咖啡","decorType":"cafe"},{"id":"node-2639182799","lat":25.0691591,"lon":121.6616831,"name":"汐止火車站","decorType":"bus_stop"},{"id":"node-2639182800","lat":25.0690121,"lon":121.6619924,"name":"汐止","decorType":"bus_stop"},{"id":"node-2639182802","lat":25.068797,"lon":121.6612035,"name":"永和豆漿","decorType":"restaurant"},{"id":"node-2756550028","lat":25.062374,"lon":121.6533868,"name":"7-Eleven","decorType":"convenience"},{"id":"node-2756550032","lat":25.06219,"lon":121.6529793,"name":"鬍鬚張","decorType":"restaurant"},{"id":"node-2773021192","lat":25.0636832,"lon":121.6543253,"name":"汐止龍安郵局 (基隆 43 支)","decorType":"post_office"},{"id":"node-2975185395","lat":25.0681893,"lon":121.6637754,"name":"7-Eleven","decorType":"convenience"},{"id":"node-3063759238","lat":25.0691853,"lon":121.6617355,"name":"汐止","decorType":"bus_stop"},{"id":"node-3063759239","lat":25.0672334,"lon":121.6594961,"name":"汐止公園","decorType":"bus_stop"},{"id":"node-3063759240","lat":25.0678263,"lon":121.6598468,"name":"汐止公園","decorType":"bus_stop"},{"id":"node-3063759241","lat":25.0663028,"lon":121.6549073,"name":"汐止國小","decorType":"bus_stop"},{"id":"node-3063759242","lat":25.0662742,"lon":121.6545076,"name":"汐止國小","decorType":"bus_stop"},{"id":"node-3066879539","lat":25.0677727,"lon":121.6621224,"name":"天然素食","decorType":"restaurant"},{"id":"node-3232569567","lat":25.0607269,"lon":121.654433,"name":"全家便利商店","decorType":"convenience"},{"id":"node-3356147186","lat":25.0667316,"lon":121.662467,"name":"全家便利商店","decorType":"convenience"},{"id":"node-3358023877","lat":25.0643666,"lon":121.6582953,"name":"汐止區行政中心(新台五路)","decorType":"bus_stop"},{"id":"node-3358023878","lat":25.0644825,"lon":121.6591496,"name":"汐止區行政中心(新台五路)","decorType":"bus_stop"},{"id":"node-3358023879","lat":25.0678102,"lon":121.6633746,"name":"汐止後火車站","decorType":"bus_stop"},{"id":"node-3358023880","lat":25.0689778,"lon":121.6642943,"name":"汐止後火車站","decorType":"bus_stop"},{"id":"node-3358023885","lat":25.0665208,"lon":121.661985,"name":"秀峰國中","decorType":"bus_stop"},{"id":"node-3358023886","lat":25.0665811,"lon":121.66219,"name":"秀峰國中","decorType":"bus_stop"},{"id":"node-3358024005","lat":25.0622898,"lon":121.6539537,"name":"連興街口","decorType":"bus_stop"},{"id":"node-3643736441","lat":25.0655063,"lon":121.654086,"name":"全國電子","decorType":"electronics"},{"id":"node-3643750725","lat":25.0659794,"lon":121.6538339,"name":"家樂福超市","decorType":"supermarket"},{"id":"node-4123949990","lat":25.0635078,"lon":121.65366,"name":"全家便利商店","decorType":"convenience"},{"id":"node-4302045689","lat":25.065592,"lon":121.6541651,"name":"麥當勞","decorType":"burger"},{"id":"node-4302046214","lat":25.0662492,"lon":121.6536811,"name":"全家便利商店","decorType":"convenience"},{"id":"node-4302046215","lat":25.0664424,"lon":121.6534893,"name":"7-Eleven","decorType":"convenience"},{"id":"node-4302072914","lat":25.0640091,"lon":121.6550508,"name":"7-Eleven","decorType":"convenience"},{"id":"node-4302072915","lat":25.0634178,"lon":121.6545157,"name":"牛匠","decorType":"restaurant"},{"id":"node-4302077472","lat":25.0640415,"lon":121.6526564,"name":"汐科火車站北入口","decorType":"station"},{"id":"node-4302088070","lat":25.063704,"lon":121.655229,"name":"八方雲集","decorType":"burger"},{"id":"node-4302138413","lat":25.0636403,"lon":121.65554,"name":"康是美","decorType":"pharmacy"},{"id":"node-4302138414","lat":25.0627011,"lon":121.6542904,"name":"屈臣氏","decorType":"pharmacy"},{"id":"node-4302226159","lat":25.0666433,"lon":121.6556985,"name":"7-Eleven","decorType":"convenience"},{"id":"node-4302235324","lat":25.0629596,"lon":121.6558156,"name":"全家便利商店","decorType":"convenience"},{"id":"node-4315295869","lat":25.0629751,"lon":121.6549947,"name":"摩斯漢堡","decorType":"burger"},{"id":"node-4339678197","lat":25.0677835,"lon":121.6623597,"name":"火車頭快炒","decorType":"restaurant"},{"id":"node-4432474816","lat":25.0645564,"lon":121.6566161,"name":"全家便利商店","decorType":"convenience"},{"id":"node-4490165935","lat":25.0658238,"lon":121.6623572,"name":"7-Eleven","decorType":"convenience"},{"id":"node-4524400559","lat":25.0670917,"lon":121.6586881,"name":"汐止國中","decorType":"bus_stop"},{"id":"node-4524863604","lat":25.0680893,"lon":121.6608121,"name":"星巴克","decorType":"cafe"},{"id":"node-4524863605","lat":25.0665462,"lon":121.6554983,"name":"北味香永和豆漿大王","decorType":"restaurant"},{"id":"node-4683343682","lat":25.0582302,"lon":121.654386,"name":"美廉社","decorType":"supermarket"},{"id":"node-4683345793","lat":25.0588842,"lon":121.6541871,"name":"OK超商","decorType":"convenience"},{"id":"node-4742571025","lat":25.0683714,"lon":121.6630154,"name":"全家便利商店","decorType":"convenience"},{"id":"node-4986484626","lat":25.067416,"lon":121.6559925,"name":"江北橋頭","decorType":"bus_stop"},{"id":"node-4986484628","lat":25.0676083,"lon":121.6560128,"name":"江北橋頭","decorType":"bus_stop"},{"id":"node-4986484635","lat":25.0698203,"lon":121.6547175,"name":"江北社區","decorType":"bus_stop"},{"id":"node-4989855196","lat":25.0647112,"lon":121.6640214,"name":"福安街口","decorType":"bus_stop"},{"id":"node-4989855197","lat":25.0669638,"lon":121.6631457,"name":"新昌圖書館","decorType":"bus_stop"},{"id":"node-4989855203","lat":25.0633319,"lon":121.6623785,"name":"秀峰國小","decorType":"bus_stop"},{"id":"node-4989855206","lat":25.0663721,"lon":121.6651655,"name":"水碓","decorType":"bus_stop"},{"id":"node-4989855211","lat":25.0634656,"lon":121.6594339,"name":"汐止區行政中心(仁愛路)","decorType":"bus_stop"},{"id":"node-4992791823","lat":25.0633149,"lon":121.6554169,"name":"義美食品","decorType":"convenience"},{"id":"node-4995228544","lat":25.0635985,"lon":121.6552924,"name":"蔦燒日式居酒屋-汐止店","decorType":"restaurant"},{"id":"node-4995236721","lat":25.0634594,"lon":121.6549218,"name":"牧童咖啡連興店","decorType":"restaurant"},{"id":"node-5222847793","lat":25.0648092,"lon":121.6527553,"name":"關山便當店","decorType":"restaurant"},{"id":"node-5232275043","lat":25.0628606,"lon":121.6570938,"name":"新北市圖書館汐止自強分館","decorType":"library"},{"id":"node-5286707595","lat":25.0673663,"lon":121.6578931,"name":"寶雅","decorType":"pharmacy"},{"id":"node-5286707916","lat":25.0695323,"lon":121.6609387,"name":"全家便利商店","decorType":"convenience"},{"id":"node-5298633821","lat":25.0635889,"lon":121.6536017,"name":"凱撒麵包","decorType":"bakery"},{"id":"node-5298720576","lat":25.0624141,"lon":121.6534762,"name":"全家便利商店","decorType":"convenience"},{"id":"node-5615266343","lat":25.0571325,"lon":121.6548219,"name":"全家便利商店","decorType":"convenience"},{"id":"node-5628653721","lat":25.0680352,"lon":121.6636233,"name":"Angel 男女剪髮 100","decorType":"hair_salon"},{"id":"node-5744927465","lat":25.0627544,"lon":121.6602561,"name":"7-Eleven","decorType":"convenience"},{"id":"node-5744939525","lat":25.0551699,"lon":121.6650499,"name":"未命名山丘","decorType":"mountain"},{"id":"node-5745034290","lat":25.0604998,"lon":121.6595244,"name":"環山路口","decorType":"bus_stop"},{"id":"node-5745056254","lat":25.0548002,"lon":121.6638604,"name":"六角亭","decorType":"bus_stop"},{"id":"node-5746062296","lat":25.0629892,"lon":121.6601591,"name":"OK超商","decorType":"convenience"},{"id":"node-5752761712","lat":25.0688544,"lon":121.6636021,"name":"南昌郵局","decorType":"post_office"},{"id":"node-5950268285","lat":25.063409,"lon":121.6547639,"name":"韓咕咕韓式炸雞","decorType":"restaurant"},{"id":"node-5950324362","lat":25.0622025,"lon":121.6541166,"name":"呷呼飽火鍋","decorType":"restaurant"},{"id":"node-5950324363","lat":25.062234,"lon":121.6541964,"name":"爭鮮","decorType":"restaurant"},{"id":"node-5950324364","lat":25.0615625,"lon":121.6539224,"name":"悟饕便當","decorType":"restaurant"},{"id":"node-6150694085","lat":25.0638819,"lon":121.6548114,"name":"自助洗衣店","decorType":"laundry"},{"id":"node-6164026292","lat":25.0640555,"lon":121.6526813,"name":"路易莎咖啡","decorType":"cafe"},{"id":"node-6180428010","lat":25.0678605,"lon":121.6559154,"name":"小胖早餐店","decorType":"restaurant"},{"id":"node-6180428011","lat":25.0676079,"lon":121.6558564,"name":"雅加達早餐店","decorType":"restaurant"},{"id":"node-6180428013","lat":25.0663396,"lon":121.6550303,"name":"ＦＥＬＹ","decorType":"hair_salon"},{"id":"node-6180428016","lat":25.0636732,"lon":121.6556526,"name":"嘉鄉麵館","decorType":"restaurant"},{"id":"node-6180428018","lat":25.0638129,"lon":121.6532762,"name":"未命名餐廳","decorType":"restaurant"},{"id":"node-6188959119","lat":25.0667173,"lon":121.6622741,"name":"迷客夏","decorType":"cafe"},{"id":"node-6188959120","lat":25.0665376,"lon":121.6621046,"name":"圓多利","decorType":"restaurant"},{"id":"node-6188959121","lat":25.0668441,"lon":121.662449,"name":"台灣味","decorType":"restaurant"},{"id":"node-6188959122","lat":25.0670045,"lon":121.6625847,"name":"紅橘子","decorType":"restaurant"},{"id":"node-6188959123","lat":25.0670687,"lon":121.6626496,"name":"台灣大哥大","decorType":"electronics"},{"id":"node-6188959125","lat":25.0672202,"lon":121.6627736,"name":"青苗","decorType":"pharmacy"},{"id":"node-6188959126","lat":25.0670509,"lon":121.6624765,"name":"涼麵","decorType":"restaurant"},{"id":"node-6189765185","lat":25.0611435,"lon":121.6545107,"name":"全聯福利中心","decorType":"supermarket"},{"id":"node-6292752285","lat":25.0622742,"lon":121.6542915,"name":"福園號","decorType":"bakery"},{"id":"node-6309816585","lat":25.0637676,"lon":121.6545242,"name":"全家便利商店","decorType":"convenience"},{"id":"node-6356216091","lat":25.0630782,"lon":121.653954,"name":"莊粥舖-澳門水蟹粥","decorType":"restaurant"},{"id":"node-6356216092","lat":25.0628636,"lon":121.6542479,"name":"川田小火鍋","decorType":"restaurant"},{"id":"node-6433912685","lat":25.0642605,"lon":121.6556828,"name":"木人甲","decorType":"hair_salon"},{"id":"node-6463282886","lat":25.0650791,"lon":121.653059,"name":"五角菜飯","decorType":"restaurant"},{"id":"node-6605400981","lat":25.0617206,"lon":121.6538693,"name":"八方雲集","decorType":"burger"},{"id":"node-6605417565","lat":25.0616406,"lon":121.653893,"name":"快樂城西點麵包","decorType":"bakery"},{"id":"node-6654409085","lat":25.0635121,"lon":121.65473,"name":"食曼谷","decorType":"restaurant"},{"id":"node-6778919036","lat":25.0675728,"lon":121.6604713,"name":"將軍府","decorType":"shrine"},{"id":"node-6811967185","lat":25.0623125,"lon":121.6532081,"name":"梁社漢排骨","decorType":"restaurant"},{"id":"node-6882654480","lat":25.0622884,"lon":121.6602454,"name":"靜修禪院","decorType":"bus_stop"},{"id":"node-6882654481","lat":25.0618316,"lon":121.6603392,"name":"未命名公園","decorType":"park"},{"id":"node-6882654482","lat":25.0616202,"lon":121.6608033,"name":"慈航聖瑶宮","decorType":"shrine"},{"id":"node-6882654483","lat":25.0628594,"lon":121.6600335,"name":"永泰香","decorType":"restaurant"},{"id":"node-6893176335","lat":25.0616412,"lon":121.6540502,"name":"來發食堂","decorType":"restaurant"},{"id":"node-6902570285","lat":25.0625035,"lon":121.6530372,"name":"華姐麵店","decorType":"restaurant"},{"id":"node-6902570385","lat":25.0625068,"lon":121.6531712,"name":"黑布咖啡","decorType":"cafe"},{"id":"node-6907881786","lat":25.0622554,"lon":121.6539916,"name":"熊鍋燒","decorType":"restaurant"},{"id":"node-7211425777","lat":25.0655042,"lon":121.6560256,"name":"獅子長角","decorType":"restaurant"},{"id":"node-7272342085","lat":25.0637386,"lon":121.6563307,"name":"佳佳涼麵店","decorType":"restaurant"},{"id":"node-7272342185","lat":25.0637752,"lon":121.6563928,"name":"周胖子餃子館","decorType":"restaurant"},{"id":"node-7301073548","lat":25.0636029,"lon":121.6571689,"name":"汐止農會","decorType":"bus_stop"},{"id":"node-7301073549","lat":25.0634243,"lon":121.656163,"name":"汐止農會","decorType":"bus_stop"},{"id":"node-7301073583","lat":25.0621013,"lon":121.6529712,"name":"連興街口","decorType":"bus_stop"},{"id":"node-7489506071","lat":25.067633,"lon":121.6594055,"name":"鳥居","decorType":"shrine"},{"id":"node-7972079252","lat":25.0653997,"lon":121.6596334,"name":"黃昏市場","decorType":"bus_stop"},{"id":"node-7972079253","lat":25.0653837,"lon":121.6594995,"name":"黃昏市場","decorType":"bus_stop"},{"id":"node-8022114042","lat":25.0632374,"lon":121.6541298,"name":"老先覺麻辣鍋","decorType":"restaurant"},{"id":"node-8022114043","lat":25.0621325,"lon":121.6539236,"name":"埔林鐡板燒","decorType":"restaurant"},{"id":"node-8118239072","lat":25.0647278,"lon":121.6532542,"name":"全家便利商店","decorType":"convenience"},{"id":"node-8118239073","lat":25.0614453,"lon":121.6570455,"name":"全家便利商店","decorType":"convenience"},{"id":"node-8118239074","lat":25.0646921,"lon":121.663671,"name":"全家便利商店","decorType":"convenience"},{"id":"node-8118239075","lat":25.0675825,"lon":121.6631448,"name":"全家便利商店","decorType":"convenience"},{"id":"node-8385304914","lat":25.0677798,"lon":121.6630389,"name":"八方雲集","decorType":"burger"},{"id":"node-8385313345","lat":25.064558,"lon":121.663861,"name":"八方雲集","decorType":"burger"},{"id":"node-8406199335","lat":25.0651256,"lon":121.6532492,"name":"汐科站北站","decorType":"bus_stop"},{"id":"node-8410101718","lat":25.0647448,"lon":121.6591349,"name":"汐止行政中心","decorType":"bus_stop"},{"id":"node-8410101719","lat":25.06583,"lon":121.66219,"name":"南昌街口","decorType":"bus_stop"},{"id":"node-8410101720","lat":25.066328,"lon":121.662717,"name":"南昌街口","decorType":"bus_stop"},{"id":"node-8432400351","lat":25.068882,"lon":121.662911,"name":"汐止火車站(公園)","decorType":"bus_stop"},{"id":"node-8432400507","lat":25.0548797,"lon":121.6638176,"name":"六角亭","decorType":"bus_stop"},{"id":"node-8432400649","lat":25.060763,"lon":121.654226,"name":"莊敬街口","decorType":"bus_stop"},{"id":"node-8432401040","lat":25.0579235,"lon":121.6623947,"name":"世運村","decorType":"bus_stop"},{"id":"node-8432401043","lat":25.061698,"lon":121.653933,"name":"連興街口","decorType":"bus_stop"},{"id":"node-8432401497","lat":25.060825,"lon":121.654582,"name":"莊敬街口","decorType":"bus_stop"},{"id":"node-8432401630","lat":25.0544108,"lon":121.6647792,"name":"聖德宮","decorType":"bus_stop"},{"id":"node-8432401634","lat":25.057722,"lon":121.652527,"name":"薄荷社區","decorType":"bus_stop"},{"id":"node-8432401640","lat":25.055385,"lon":121.6570506,"name":"白雲社區活動中心","decorType":"bus_stop"},{"id":"node-8432401643","lat":25.057276,"lon":121.6549444,"name":"白雲土地公廟","decorType":"bus_stop"},{"id":"node-8432401650","lat":25.054347,"lon":121.655601,"name":"台北小別墅","decorType":"bus_stop"},{"id":"node-8432401654","lat":25.056403,"lon":121.6560661,"name":"水源路二段72巷口","decorType":"bus_stop"},{"id":"node-8536919271","lat":25.0637729,"lon":121.6559093,"name":"未命名餐廳","decorType":"restaurant"},{"id":"node-8536919272","lat":25.0635942,"lon":121.6559786,"name":"未命名餐廳","decorType":"restaurant"},{"id":"node-9111233812","lat":25.0584221,"lon":121.6575859,"name":"康誥坑山","decorType":"mountain"},{"id":"node-9151839659","lat":25.063825,"lon":121.6589606,"name":"新北市立圖書館汐止分館","decorType":"library"},{"id":"node-9327511754","lat":25.0636038,"lon":121.6627011,"name":"蝦皮店到店","decorType":"convenience"},{"id":"node-9327511757","lat":25.0617457,"lon":121.6563507,"name":"蝦皮店到店","decorType":"convenience"},{"id":"node-9327511758","lat":25.069442,"lon":121.6650036,"name":"蝦皮店到店","decorType":"convenience"},{"id":"node-9336787614","lat":25.0643713,"lon":121.659153,"name":"周美真手作壽司","decorType":"restaurant"},{"id":"node-9414479546","lat":25.0648428,"lon":121.6564873,"name":"美廉社","decorType":"supermarket"},{"id":"node-9598668439","lat":25.0672782,"lon":121.6622164,"name":"蝦皮店到店","decorType":"convenience"},{"id":"node-9755236814","lat":25.0676609,"lon":121.6589607,"name":"茶葉倉庫","decorType":"park"},{"id":"node-9843786897","lat":25.0673529,"lon":121.6584349,"name":"拿坡里","decorType":"burger"},{"id":"node-9845685583","lat":25.0673784,"lon":121.6576226,"name":"肯德基","decorType":"burger"},{"id":"node-9845686314","lat":25.0670639,"lon":121.657405,"name":"老圓環魯肉飯","decorType":"restaurant"},{"id":"node-9846095813","lat":25.0685752,"lon":121.6613547,"name":"鍋將軍","decorType":"restaurant"},{"id":"node-9846220147","lat":25.0670799,"lon":121.6571169,"name":"西秦王爺廟","decorType":"shrine"},{"id":"node-9846242535","lat":25.0691151,"lon":121.661552,"name":"大熊蔬食","decorType":"restaurant"},{"id":"node-9846249163","lat":25.0692577,"lon":121.6633475,"name":"常滿樓","decorType":"restaurant"},{"id":"node-9846249181","lat":25.0675363,"lon":121.6581422,"name":"傳說水煎包","decorType":"restaurant"},{"id":"node-9846280883","lat":25.069057,"lon":121.6614377,"name":"OK便利商店","decorType":"convenience"},{"id":"node-9849139792","lat":25.0688287,"lon":121.6612438,"name":"車頭炭烤三明治","decorType":"restaurant"},{"id":"node-9849230170","lat":25.0656463,"lon":121.6573031,"name":"剉冰女王","decorType":"restaurant"},{"id":"node-9849240537","lat":25.0662695,"lon":121.6588503,"name":"阿義炸雞","decorType":"restaurant"},{"id":"node-9849282018","lat":25.0660711,"lon":121.6557625,"name":"鑫悅排骨專賣店","decorType":"restaurant"},{"id":"node-9854838087","lat":25.0657142,"lon":121.6558835,"name":"Louisa Coffee 路易．莎咖啡","decorType":"cafe"},{"id":"node-9854843420","lat":25.068525,"lon":121.6602807,"name":"汐止街仔內米粉湯","decorType":"restaurant"},{"id":"node-9872056202","lat":25.0663271,"lon":121.6587679,"name":"王廷子燒雞","decorType":"restaurant"},{"id":"node-9878801932","lat":25.0669429,"lon":121.6565045,"name":"必勝客","decorType":"restaurant"},{"id":"node-9878810982","lat":25.0667619,"lon":121.659154,"name":"麥町吐司工房","decorType":"restaurant"},{"id":"node-9878815960","lat":25.0694121,"lon":121.6611423,"name":"金豐 八寶冬粉/香菇肉羹","decorType":"restaurant"},{"id":"node-9886580454","lat":25.0647245,"lon":121.6563174,"name":"韓堂-韓國小吃","decorType":"restaurant"},{"id":"node-9886601441","lat":25.0632535,"lon":121.6564765,"name":"蔥之香蔥仔餅","decorType":"sweetshop"},{"id":"node-9886603636","lat":25.0650029,"lon":121.660438,"name":"築間幸福鍋物","decorType":"restaurant"},{"id":"node-10229564317","lat":25.0641089,"lon":121.6553423,"name":"龍安飯包","decorType":"restaurant"},{"id":"node-10239549103","lat":25.0673291,"lon":121.657177,"name":"帝王食補","decorType":"restaurant"},{"id":"node-10239576773","lat":25.0648937,"lon":121.6564636,"name":"躍獅大同藥局","decorType":"pharmacy"},{"id":"node-10239577203","lat":25.0659835,"lon":121.655792,"name":"松亭鐵板燒","decorType":"restaurant"},{"id":"node-10239589013","lat":25.0647759,"lon":121.6562934,"name":"九湯屋日本拉麵_汐止店","decorType":"restaurant"},{"id":"node-10239589531","lat":25.0657838,"lon":121.6560855,"name":"大俠水煎包","decorType":"restaurant"},{"id":"node-10239590381","lat":25.0672018,"lon":121.6564413,"name":"大埔鐵板燒汐止店","decorType":"restaurant"},{"id":"node-10239590831","lat":25.0644578,"lon":121.6563963,"name":"黑ㄟ咖喱屋","decorType":"restaurant"},{"id":"node-10239597253","lat":25.0692066,"lon":121.6632713,"name":"黑澀鍋汐止總店","decorType":"restaurant"},{"id":"node-10239597430","lat":25.0678722,"lon":121.6621922,"name":"志芸臭豆腐","decorType":"restaurant"},{"id":"node-10239869760","lat":25.0668036,"lon":121.6586528,"name":"汐止社區大學","decorType":"university"},{"id":"node-10239915164","lat":25.0631021,"lon":121.6596115,"name":"河南鍋貼店","decorType":"restaurant"},{"id":"node-10241387047","lat":25.0659346,"lon":121.6615483,"name":"烤霸串燒","decorType":"restaurant"},{"id":"node-10241392426","lat":25.0687273,"lon":121.6615712,"name":"漢堡王","decorType":"burger"},{"id":"node-11013481534","lat":25.0694479,"lon":121.6616954,"name":"海龍王魷魚羹","decorType":"restaurant"},{"id":"node-11125085217","lat":25.0637777,"lon":121.6593322,"name":"樂鄉自助餐","decorType":"restaurant"},{"id":"node-11125095678","lat":25.0637407,"lon":121.6593604,"name":"麥味登 汐止仁愛店","decorType":"restaurant"},{"id":"node-11147524296","lat":25.0551,"lon":121.6569981,"name":"東興宮","decorType":"shrine"},{"id":"node-11801673639","lat":25.0669944,"lon":121.6568222,"name":"美二佳蛋糕店","decorType":"sweetshop"},{"id":"node-11803611957","lat":25.0684696,"lon":121.6619029,"name":"全家便利商店汐止車站店","decorType":"convenience"},{"id":"node-12025479548","lat":25.0575561,"lon":121.6578211,"name":"未命名山丘","decorType":"mountain"},{"id":"node-12265991608","lat":25.0644823,"lon":121.655059,"name":"家樂福超市","decorType":"supermarket"},{"id":"node-12269078019","lat":25.0637406,"lon":121.6558296,"name":"蘇家涼麵","decorType":"restaurant"},{"id":"node-12307306135","lat":25.0639709,"lon":121.6558237,"name":"廣州烤鴨美食專家","decorType":"restaurant"},{"id":"node-12375789467","lat":25.0670393,"lon":121.656619,"name":"全記德清粥小菜","decorType":"restaurant"},{"id":"way-98536964","lat":25.0687786,"lon":121.6557616,"name":"汐止聯絡道","decorType":"bridge"},{"id":"way-197729677","lat":25.0665865,"lon":121.6662954,"name":"新台五路二段","decorType":"bridge"},{"id":"way-240610342","lat":25.0543562,"lon":121.6653122,"name":"汐止大尖山聖德宮","decorType":"shrine"},{"id":"way-251906435","lat":25.0684303,"lon":121.657751,"name":"濟德宮","decorType":"shrine"},{"id":"way-251906436","lat":25.0689847,"lon":121.6583406,"name":"福興宮","decorType":"shrine"},{"id":"way-251906437","lat":25.0691694,"lon":121.6658606,"name":"茄苳溪","decorType":"waterside"},{"id":"way-252570490","lat":25.0683831,"lon":121.6594665,"name":"汐止區文化中心","decorType":"art_gallery"},{"id":"way-255362757","lat":25.0685954,"lon":121.6590381,"name":"忠順廟","decorType":"shrine"},{"id":"way-255362758","lat":25.0681837,"lon":121.659532,"name":"汐止大同分館","decorType":"library"},{"id":"way-272360168","lat":25.0643938,"lon":121.6558745,"name":"復興公園","decorType":"park"},{"id":"way-272360169","lat":25.0639688,"lon":121.6560697,"name":"未命名公園","decorType":"park"},{"id":"way-272360170","lat":25.0635919,"lon":121.6562109,"name":"未命名公園","decorType":"park"},{"id":"way-272985485","lat":25.064794,"lon":121.6573161,"name":"福龍宮","decorType":"shrine"},{"id":"way-290040141","lat":25.0667584,"lon":121.6670403,"name":"新台五路二段","decorType":"bridge"},{"id":"way-302132402","lat":25.0674979,"lon":121.6596693,"name":"未命名橋樑","decorType":"bridge"},{"id":"way-328990965","lat":25.0579109,"lon":121.6543539,"name":"康誥坑橋","decorType":"bridge"},{"id":"way-328990967","lat":25.0587886,"lon":121.6538393,"name":"康安橋","decorType":"bridge"},{"id":"way-378468181","lat":25.0675547,"lon":121.6530025,"name":"未命名橋樑","decorType":"bridge"},{"id":"way-385881545","lat":25.0599155,"lon":121.6531427,"name":"未命名水邊","decorType":"waterside"},{"id":"way-423669804","lat":25.0696502,"lon":121.6654629,"name":"虎形山福德宮","decorType":"shrine"},{"id":"way-430959519","lat":25.0623421,"lon":121.6544885,"name":"麥當勞","decorType":"burger"},{"id":"way-452227693","lat":25.0616828,"lon":121.6615178,"name":"靜修禪院","decorType":"shrine"},{"id":"way-477432752","lat":25.0652639,"lon":121.6570614,"name":"汐止國民運動中心","decorType":"stadium"},{"id":"way-499412086","lat":25.0603551,"lon":121.661749,"name":"彌勒內院","decorType":"shrine"},{"id":"way-499412088","lat":25.0605745,"lon":121.6627224,"name":"彌勒內院","decorType":"shrine"},{"id":"way-509416490","lat":25.0668583,"lon":121.6559262,"name":"大同路二段","decorType":"bridge"},{"id":"way-509469333","lat":25.0669717,"lon":121.6559188,"name":"大同路二段","decorType":"bridge"},{"id":"way-515872369","lat":25.0685644,"lon":121.6554066,"name":"江北橋","decorType":"bridge"},{"id":"way-515872375","lat":25.068048,"lon":121.652542,"name":"新江北橋","decorType":"bridge"},{"id":"way-525150498","lat":25.0679077,"lon":121.6611697,"name":"第一月台","decorType":"bus_stop"},{"id":"way-525150499","lat":25.0678635,"lon":121.6609453,"name":"第二月台","decorType":"bus_stop"},{"id":"way-539782684","lat":25.0675133,"lon":121.660295,"name":"禮門溪","decorType":"waterside"},{"id":"way-539782685","lat":25.0652873,"lon":121.6623393,"name":"禮門溪","decorType":"waterside"},{"id":"way-539782686","lat":25.0625378,"lon":121.6646756,"name":"禮門溪","decorType":"waterside"},{"id":"way-539782687","lat":25.0590848,"lon":121.6608695,"name":"智慧溪","decorType":"waterside"},{"id":"way-539876921","lat":25.0604897,"lon":121.6531301,"name":"文化橋","decorType":"bridge"},{"id":"way-539876922","lat":25.0595317,"lon":121.6538821,"name":"未命名橋樑","decorType":"bridge"},{"id":"way-539936547","lat":25.0606575,"lon":121.6555489,"name":"未命名體育館","decorType":"stadium"},{"id":"way-539936551","lat":25.060024,"lon":121.6560142,"name":"未命名水邊","decorType":"waterside"},{"id":"way-539936594","lat":25.0594072,"lon":121.6525811,"name":"未命名水邊","decorType":"waterside"},{"id":"way-540893864","lat":25.0565536,"lon":121.6560725,"name":"水源路二段51巷","decorType":"bridge"},{"id":"way-540893866","lat":25.0571416,"lon":121.6552799,"name":"未命名橋樑","decorType":"bridge"},{"id":"way-540977285","lat":25.0617945,"lon":121.652518,"name":"康誥坑溪","decorType":"waterside"},{"id":"way-540977287","lat":25.0551829,"lon":121.6572851,"name":"宏國橋","decorType":"bridge"},{"id":"way-547013276","lat":25.0604097,"lon":121.6599121,"name":"未命名水邊","decorType":"waterside"},{"id":"way-547013277","lat":25.0576774,"lon":121.6621235,"name":"秀德宮","decorType":"shrine"},{"id":"way-547143617","lat":25.0678597,"lon":121.6655483,"name":"未命名水邊","decorType":"waterside"},{"id":"way-547143618","lat":25.0683909,"lon":121.665188,"name":"未命名水邊","decorType":"waterside"},{"id":"way-547143619","lat":25.0687949,"lon":121.6630637,"name":"汐止站前綠地","decorType":"park"},{"id":"way-547143620","lat":25.068612,"lon":121.6626868,"name":"汐止站前綠地","decorType":"park"},{"id":"way-583642840","lat":25.0642327,"lon":121.6629182,"name":"禮門溪","decorType":"waterside"},{"id":"way-583642842","lat":25.0637115,"lon":121.6633469,"name":"禮門溪","decorType":"waterside"},{"id":"way-589682286","lat":25.0587617,"lon":121.6602272,"name":"觀音院","decorType":"shrine"},{"id":"way-600510887","lat":25.0676622,"lon":121.658929,"name":"禮門溪","decorType":"waterside"},{"id":"way-600510888","lat":25.067472,"lon":121.659613,"name":"禮門溪","decorType":"waterside"},{"id":"way-605797921","lat":25.0593934,"lon":121.6638489,"name":"慈航紀念堂","decorType":"shrine"},{"id":"way-605803699","lat":25.0587326,"lon":121.6589163,"name":"未命名水邊","decorType":"waterside"},{"id":"way-605803700","lat":25.0576209,"lon":121.6608838,"name":"未命名水邊","decorType":"waterside"},{"id":"way-605811379","lat":25.058835,"lon":121.6596437,"name":"汐止水德宮","decorType":"shrine"},{"id":"way-605811667","lat":25.0596492,"lon":121.6594968,"name":"觀音院","decorType":"shrine"},{"id":"way-605813501","lat":25.0582717,"lon":121.662081,"name":"席筵匯宴會館","decorType":"restaurant"},{"id":"way-606860980","lat":25.0682165,"lon":121.6526828,"name":"未命名橋樑","decorType":"bridge"},{"id":"way-661059744","lat":25.0680439,"lon":121.6585785,"name":"水返腳公園","decorType":"park"},{"id":"way-674056167","lat":25.0633889,"lon":121.653903,"name":"未命名公園","decorType":"park"},{"id":"way-682332807","lat":25.0679048,"lon":121.6649726,"name":"未命名水邊","decorType":"waterside"},{"id":"way-682333215","lat":25.0617752,"lon":121.6602709,"name":"未命名公園","decorType":"park"},{"id":"way-905612939","lat":25.0651607,"lon":121.660145,"name":"新台五路二段","decorType":"bridge"},{"id":"way-905612941","lat":25.065917,"lon":121.6620079,"name":"新台五路二段","decorType":"bridge"},{"id":"way-905612942","lat":25.0655741,"lon":121.6611484,"name":"新台五路二段","decorType":"bridge"},{"id":"way-963163011","lat":25.0660738,"lon":121.6599638,"name":"未命名水邊","decorType":"waterside"},{"id":"way-1060168953","lat":25.0664999,"lon":121.6562731,"name":"智慧溪","decorType":"waterside"},{"id":"way-1060168954","lat":25.064616,"lon":121.6573931,"name":"智慧溪","decorType":"waterside"},{"id":"way-1061826076","lat":25.0679053,"lon":121.658333,"name":"多功能廣場","decorType":"park"},{"id":"way-1061826078","lat":25.0677223,"lon":121.6588933,"name":"滑波","decorType":"park"},{"id":"way-1061826089","lat":25.0676291,"lon":121.6589215,"name":"未命名公園","decorType":"park"},{"id":"way-1087649054","lat":25.0680611,"lon":121.6525699,"name":"新江北橋","decorType":"bridge"},{"id":"way-1087649055","lat":25.0685643,"lon":121.6554062,"name":"江北橋","decorType":"bridge"},{"id":"way-1087649056","lat":25.0687783,"lon":121.6557614,"name":"未命名橋樑","decorType":"bridge"},{"id":"way-1183817827","lat":25.057056,"lon":121.6558233,"name":"康誥坑公園","decorType":"park"},{"id":"way-1189946873","lat":25.0617255,"lon":121.6524936,"name":"新台五路一段","decorType":"bridge"},{"id":"way-1297373616","lat":25.0656868,"lon":121.6569156,"name":"未命名橋樑","decorType":"bridge"},{"id":"way-1297373618","lat":25.0654558,"lon":121.6569099,"name":"汐科路","decorType":"bridge"},{"id":"way-1297373620","lat":25.0642038,"lon":121.6577578,"name":"石橋","decorType":"bridge"},{"id":"way-1297373622","lat":25.0640973,"lon":121.6578243,"name":"石橋","decorType":"bridge"},{"id":"way-1297373624","lat":25.063968,"lon":121.6578377,"name":"石橋","decorType":"bridge"},{"id":"way-1297375191","lat":25.0675476,"lon":121.6592152,"name":"公園路","decorType":"bridge"},{"id":"way-1297375194","lat":25.0674926,"lon":121.659521,"name":"大同路二段","decorType":"bridge"},{"id":"way-1297375196","lat":25.0674966,"lon":121.6597649,"name":"大同路二段","decorType":"bridge"},{"id":"way-1297375197","lat":25.0674885,"lon":121.6604862,"name":"未命名橋樑","decorType":"bridge"},{"id":"way-1297375200","lat":25.0673174,"lon":121.660772,"name":"汐科路","decorType":"bridge"},{"id":"way-1297375203","lat":25.0656041,"lon":121.6620201,"name":"福安街","decorType":"bridge"},{"id":"way-1297375205","lat":25.0647669,"lon":121.6628788,"name":"福安街","decorType":"bridge"},{"id":"way-1297375206","lat":25.0651518,"lon":121.6626929,"name":"福安街27巷","decorType":"bridge"},{"id":"way-1297375207","lat":25.0648878,"lon":121.662933,"name":"福安街37巷","decorType":"bridge"},{"id":"way-1297375208","lat":25.064646,"lon":121.6628269,"name":"福安街22巷","decorType":"bridge"},{"id":"way-1297375629","lat":25.0671178,"lon":121.6562373,"name":"汐萬路一段","decorType":"bridge"},{"id":"way-1297375630","lat":25.0671464,"lon":121.6563685,"name":"大同路二段349巷","decorType":"bridge"},{"id":"way-1297375632","lat":25.0673081,"lon":121.6568728,"name":"禮門街","decorType":"bridge"},{"id":"way-1297375634","lat":25.0675911,"lon":121.6576828,"name":"大同路二段385巷","decorType":"bridge"},{"id":"way-1297659846","lat":25.0589858,"lon":121.6596809,"name":"未命名橋樑","decorType":"bridge"},{"id":"way-1297659847","lat":25.0577657,"lon":121.6622544,"name":"早安橋","decorType":"bridge"},{"id":"way-1297659865","lat":25.0636047,"lon":121.6636001,"name":"水碓街","decorType":"bridge"},{"id":"way-1301433486","lat":25.0595314,"lon":121.6527455,"name":"南興路","decorType":"bridge"},{"id":"way-1301433488","lat":25.0591356,"lon":121.6524884,"name":"南興路82巷","decorType":"bridge"},{"id":"way-1301433489","lat":25.0592361,"lon":121.6526014,"name":"南興路82巷","decorType":"bridge"},{"id":"way-1415861128","lat":25.066632,"lon":121.6662307,"name":"捷運南港基隆線","decorType":"bridge"},{"id":"way-1415861129","lat":25.0666004,"lon":121.6662331,"name":"捷運南港基隆線","decorType":"bridge"},{"id":"way-1424773489","lat":25.0682627,"lon":121.6559506,"name":"未命名橋樑","decorType":"bridge"},{"id":"way-1424773495","lat":25.069439,"lon":121.6578004,"name":"禮門溪","decorType":"waterside"},{"id":"way-1424773496","lat":25.0689112,"lon":121.6582897,"name":"禮門溪","decorType":"waterside"},{"id":"way-1425281734","lat":25.0676284,"lon":121.6526391,"name":"未命名橋樑","decorType":"bridge"},{"id":"way-1425281735","lat":25.0682681,"lon":121.6525079,"name":"未命名橋樑","decorType":"bridge"},{"id":"way-1425281743","lat":25.0682118,"lon":121.6552323,"name":"智慧溪","decorType":"waterside"},{"id":"way-1425281744","lat":25.0676737,"lon":121.6555385,"name":"智慧溪","decorType":"waterside"},{"id":"way-1441499679","lat":25.0684349,"lon":121.6583806,"name":"禮門溪","decorType":"waterside"},{"id":"way-1441499680","lat":25.0683549,"lon":121.6584245,"name":"禮門溪","decorType":"waterside"},{"id":"way-1441499681","lat":25.0681632,"lon":121.6586226,"name":"禮門溪","decorType":"waterside"},{"id":"way-1441499682","lat":25.0678636,"lon":121.6588456,"name":"禮門溪","decorType":"waterside"},{"id":"way-1441499683","lat":25.0679713,"lon":121.6589137,"name":"禮門溪","decorType":"waterside"},{"id":"way-1441499684","lat":25.068007,"lon":121.6588352,"name":"禮門溪","decorType":"waterside"},{"id":"way-1441499685","lat":25.0679118,"lon":121.6589418,"name":"禮門溪","decorType":"waterside"},{"id":"way-1441499686","lat":25.0678829,"lon":121.658902,"name":"禮門溪","decorType":"waterside"},{"id":"way-1441499687","lat":25.0655599,"lon":121.6568486,"name":"智慧溪","decorType":"waterside"},{"id":"way-1441499688","lat":25.0654109,"lon":121.6569044,"name":"智慧溪","decorType":"waterside"},{"id":"way-1441499689","lat":25.0653838,"lon":121.6569217,"name":"智慧溪","decorType":"waterside"},{"id":"way-1452442795","lat":25.0624799,"lon":121.6586978,"name":"智慧溪","decorType":"waterside"},{"id":"way-1452442796","lat":25.0609978,"lon":121.6596456,"name":"智慧溪","decorType":"waterside"},{"id":"way-1452442797","lat":25.0607103,"lon":121.6596419,"name":"智慧溪","decorType":"waterside"},{"id":"way-1452442798","lat":25.0604856,"lon":121.6595266,"name":"智慧溪","decorType":"waterside"},{"id":"way-1452442799","lat":25.0575547,"lon":121.6649531,"name":"智慧溪","decorType":"waterside"},{"id":"way-1452442800","lat":25.0579663,"lon":121.6625535,"name":"智慧溪","decorType":"waterside"},{"id":"way-1452442801","lat":25.0581666,"lon":121.6634022,"name":"智慧溪","decorType":"waterside"},{"id":"way-1452442802","lat":25.0579193,"lon":121.6642394,"name":"智慧溪","decorType":"waterside"},{"id":"way-1452687767","lat":25.0668291,"lon":121.6610468,"name":"禮門溪","decorType":"waterside"},{"id":"way-1452687768","lat":25.06609,"lon":121.6616186,"name":"禮門溪","decorType":"waterside"},{"id":"way-1452687769","lat":25.0639013,"lon":121.6630083,"name":"禮門溪","decorType":"waterside"}]}