{"bbox":{"south":25.054338,"north":25.069944,"west":121.652469,"east":121.6655},"pois":[{"id":"node-289281848","lat":25.067421,"lon":121.660685,"name":"汐止","decorType":"station"},{"id":"node-2639182792","lat":25.069189,"lon":121.661669,"name":"訪客咖啡","decorType":"cafe"},{"id":"node-2639182799","lat":25.069159,"lon":121.661683,"name":"汐止火車站","decorType":"bus_stop"},{"id":"node-2639182800","lat":25.069012,"lon":121.661992,"name":"汐止","decorType":"bus_stop"},{"id":"node-2639182802","lat":25.068797,"lon":121.661204,"name":"永和豆漿","decorType":"restaurant"},{"id":"node-2756550028","lat":25.062374,"lon":121.653387,"name":"7-Eleven","decorType":"convenience"},{"id":"node-2756550032","lat":25.06219,"lon":121.652979,"name":"鬍鬚張","decorType":"restaurant"},{"id":"node-2773021192","lat":25.063683,"lon":121.654325,"name":"汐止龍安郵局 (基隆 43 支)","decorType":"post_office"},{"id":"node-2975185395","lat":25.068189,"lon":121.663775,"name":"7-Eleven","decorType":"convenience"},{"id":"node-3063759238","lat":25.069185,"lon":121.661736,"name":"汐止","decorType":"bus_stop"},{"id":"node-3063759239","lat":25.067233,"lon":121.659496,"name":"汐止公園","decorType":"bus_stop"},{"id":"node-3063759240","lat":25.067826,"lon":121.659847,"name":"汐止公園","decorType":"bus_stop"},{"id":"node-3063759241","lat":25.066303,"lon":121.654907,"name":"汐止國小","decorType":"bus_stop"},{"id":"node-3063759242","lat":25.066274,"lon":121.654508,"name":"汐止國小","decorType":"bus_stop"},{"id":"node-3066879539","lat":25.067773,"lon":121.662122,"name":"天然素食","decorType":"restaurant"},{"id":"node-3232569567","lat":25.060727,"lon":121.654433,"name":"全家便利商店","decorType":"convenience"},{"id":"node-3356147186","lat":25.066732,"lon":121.662467,"name":"全家便利商店","decorType":"convenience"},{"id":"node-3358023877","lat":25.064367,"lon":121.658295,"name":"汐止區行政中心(新台五路)","decorType":"bus_stop"},{"id":"node-3358023878","lat":25.064483,"lon":121.65915,"name":"汐止區行政中心(新台五路)","decorType":"bus_stop"},{"id":"node-3358023879","lat":25.06781,"lon":121.663375,"name":"汐止後火車站","decorType":"bus_stop"},{"id":"node-3358023880","lat":25.068978,"lon":121.664294,"name":"汐止後火車站","decorType":"bus_stop"},{"id":"node-3358023885","lat":25.066521,"lon":121.661985,"name":"秀峰國中","decorType":"bus_stop"},{"id":"node-3358023886","lat":25.066581,"lon":121.66219,"name":"秀峰國中","decorType":"bus_stop"},{"id":"node-3358024005","lat":25.06229,"lon":121.653954,"name":"連興街口","decorType":"bus_stop"},{"id":"node-3643736441","lat":25.065506,"lon":121.654086,"name":"全國電子","decorType":"electronics"},{"id":"node-3643750725","lat":25.065979,"lon":121.653834,"name":"家樂福超市","decorType":"supermarket"},{"id":"node-4123949990","lat":25.063508,"lon":121.65366,"name":"全家便利商店","decorType":"convenience"},{"id":"node-4302045689","lat":25.065592,"lon":121.654165,"name":"麥當勞","decorType":"burger"},{"id":"node-4302046214","lat":25.066249,"lon":121.653681,"name":"全家便利商店","decorType":"convenience"},{"id":"node-4302046215","lat":25.066442,"lon":121.653489,"name":"7-Eleven","decorType":"convenience"},{"id":"node-4302072914","lat":25.064009,"lon":121.655051,"name":"7-Eleven","decorType":"convenience"},{"id":"node-4302072915","lat":25.063418,"lon":121.654516,"name":"牛匠","decorType":"restaurant"},{"id":"node-4302077472","lat":25.064042,"lon":121.652656,"name":"汐科火車站北入口","decorType":"station"},{"id":"node-4302088070","lat":25.063704,"lon":121.655229,"name":"八方雲集","decorType":"burger"},{"id":"node-4302138413","lat":25.06364,"lon":121.65554,"name":"康是美","decorType":"pharmacy"},{"id":"node-4302138414","lat":25.062701,"lon":121.65429,"name":"屈臣氏","decorType":"pharmacy"},{"id":"node-4302226159","lat":25.066643,"lon":121.655699,"name":"7-Eleven","decorType":"convenience"},{"id":"node-4302235324","lat":25.06296,"lon":121.655816,"name":"全家便利商店","decorType":"convenience"},{"id":"node-4315295869","lat":25.062975,"lon":121.654995,"name":"摩斯漢堡","decorType":"burger"},{"id":"node-4339678197","lat":25.067784,"lon":121.66236,"name":"火車頭快炒","decorType":"restaurant"},{"id":"node-4432474816","lat":25.064556,"lon":121.656616,"name":"全家便利商店","decorType":"convenience"},{"id":"node-4490165935","lat":25.065824,"lon":121.662357,"name":"7-Eleven","decorType":"convenience"},{"id":"node-4524400559","lat":25.067092,"lon":121.658688,"name":"汐止國中","decorType":"bus_stop"},{"id":"node-4524863604","lat":25.068089,"lon":121.660812,"name":"星巴克","decorType":"cafe"},{"id":"node-4524863605","lat":25.066546,"lon":121.655498,"name":"北味香永和豆漿大王","decorType":"restaurant"},{"id":"node-4683343682","lat":25.05823,"lon":121.654386,"name":"美廉社","decorType":"supermarket"},{"id":"node-4683345793","lat":25.058884,"lon":121.654187,"name":"OK超商","decorType":"convenience"},{"id":"node-4742571025","lat":25.068371,"lon":121.663015,"name":"全家便利商店","decorType":"convenience"},{"id":"node-4986484626","lat":25.067416,"lon":121.655993,"name":"江北橋頭","decorType":"bus_stop"},{"id":"node-4986484628","lat":25.067608,"lon":121.656013,"name":"江北橋頭","decorType":"bus_stop"},{"id":"node-4986484635","lat":25.06982,"lon":121.654718,"name":"江北社區","decorType":"bus_stop"},{"id":"node-4989855196","lat":25.064711,"lon":121.664021,"name":"福安街口","decorType":"bus_stop"},{"id":"node-4989855197","lat":25.066964,"lon":121.663146,"name":"新昌圖書館","decorType":"bus_stop"},{"id":"node-4989855203","lat":25.063332,"lon":121.662379,"name":"秀峰國小","decorType":"bus_stop"},{"id":"node-4989855206","lat":25.066372,"lon":121.665166,"name":"水碓","decorType":"bus_stop"},{"id":"node-4989855211","lat":25.063466,"lon":121.659434,"name":"汐止區行政中心(仁愛路)","decorType":"bus_stop"},{"id":"node-4992791823","lat":25.063315,"lon":121.655417,"name":"義美食品","decorType":"convenience"},{"id":"node-4995228544","lat":25.063599,"lon":121.655292,"name":"蔦燒日式居酒屋-汐止店","decorType":"restaurant"},{"id":"node-4995236721","lat":25.063459,"lon":121.654922,"name":"牧童咖啡連興店","decorType":"restaurant"},{"id":"node-5222847793","lat":25.064809,"lon":121.652755,"name":"關山便當店","decorType":"restaurant"},{"id":"node-5232275043","lat":25.062861,"lon":121.657094,"name":"新北市圖書館汐止自強分館","decorType":"library"},{"id":"node-5286707595","lat":25.067366,"lon":121.657893,"name":"寶雅","decorType":"pharmacy"},{"id":"node-5286707916","lat":25.069532,"lon":121.660939,"name":"全家便利商店","decorType":"convenience"},{"id":"node-5298633821","lat":25.063589,"lon":121.653602,"name":"凱撒麵包","decorType":"bakery"},{"id":"node-5298720576","lat":25.062414,"lon":121.653476,"name":"全家便利商店","decorType":"convenience"},{"id":"node-5615266343","lat":25.057133,"lon":121.654822,"name":"全家便利商店","decorType":"convenience"},{"id":"node-5628653721","lat":25.068035,"lon":121.663623,"name":"Angel 男女剪髮 100","decorType":"hair_salon"},{"id":"node-5744927465","lat":25.062754,"lon":121.660256,"name":"7-Eleven","decorType":"convenience"},{"id":"node-5744939525","lat":25.05517,"lon":121.66505,"name":"未命名山丘","decorType":"mountain"},{"id":"node-5745034290","lat":25.0605,"lon":121.659524,"name":"環山路口","decorType":"bus_stop"},{"id":"node-5745056254","lat":25.0548,"lon":121.66386,"name":"六角亭","decorType":"bus_stop"},{"id":"node-5746062296","lat":25.062989,"lon":121.660159,"name":"OK超商","decorType":"convenience"},{"id":"node-5752761712","lat":25.068854,"lon":121.663602,"name":"南昌郵局","decorType":"post_office"},{"id":"node-5950268285","lat":25.063409,"lon":121.654764,"name":"韓咕咕韓式炸雞","decorType":"restaurant"},{"id":"node-5950324362","lat":25.062203,"lon":121.654117,"name":"呷呼飽火鍋","decorType":"restaurant"},{"id":"node-5950324363","lat":25.062234,"lon":121.654196,"name":"爭鮮","decorType":"restaurant"},{"id":"node-5950324364","lat":25.061563,"lon":121.653922,"name":"悟饕便當","decorType":"restaurant"},{"id":"node-6150694085","lat":25.063882,"lon":121.654811,"name":"自助洗衣店","decorType":"laundry"},{"id":"node-6164026292","lat":25.064056,"lon":121.652681,"name":"路易莎咖啡","decorType":"cafe"},{"id":"node-6180428010","lat":25.067861,"lon":121.655915,"name":"小胖早餐店","decorType":"restaurant"},{"id":"node-6180428011","lat":25.067608,"lon":121.655856,"name":"雅加達早餐店","decorType":"restaurant"},{"id":"node-6180428013","lat":25.06634,"lon":121.65503,"name":"ＦＥＬＹ","decorType":"hair_salon"},{"id":"node-6180428016","lat":25.063673,"lon":121.655653,"name":"嘉鄉麵館","decorType":"restaurant"},{"id":"node-6180428018","lat":25.063813,"lon":121.653276,"name":"未命名餐廳","decorType":"restaurant"},{"id":"node-6188959119","lat":25.066717,"lon":121.662274,"name":"迷客夏","decorType":"cafe"},{"id":"node-6188959120","lat":25.066538,"lon":121.662105,"name":"圓多利","decorType":"restaurant"},{"id":"node-6188959121","lat":25.066844,"lon":121.662449,"name":"台灣味","decorType":"restaurant"},{"id":"node-6188959122","lat":25.067005,"lon":121.662585,"name":"紅橘子","decorType":"restaurant"},{"id":"node-6188959123","lat":25.067069,"lon":121.66265,"name":"台灣大哥大","decorType":"electronics"},{"id":"node-6188959125","lat":25.06722,"lon":121.662774,"name":"青苗","decorType":"pharmacy"},{"id":"node-6188959126","lat":25.067051,"lon":121.662477,"name":"涼麵","decorType":"restaurant"},{"id":"node-6189765185","lat":25.061144,"lon":121.654511,"name":"全聯福利中心","decorType":"supermarket"},{"id":"node-6292752285","lat":25.062274,"lon":121.654292,"name":"福園號","decorType":"bakery"},{"id":"node-6309816585","lat":25.063768,"lon":121.654524,"name":"全家便利商店","decorType":"convenience"},{"id":"node-6356216091","lat":25.063078,"lon":121.653954,"name":"莊粥舖-澳門水蟹粥","decorType":"restaurant"},{"id":"node-6356216092","lat":25.062864,"lon":121.654248,"name":"川田小火鍋","decorType":"restaurant"},{"id":"node-6433912685","lat":25.064261,"lon":121.655683,"name":"木人甲","decorType":"hair_salon"},{"id":"node-6463282886","lat":25.065079,"lon":121.653059,"name":"五角菜飯","decorType":"restaurant"},{"id":"node-6605400981","lat":25.061721,"lon":121.653869,"name":"八方雲集","decorType":"burger"},{"id":"node-6605417565","lat":25.061641,"lon":121.653893,"name":"快樂城西點麵包","decorType":"bakery"},{"id":"node-6654409085","lat":25.063512,"lon":121.65473,"name":"食曼谷","decorType":"restaurant"},{"id":"node-6778919036","lat":25.067573,"lon":121.660471,"name":"將軍府","decorType":"shrine"},{"id":"node-6811967185","lat":25.062313,"lon":121.653208,"name":"梁社漢排骨","decorType":"restaurant"},{"id":"node-6882654480","lat":25.062288,"lon":121.660245,"name":"靜修禪院","decorType":"bus_stop"},{"id":"node-6882654481","lat":25.061832,"lon":121.660339,"name":"未命名公園","decorType":"park"},{"id":"node-6882654482","lat":25.06162,"lon":121.660803,"name":"慈航聖瑶宮","decorType":"shrine"},{"id":"node-6882654483","lat":25.062859,"lon":121.660034,"name":"永泰香","decorType":"restaurant"},{"id":"node-6893176335","lat":25.061641,"lon":121.65405,"name":"來發食堂","decorType":"restaurant"},{"id":"node-6902570285","lat":25.062504,"lon":121.653037,"name":"華姐麵店","decorType":"restaurant"},{"id":"node-6902570385","lat":25.062507,"lon":121.653171,"name":"黑布咖啡","decorType":"cafe"},{"id":"node-6907881786","lat":25.062255,"lon":121.653992,"name":"熊鍋燒","decorType":"restaurant"},{"id":"node-7211425777","lat":25.065504,"lon":121.656026,"name":"獅子長角","decorType":"restaurant"},{"id":"node-7272342085","lat":25.063739,"lon":121.656331,"name":"佳佳涼麵店","decorType":"restaurant"},{"id":"node-7272342185","lat":25.063775,"lon":121.656393,"name":"周胖子餃子館","decorType":"restaurant"},{"id":"node-7301073548","lat":25.063603,"lon":121.657169,"name":"汐止農會","decorType":"bus_stop"},{"id":"node-7301073549","lat":25.063424,"lon":121.656163,"name":"汐止農會","decorType":"bus_stop"},{"id":"node-7301073583","lat":25.062101,"lon":121.652971,"name":"連興街口","decorType":"bus_stop"},{"id":"node-7489506071","lat":25.067633,"lon":121.659406,"name":"鳥居","decorType":"shrine"},{"id":"node-7972079252","lat":25.0654,"lon":121.659633,"name":"黃昏市場","decorType":"bus_stop"},{"id":"node-7972079253","lat":25.065384,"lon":121.6595,"name":"黃昏市場","decorType":"bus_stop"},{"id":"node-8022114042","lat":25.063237,"lon":121.65413,"name":"老先覺麻辣鍋","decorType":"restaurant"},{"id":"node-8022114043","lat":25.062133,"lon":121.653924,"name":"埔林鐡板燒","decorType":"restaurant"},{"id":"node-8118239072","lat":25.064728,"lon":121.653254,"name":"全家便利商店","decorType":"convenience"},{"id":"node-8118239073","lat":25.061445,"lon":121.657046,"name":"全家便利商店","decorType":"convenience"},{"id":"node-8118239074","lat":25.064692,"lon":121.663671,"name":"全家便利商店","decorType":"convenience"},{"id":"node-8118239075","lat":25.067583,"lon":121.663145,"name":"全家便利商店","decorType":"convenience"},{"id":"node-8385304914","lat":25.06778,"lon":121.663039,"name":"八方雲集","decorType":"burger"},{"id":"node-8385313345","lat":25.064558,"lon":121.663861,"name":"八方雲集","decorType":"burger"},{"id":"node-8406199335","lat":25.065126,"lon":121.653249,"name":"汐科站北站","decorType":"bus_stop"},{"id":"node-8410101718","lat":25.064745,"lon":121.659135,"name":"汐止行政中心","decorType":"bus_stop"},{"id":"node-8410101719","lat":25.06583,"lon":121.66219,"name":"南昌街口","decorType":"bus_stop"},{"id":"node-8410101720","lat":25.066328,"lon":121.662717,"name":"南昌街口","decorType":"bus_stop"},{"id":"node-8432400351","lat":25.068882,"lon":121.662911,"name":"汐止火車站(公園)","decorType":"bus_stop"},{"id":"node-8432400507","lat":25.05488,"lon":121.663818,"name":"六角亭","decorType":"bus_stop"},{"id":"node-8432400649","lat":25.060763,"lon":121.654226,"name":"莊敬街口","decorType":"bus_stop"},{"id":"node-8432401040","lat":25.057924,"lon":121.662395,"name":"世運村","decorType":"bus_stop"},{"id":"node-8432401043","lat":25.061698,"lon":121.653933,"name":"連興街口","decorType":"bus_stop"},{"id":"node-8432401497","lat":25.060825,"lon":121.654582,"name":"莊敬街口","decorType":"bus_stop"},{"id":"node-8432401630","lat":25.054411,"lon":121.664779,"name":"聖德宮","decorType":"bus_stop"},{"id":"node-8432401634","lat":25.057722,"lon":121.652527,"name":"薄荷社區","decorType":"bus_stop"},{"id":"node-8432401640","lat":25.055385,"lon":121.657051,"name":"白雲社區活動中心","decorType":"bus_stop"},{"id":"node-8432401643","lat":25.057276,"lon":121.654944,"name":"白雲土地公廟","decorType":"bus_stop"},{"id":"node-8432401650","lat":25.054347,"lon":121.655601,"name":"台北小別墅","decorType":"bus_stop"},{"id":"node-8432401654","lat":25.056403,"lon":121.656066,"name":"水源路二段72巷口","decorType":"bus_stop"},{"id":"node-8536919271","lat":25.063773,"lon":121.655909,"name":"未命名餐廳","decorType":"restaurant"},{"id":"node-8536919272","lat":25.063594,"lon":121.655979,"name":"未命名餐廳","decorType":"restaurant"},{"id":"node-9111233812","lat":25.058422,"lon":121.657586,"name":"康誥坑山","decorType":"mountain"},{"id":"node-9151839659","lat":25.063825,"lon":121.658961,"name":"新北市立圖書館汐止分館","decorType":"library"},{"id":"node-9327511754","lat":25.063604,"lon":121.662701,"name":"蝦皮店到店","decorType":"convenience"},{"id":"node-9327511757","lat":25.061746,"lon":121.656351,"name":"蝦皮店到店","decorType":"convenience"},{"id":"node-9327511758","lat":25.069442,"lon":121.665004,"name":"蝦皮店到店","decorType":"convenience"},{"id":"node-9336787614","lat":25.064371,"lon":121.659153,"name":"周美真手作壽司","decorType":"restaurant"},{"id":"node-9414479546","lat":25.064843,"lon":121.656487,"name":"美廉社","decorType":"supermarket"},{"id":"node-9598668439","lat":25.067278,"lon":121.662216,"name":"蝦皮店到店","decorType":"convenience"},{"id":"node-9755236814","lat":25.067661,"lon":121.658961,"name":"茶葉倉庫","decorType":"park"},{"id":"node-9843786897","lat":25.067353,"lon":121.658435,"name":"拿坡里","decorType":"burger"},{"id":"node-9845685583","lat":25.067378,"lon":121.657623,"name":"肯德基","decorType":"burger"},{"id":"node-9845686314","lat":25.067064,"lon":121.657405,"name":"老圓環魯肉飯","decorType":"restaurant"},{"id":"node-9846095813","lat":25.068575,"lon":121.661355,"name":"鍋將軍","decorType":"restaurant"},{"id":"node-9846220147","lat":25.06708,"lon":121.657117,"name":"西秦王爺廟","decorType":"shrine"},{"id":"node-9846242535","lat":25.069115,"lon":121.661552,"name":"大熊蔬食","decorType":"restaurant"},{"id":"node-9846249163","lat":25.069258,"lon":121.663348,"name":"常滿樓","decorType":"restaurant"},{"id":"node-9846249181","lat":25.067536,"lon":121.658142,"name":"傳說水煎包","decorType":"restaurant"},{"id":"node-9846280883","lat":25.069057,"lon":121.661438,"name":"OK便利商店","decorType":"convenience"},{"id":"node-9849139792","lat":25.068829,"lon":121.661244,"name":"車頭炭烤三明治","decorType":"restaurant"},{"id":"node-9849230170","lat":25.065646,"lon":121.657303,"name":"剉冰女王","decorType":"restaurant"},{"id":"node-9849240537","lat":25.06627,"lon":121.65885,"name":"阿義炸雞","decorType":"restaurant"},{"id":"node-9849282018","lat":25.066071,"lon":121.655763,"name":"鑫悅排骨專賣店","decorType":"restaurant"},{"id":"node-9854838087","lat":25.065714,"lon":121.655884,"name":"Louisa Coffee 路易．莎咖啡","decorType":"cafe"},{"id":"node-9854843420","lat":25.068525,"lon":121.660281,"name":"汐止街仔內米粉湯","decorType":"restaurant"},{"id":"node-9872056202","lat":25.066327,"lon":121.658768,"name":"王廷子燒雞","decorType":"restaurant"},{"id":"node-9878801932","lat":25.066943,"lon":121.656505,"name":"必勝客","decorType":"restaurant"},{"id":"node-9878810982","lat":25.066762,"lon":121.659154,"name":"麥町吐司工房","decorType":"restaurant"},{"id":"node-9878815960","lat":25.069412,"lon":121.661142,"name":"金豐 八寶冬粉/香菇肉羹","decorType":"restaurant"},{"id":"node-9886580454","lat":25.064725,"lon":121.656317,"name":"韓堂-韓國小吃","decorType":"restaurant"},{"id":"node-9886601441","lat":25.063254,"lon":121.656477,"name":"蔥之香蔥仔餅","decorType":"sweetshop"},{"id":"node-9886603636","lat":25.065003,"lon":121.660438,"name":"築間幸福鍋物","decorType":"restaurant"},{"id":"node-10229564317","lat":25.064109,"lon":121.655342,"name":"龍安飯包","decorType":"restaurant"},{"id":"node-10239549103","lat":25.067329,"lon":121.657177,"name":"帝王食補","decorType":"restaurant"},{"id":"node-10239576773","lat":25.064894,"lon":121.656464,"name":"躍獅大同藥局","decorType":"pharmacy"},{"id":"node-10239577203","lat":25.065984,"lon":121.655792,"name":"松亭鐵板燒","decorType":"restaurant"},{"id":"node-10239589013","lat":25.064776,"lon":121.656293,"name":"九湯屋日本拉麵_汐止店","decorType":"restaurant"},{"id":"node-10239589531","lat":25.065784,"lon":121.656086,"name":"大俠水煎包","decorType":"restaurant"},{"id":"node-10239590381","lat":25.067202,"lon":121.656441,"name":"大埔鐵板燒汐止店","decorType":"restaurant"},{"id":"node-10239590831","lat":25.064458,"lon":121.656396,"name":"黑ㄟ咖喱屋","decorType":"restaurant"},{"id":"node-10239597253","lat":25.069207,"lon":121.663271,"name":"黑澀鍋汐止總店","decorType":"restaurant"},{"id":"node-10239597430","lat":25.067872,"lon":121.662192,"name":"志芸臭豆腐","decorType":"restaurant"},{"id":"node-10239869760","lat":25.066804,"lon":121.658653,"name":"汐止社區大學","decorType":"university"},{"id":"node-10239915164","lat":25.063102,"lon":121.659612,"name":"河南鍋貼店","decorType":"restaurant"},{"id":"node-10241387047","lat":25.065935,"lon":121.661548,"name":"烤霸串燒","decorType":"restaurant"},{"id":"node-10241392426","lat":25.068727,"lon":121.661571,"name":"漢堡王","decorType":"burger"},{"id":"node-11013481534","lat":25.069448,"lon":121.661695,"name":"海龍王魷魚羹","decorType":"restaurant"},{"id":"node-11125085217","lat":25.063778,"lon":121.659332,"name":"樂鄉自助餐","decorType":"restaurant"},{"id":"node-11125095678","lat":25.063741,"lon":121.65936,"name":"麥味登 汐止仁愛店","decorType":"restaurant"},{"id":"node-11147524296","lat":25.0551,"lon":121.656998,"name":"東興宮","decorType":"shrine"},{"id":"node-11801673639","lat":25.066994,"lon":121.656822,"name":"美二佳蛋糕店","decorType":"sweetshop"},{"id":"node-11803611957","lat":25.06847,"lon":121.661903,"name":"全家便利商店汐止車站店","decorType":"convenience"},{"id":"node-12025479548","lat":25.057556,"lon":121.657821,"name":"未命名山丘","decorType":"mountain"},{"id":"node-12265991608","lat":25.064482,"lon":121.655059,"name":"家樂福超市","decorType":"supermarket"},{"id":"node-12269078019","lat":25.063741,"lon":121.65583,"name":"蘇家涼麵","decorType":"restaurant"},{"id":"node-12307306135","lat":25.063971,"lon":121.655824,"name":"廣州烤鴨美食專家","decorType":"restaurant"},{"id":"node-12375789467","lat":25.067039,"lon":121.656619,"name":"全記德清粥小菜","decorType":"restaurant"},{"id":"way-98536964","lat":25.068779,"lon":121.655762,"name":"汐止聯絡道","decorType":"bridge"},{"id":"way-197729677","lat":25.066587,"lon":121.666295,"name":"新台五路二段","decorType":"bridge"},{"id":"way-240610342","lat":25.054356,"lon":121.665312,"name":"汐止大尖山聖德宮","decorType":"shrine"},{"id":"way-251906435","lat":25.06843,"lon":121.657751,"name":"濟德宮","decorType":"shrine"},{"id":"way-251906436","lat":25.068985,"lon":121.658341,"name":"福興宮","decorType":"shrine"},{"id":"way-251906437","lat":25.069169,"lon":121.665861,"name":"茄苳溪","decorType":"waterside"},{"id":"way-252570490","lat":25.068383,"lon":121.659467,"name":"汐止區文化中心","decorType":"art_gallery"},{"id":"way-255362757","lat":25.068595,"lon":121.659038,"name":"忠順廟","decorType":"shrine"},{"id":"way-255362758","lat":25.068184,"lon":121.659532,"name":"汐止大同分館","decorType":"library"},{"id":"way-272360168","lat":25.064394,"lon":121.655875,"name":"復興公園","decorType":"park"},{"id":"way-272360169","lat":25.063969,"lon":121.65607,"name":"未命名公園","decorType":"park"},{"id":"way-272360170","lat":25.063592,"lon":121.656211,"name":"未命名公園","decorType":"park"},{"id":"way-272985485","lat":25.064794,"lon":121.657316,"name":"福龍宮","decorType":"shrine"},{"id":"way-290040141","lat":25.066758,"lon":121.66704,"name":"新台五路二段","decorType":"bridge"},{"id":"way-302132402","lat":25.067498,"lon":121.659669,"name":"未命名橋樑","decorType":"bridge"},{"id":"way-328990965","lat":25.057911,"lon":121.654354,"name":"康誥坑橋","decorType":"bridge"},{"id":"way-328990967","lat":25.058789,"lon":121.653839,"name":"康安橋","decorType":"bridge"},{"id":"way-378468181","lat":25.067555,"lon":121.653003,"name":"未命名橋樑","decorType":"bridge"},{"id":"way-385881545","lat":25.059916,"lon":121.653143,"name":"未命名水邊","decorType":"waterside"},{"id":"way-423669804","lat":25.06965,"lon":121.665463,"name":"虎形山福德宮","decorType":"shrine"},{"id":"way-430959519","lat":25.062342,"lon":121.654489,"name":"麥當勞","decorType":"burger"},{"id":"way-452227693","lat":25.061683,"lon":121.661518,"name":"靜修禪院","decorType":"shrine"},{"id":"way-477432752","lat":25.065264,"lon":121.657061,"name":"汐止國民運動中心","decorType":"stadium"},{"id":"way-499412086","lat":25.060355,"lon":121.661749,"name":"彌勒內院","decorType":"shrine"},{"id":"way-499412088","lat":25.060575,"lon":121.662722,"name":"彌勒內院","decorType":"shrine"},{"id":"way-509416490","lat":25.066858,"lon":121.655926,"name":"大同路二段","decorType":"bridge"},{"id":"way-509469333","lat":25.066972,"lon":121.655919,"name":"大同路二段","decorType":"bridge"},{"id":"way-515872369","lat":25.068564,"lon":121.655407,"name":"江北橋","decorType":"bridge"},{"id":"way-515872375","lat":25.068048,"lon":121.652542,"name":"新江北橋","decorType":"bridge"},{"id":"way-525150498","lat":25.067908,"lon":121.66117,"name":"第一月台","decorType":"bus_stop"},{"id":"way-525150499","lat":25.067864,"lon":121.660945,"name":"第二月台","decorType":"bus_stop"},{"id":"way-539782684","lat":25.067513,"lon":121.660295,"name":"禮門溪","decorType":"waterside"},{"id":"way-539782685","lat":25.065287,"lon":121.662339,"name":"禮門溪","decorType":"waterside"},{"id":"way-539782686","lat":25.062538,"lon":121.664676,"name":"禮門溪","decorType":"waterside"},{"id":"way-539782687","lat":25.059085,"lon":121.66087,"name":"智慧溪","decorType":"waterside"},{"id":"way-539876921","lat":25.06049,"lon":121.65313,"name":"文化橋","decorType":"bridge"},{"id":"way-539876922","lat":25.059532,"lon":121.653882,"name":"未命名橋樑","decorType":"bridge"},{"id":"way-539936547","lat":25.060658,"lon":121.655549,"name":"未命名體育館","decorType":"stadium"},{"id":"way-539936551","lat":25.060024,"lon":121.656014,"name":"未命名水邊","decorType":"waterside"},{"id":"way-539936594","lat":25.059407,"lon":121.652581,"name":"未命名水邊","decorType":"waterside"},{"id":"way-540893864","lat":25.056554,"lon":121.656073,"name":"水源路二段51巷","decorType":"bridge"},{"id":"way-540893866","lat":25.057142,"lon":121.65528,"name":"未命名橋樑","decorType":"bridge"},{"id":"way-540977285","lat":25.061795,"lon":121.652518,"name":"康誥坑溪","decorType":"waterside"},{"id":"way-540977287","lat":25.055183,"lon":121.657285,"name":"宏國橋","decorType":"bridge"},{"id":"way-547013276","lat":25.06041,"lon":121.659912,"name":"未命名水邊","decorType":"waterside"},{"id":"way-547013277","lat":25.057677,"lon":121.662124,"name":"秀德宮","decorType":"shrine"},{"id":"way-547143617","lat":25.06786,"lon":121.665548,"name":"未命名水邊","decorType":"waterside"},{"id":"way-547143618","lat":25.068391,"lon":121.665188,"name":"未命名水邊","decorType":"waterside"},{"id":"way-547143619","lat":25.068795,"lon":121.663064,"name":"汐止站前綠地","decorType":"park"},{"id":"way-547143620","lat":25.068612,"lon":121.662687,"name":"汐止站前綠地","decorType":"park"},{"id":"way-583642840","lat":25.064233,"lon":121.662918,"name":"禮門溪","decorType":"waterside"},{"id":"way-583642842","lat":25.063712,"lon":121.663347,"name":"禮門溪","decorType":"waterside"},{"id":"way-589682286","lat":25.058762,"lon":121.660227,"name":"觀音院","decorType":"shrine"},{"id":"way-600510887","lat":25.067662,"lon":121.658929,"name":"禮門溪","decorType":"waterside"},{"id":"way-600510888","lat":25.067472,"lon":121.659613,"name":"禮門溪","decorType":"waterside"},{"id":"way-605797921","lat":25.059393,"lon":121.663849,"name":"慈航紀念堂","decorType":"shrine"},{"id":"way-605803699","lat":25.058733,"lon":121.658916,"name":"未命名水邊","decorType":"waterside"},{"id":"way-605803700","lat":25.057621,"lon":121.660884,"name":"未命名水邊","decorType":"waterside"},{"id":"way-605811379","lat":25.058835,"lon":121.659644,"name":"汐止水德宮","decorType":"shrine"},{"id":"way-605811667","lat":25.059649,"lon":121.659497,"name":"觀音院","decorType":"shrine"},{"id":"way-605813501","lat":25.058272,"lon":121.662081,"name":"席筵匯宴會館","decorType":"restaurant"},{"id":"way-606860980","lat":25.068217,"lon":121.652683,"name":"未命名橋樑","decorType":"bridge"},{"id":"way-661059744","lat":25.068044,"lon":121.658579,"name":"水返腳公園","decorType":"park"},{"id":"way-674056167","lat":25.063389,"lon":121.653903,"name":"未命名公園","decorType":"park"},{"id":"way-682332807","lat":25.067905,"lon":121.664973,"name":"未命名水邊","decorType":"waterside"},{"id":"way-682333215","lat":25.061775,"lon":121.660271,"name":"未命名公園","decorType":"park"},{"id":"way-905612939","lat":25.065161,"lon":121.660145,"name":"新台五路二段","decorType":"bridge"},{"id":"way-905612941","lat":25.065917,"lon":121.662008,"name":"新台五路二段","decorType":"bridge"},{"id":"way-905612942","lat":25.065574,"lon":121.661148,"name":"新台五路二段","decorType":"bridge"},{"id":"way-963163011","lat":25.066074,"lon":121.659964,"name":"未命名水邊","decorType":"waterside"},{"id":"way-1060168953","lat":25.0665,"lon":121.656273,"name":"智慧溪","decorType":"waterside"},{"id":"way-1060168954","lat":25.064616,"lon":121.657393,"name":"智慧溪","decorType":"waterside"},{"id":"way-1061826076","lat":25.067905,"lon":121.658333,"name":"多功能廣場","decorType":"park"},{"id":"way-1061826078","lat":25.067722,"lon":121.658893,"name":"滑波","decorType":"park"},{"id":"way-1061826089","lat":25.067629,"lon":121.658922,"name":"未命名公園","decorType":"park"},{"id":"way-1087649054","lat":25.068061,"lon":121.65257,"name":"新江北橋","decorType":"bridge"},{"id":"way-1087649055","lat":25.068564,"lon":121.655406,"name":"江北橋","decorType":"bridge"},{"id":"way-1087649056","lat":25.068778,"lon":121.655761,"name":"未命名橋樑","decorType":"bridge"},{"id":"way-1183817827","lat":25.057056,"lon":121.655823,"name":"康誥坑公園","decorType":"park"},{"id":"way-1189946873","lat":25.061726,"lon":121.652494,"name":"新台五路一段","decorType":"bridge"},{"id":"way-1297373616","lat":25.065687,"lon":121.656916,"name":"未命名橋樑","decorType":"bridge"},{"id":"way-1297373618","lat":25.065456,"lon":121.65691,"name":"汐科路","decorType":"bridge"},{"id":"way-1297373620","lat":25.064204,"lon":121.657758,"name":"石橋","decorType":"bridge"},{"id":"way-1297373622","lat":25.064097,"lon":121.657824,"name":"石橋","decorType":"bridge"},{"id":"way-1297373624","lat":25.063968,"lon":121.657838,"name":"石橋","decorType":"bridge"},{"id":"way-1297375191","lat":25.067548,"lon":121.659215,"name":"公園路","decorType":"bridge"},{"id":"way-1297375194","lat":25.067493,"lon":121.659521,"name":"大同路二段","decorType":"bridge"},{"id":"way-1297375196","lat":25.067497,"lon":121.659765,"name":"大同路二段","decorType":"bridge"},{"id":"way-1297375197","lat":25.067489,"lon":121.660486,"name":"未命名橋樑","decorType":"bridge"},{"id":"way-1297375200","lat":25.067317,"lon":121.660772,"name":"汐科路","decorType":"bridge"},{"id":"way-1297375203","lat":25.065604,"lon":121.66202,"name":"福安街","decorType":"bridge"},{"id":"way-1297375205","lat":25.064767,"lon":121.662879,"name":"福安街","decorType":"bridge"},{"id":"way-1297375206","lat":25.065152,"lon":121.662693,"name":"福安街27巷","decorType":"bridge"},{"id":"way-1297375207","lat":25.064888,"lon":121.662933,"name":"福安街37巷","decorType":"bridge"},{"id":"way-1297375208","lat":25.064646,"lon":121.662827,"name":"福安街22巷","decorType":"bridge"},{"id":"way-1297375629","lat":25.067118,"lon":121.656237,"name":"汐萬路一段","decorType":"bridge"},{"id":"way-1297375630","lat":25.067146,"lon":121.656369,"name":"大同路二段349巷","decorType":"bridge"},{"id":"way-1297375632","lat":25.067308,"lon":121.656873,"name":"禮門街","decorType":"bridge"},{"id":"way-1297375634","lat":25.067591,"lon":121.657683,"name":"大同路二段385巷","decorType":"bridge"},{"id":"way-1297659846","lat":25.058986,"lon":121.659681,"name":"未命名橋樑","decorType":"bridge"},{"id":"way-1297659847","lat":25.057766,"lon":121.662254,"name":"早安橋","decorType":"bridge"},{"id":"way-1297659865","lat":25.063605,"lon":121.6636,"name":"水碓街","decorType":"bridge"},{"id":"way-1301433486","lat":25.059531,"lon":121.652746,"name":"南興路","decorType":"bridge"},{"id":"way-1301433488","lat":25.059136,"lon":121.652488,"name":"南興路82巷","decorType":"bridge"},{"id":"way-1301433489","lat":25.059236,"lon":121.652601,"name":"南興路82巷","decorType":"bridge"},{"id":"way-1415861128","lat":25.066632,"lon":121.666231,"name":"捷運南港基隆線","decorType":"bridge"},{"id":"way-1415861129","lat":25.0666,"lon":121.666233,"name":"捷運南港基隆線","decorType":"bridge"},{"id":"way-1424773489","lat":25.068263,"lon":121.655951,"name":"未命名橋樑","decorType":"bridge"},{"id":"way-1424773495","lat":25.069439,"lon":121.6578,"name":"禮門溪","decorType":"waterside"},{"id":"way-1424773496","lat":25.068911,"lon":121.65829,"name":"禮門溪","decorType":"waterside"},{"id":"way-1425281734","lat":25.067628,"lon":121.652639,"name":"未命名橋樑","decorType":"bridge"},{"id":"way-1425281735","lat":25.068268,"lon":121.652508,"name":"未命名橋樑","decorType":"bridge"},{"id":"way-1425281743","lat":25.068212,"lon":121.655232,"name":"智慧溪","decorType":"waterside"},{"id":"way-1425281744","lat":25.067674,"lon":121.655539,"name":"智慧溪","decorType":"waterside"},{"id":"way-1441499679","lat":25.068435,"lon":121.658381,"name":"禮門溪","decorType":"waterside"},{"id":"way-1441499680","lat":25.068355,"lon":121.658425,"name":"禮門溪","decorType":"waterside"},{"id":"way-1441499681","lat":25.068163,"lon":121.658623,"name":"禮門溪","decorType":"waterside"},{"id":"way-1441499682","lat":25.067864,"lon":121.658846,"name":"禮門溪","decorType":"waterside"},{"id":"way-1441499683","lat":25.067971,"lon":121.658914,"name":"禮門溪","decorType":"waterside"},{"id":"way-1441499684","lat":25.068007,"lon":121.658835,"name":"禮門溪","decorType":"waterside"},{"id":"way-1441499685","lat":25.067912,"lon":121.658942,"name":"禮門溪","decorType":"waterside"},{"id":"way-1441499686","lat":25.067883,"lon":121.658902,"name":"禮門溪","decorType":"waterside"},{"id":"way-1441499687","lat":25.06556,"lon":121.656849,"name":"智慧溪","decorType":"waterside"},{"id":"way-1441499688","lat":25.065411,"lon":121.656904,"name":"智慧溪","decorType":"waterside"},{"id":"way-1441499689","lat":25.065384,"lon":121.656922,"name":"智慧溪","decorType":"waterside"},{"id":"way-1452442795","lat":25.06248,"lon":121.658698,"name":"智慧溪","decorType":"waterside"},{"id":"way-1452442796","lat":25.060998,"lon":121.659646,"name":"智慧溪","decorType":"waterside"},{"id":"way-1452442797","lat":25.06071,"lon":121.659642,"name":"智慧溪","decorType":"waterside"},{"id":"way-1452442798","lat":25.060486,"lon":121.659527,"name":"智慧溪","decorType":"waterside"},{"id":"way-1452442799","lat":25.057555,"lon":121.664953,"name":"智慧溪","decorType":"waterside"},{"id":"way-1452442800","lat":25.057966,"lon":121.662554,"name":"智慧溪","decorType":"waterside"},{"id":"way-1452442801","lat":25.058167,"lon":121.663402,"name":"智慧溪","decorType":"waterside"},{"id":"way-1452442802","lat":25.057919,"lon":121.664239,"name":"智慧溪","decorType":"waterside"},{"id":"way-1452687767","lat":25.066829,"lon":121.661047,"name":"禮門溪","decorType":"waterside"},{"id":"way-1452687768","lat":25.06609,"lon":121.661619,"name":"禮門溪","decorType":"waterside"},{"id":"way-1452687769","lat":25.063901,"lon":121.663008,"name":"禮門溪","decorType":"waterside"}]}