{"bbox":{"south":25.0543375,"north":25.06994375,"west":121.49609375,"east":121.509125},"pois":[{"id":"node-1942197448","lat":25.0566959,"lon":121.5072858,"name":"大稻埕碼頭","decorType":"station"},{"id":"node-2498534021","lat":25.0629337,"lon":121.5002113,"name":"出口 (重新路一段)","decorType":"station"},{"id":"node-2569328565","lat":25.0561681,"lon":121.5089148,"name":"未命名郵局","decorType":"post_office"},{"id":"node-2713414697","lat":25.0636165,"lon":121.5019324,"name":"三重派出所(重新路)","decorType":"bus_stop"},{"id":"node-2713414698","lat":25.0636798,"lon":121.5016381,"name":"三重派出所(重新路)","decorType":"bus_stop"},{"id":"node-2713415574","lat":25.0630136,"lon":121.5003329,"name":"捷運台北橋站","decorType":"bus_stop"},{"id":"node-2713415575","lat":25.0631863,"lon":121.5002805,"name":"捷運台北橋站","decorType":"bus_stop"},{"id":"node-2713416313","lat":25.0619478,"lon":121.4969152,"name":"天台廣場","decorType":"bus_stop"},{"id":"node-2713416314","lat":25.0623125,"lon":121.4983886,"name":"天台廣場","decorType":"bus_stop"},{"id":"node-3188319810","lat":25.0657213,"lon":121.4969575,"name":"長元西街口","decorType":"bus_stop"},{"id":"node-3188319811","lat":25.0651255,"lon":121.4969137,"name":"長元西街口","decorType":"bus_stop"},{"id":"node-3188319812","lat":25.0611492,"lon":121.4980345,"name":"三重郵局","decorType":"bus_stop"},{"id":"node-3188319827","lat":25.0596958,"lon":121.4983497,"name":"光興國小","decorType":"bus_stop"},{"id":"node-3188319851","lat":25.0570829,"lon":121.5000709,"name":"天后宮","decorType":"bus_stop"},{"id":"node-3188323164","lat":25.0576449,"lon":121.4988045,"name":"正義南路底","decorType":"bus_stop"},{"id":"node-3188323165","lat":25.06281,"lon":121.4976064,"name":"正義重新路口","decorType":"bus_stop"},{"id":"node-3188323166","lat":25.0633647,"lon":121.4975971,"name":"正義重新路口","decorType":"bus_stop"},{"id":"node-3188323178","lat":25.0624407,"lon":121.5029942,"name":"福德南路","decorType":"bus_stop"},{"id":"node-3188323192","lat":25.0670285,"lon":121.4965361,"name":"長壽西街口","decorType":"bus_stop"},{"id":"node-3188323193","lat":25.067079,"lon":121.496388,"name":"長壽西街口","decorType":"bus_stop"},{"id":"node-3419699341","lat":25.056729,"lon":121.5079287,"name":"大稻埕碼頭","decorType":"bus_stop"},{"id":"node-3419699344","lat":25.0565212,"lon":121.5090326,"name":"民生西寧路口","decorType":"bus_stop"},{"id":"node-3720428324","lat":25.0634467,"lon":121.4976464,"name":"New Balance","decorType":"clothing"},{"id":"node-3720429026","lat":25.0642996,"lon":121.4974049,"name":"Skechers","decorType":"clothing"},{"id":"node-3720429027","lat":25.062839,"lon":121.4978307,"name":"Giordano","decorType":"clothing"},{"id":"node-3720429028","lat":25.0634001,"lon":121.4976592,"name":"曼都髮型","decorType":"hair_salon"},{"id":"node-3720429029","lat":25.0636181,"lon":121.4973266,"name":"Nike","decorType":"clothing"},{"id":"node-3720429031","lat":25.0629011,"lon":121.4975348,"name":"能量小姐","decorType":"restaurant"},{"id":"node-3720429032","lat":25.0633532,"lon":121.4976725,"name":"So Nice","decorType":"clothing"},{"id":"node-3720429033","lat":25.0637018,"lon":121.4975697,"name":"MOMA","decorType":"clothing"},{"id":"node-3720429036","lat":25.0631096,"lon":121.497481,"name":"Xiaomi","decorType":"electronics"},{"id":"node-3720429037","lat":25.0693522,"lon":121.4980229,"name":"三重國小","decorType":"bus_stop"},{"id":"node-3720429038","lat":25.0695327,"lon":121.4981774,"name":"三重國小","decorType":"bus_stop"},{"id":"node-3720429041","lat":25.0634891,"lon":121.4973644,"name":"五燈獎豬腳飯","decorType":"restaurant"},{"id":"node-3720429048","lat":25.0694338,"lon":121.4984273,"name":"全聯福利中心","decorType":"supermarket"},{"id":"node-3720429049","lat":25.0641405,"lon":121.4971579,"name":"大樹藥局","decorType":"pharmacy"},{"id":"node-3720429053","lat":25.0629757,"lon":121.4977913,"name":"小林髮郎","decorType":"hair_salon"},{"id":"node-3720429059","lat":25.0631647,"lon":121.4977393,"name":"日藥本鋪","decorType":"pharmacy"},{"id":"node-3720429062","lat":25.0628821,"lon":121.4978176,"name":"德克士脆皮炸雞","decorType":"burger"},{"id":"node-3720429073","lat":25.0639673,"lon":121.4972262,"name":"第九站精緻鍋品","decorType":"restaurant"},{"id":"node-3720429187","lat":25.0646245,"lon":121.4973208,"name":"寶雅","decorType":"pharmacy"},{"id":"node-3720429188","lat":25.0642411,"lon":121.4974205,"name":"義美食品","decorType":"supermarket"},{"id":"node-3720429190","lat":25.0629913,"lon":121.4977874,"name":"華歌爾","decorType":"clothing"},{"id":"node-3720429194","lat":25.0634936,"lon":121.4976319,"name":"阿瘦皮鞋","decorType":"clothing"},{"id":"node-3720429195","lat":25.0627749,"lon":121.4975742,"name":"7-Eleven","decorType":"convenience"},{"id":"node-3720429196","lat":25.0629304,"lon":121.4978061,"name":"麥當勞","decorType":"burger"},{"id":"node-3720429197","lat":25.0638891,"lon":121.497521,"name":"黛安芬","decorType":"clothing"},{"id":"node-3720429198","lat":25.0641699,"lon":121.4974416,"name":"7-Eleven","decorType":"convenience"},{"id":"node-3720461300","lat":25.0645658,"lon":121.5022736,"name":"三重派出所 (福德北路)","decorType":"bus_stop"},{"id":"node-3720461301","lat":25.0654241,"lon":121.5021333,"name":"三重派出所 (福德北路)","decorType":"bus_stop"},{"id":"node-3720461310","lat":25.0679591,"lon":121.4997406,"name":"萊爾富","decorType":"convenience"},{"id":"node-3720461311","lat":25.0682893,"lon":121.4995202,"name":"三和長榮路口","decorType":"bus_stop"},{"id":"node-3720461312","lat":25.0684426,"lon":121.4996155,"name":"三和長榮路口","decorType":"bus_stop"},{"id":"node-3720461313","lat":25.0669639,"lon":121.5012528,"name":"長生街口","decorType":"bus_stop"},{"id":"node-3720461314","lat":25.0671143,"lon":121.5008183,"name":"長生街口","decorType":"bus_stop"},{"id":"node-3779252951","lat":25.0631779,"lon":121.5005513,"name":"台北橋","decorType":"station"},{"id":"node-3835257358","lat":25.0623645,"lon":121.5088544,"name":"李亭香餅店","decorType":"bakery"},{"id":"node-4127278389","lat":25.0689826,"lon":121.4990437,"name":"7-Eleven","decorType":"convenience"},{"id":"node-4243080390","lat":25.0666977,"lon":121.501517,"name":"神鶴鐵板燒","decorType":"restaurant"},{"id":"node-4260027890","lat":25.0631256,"lon":121.4996877,"name":"Hey Bear Capsule Hotel","decorType":"hotel"},{"id":"node-4294351426","lat":25.0655139,"lon":121.5004775,"name":"全家便利商店","decorType":"convenience"},{"id":"node-4294351453","lat":25.0655127,"lon":121.4989237,"name":"茶湯會","decorType":"cafe"},{"id":"node-4294351455","lat":25.0647227,"lon":121.4990414,"name":"7-Eleven","decorType":"convenience"},{"id":"node-4325606023","lat":25.0686298,"lon":121.4961597,"name":"必勝客","decorType":"restaurant"},{"id":"node-4325606047","lat":25.0671174,"lon":121.4963178,"name":"7-Eleven","decorType":"convenience"},{"id":"node-4326924100","lat":25.0691289,"lon":121.4989977,"name":"三重介壽路郵局 (三重7支)","decorType":"post_office"},{"id":"node-4384739541","lat":25.0666962,"lon":121.4967645,"name":"全國電子","decorType":"electronics"},{"id":"node-4423130976","lat":25.0675715,"lon":121.4965214,"name":"摩斯漢堡","decorType":"burger"},{"id":"node-4423130977","lat":25.0676395,"lon":121.4964946,"name":"屈臣氏","decorType":"pharmacy"},{"id":"node-4423130978","lat":25.0677027,"lon":121.4964678,"name":"神戶牛排館","decorType":"restaurant"},{"id":"node-4436175212","lat":25.0604005,"lon":121.4980938,"name":"沃客商旅-正義館","decorType":"hotel"},{"id":"node-4436175213","lat":25.0603495,"lon":121.4978588,"name":"御品川麻辣串串鍋","decorType":"restaurant"},{"id":"node-4436175214","lat":25.0602037,"lon":121.4981457,"name":"7-Eleven","decorType":"convenience"},{"id":"node-4436209402","lat":25.0570475,"lon":121.4965515,"name":"萊爾富","decorType":"convenience"},{"id":"node-4436209403","lat":25.0562845,"lon":121.4969304,"name":"7-Eleven","decorType":"convenience"},{"id":"node-4452770293","lat":25.0629587,"lon":121.4995409,"name":"肯德基","decorType":"burger"},{"id":"node-4452998475","lat":25.0615148,"lon":121.4981382,"name":"三重正義郵局(三重1支)","decorType":"post_office"},{"id":"node-4453014110","lat":25.0632197,"lon":121.5009833,"name":"摩斯漢堡","decorType":"burger"},{"id":"node-4453014119","lat":25.0633223,"lon":121.5012956,"name":"85度C","decorType":"cafe"},{"id":"node-4453014120","lat":25.0636475,"lon":121.5010663,"name":"萊爾富","decorType":"convenience"},{"id":"node-4453014125","lat":25.0618645,"lon":121.500103,"name":"荳荳早餐店","decorType":"restaurant"},{"id":"node-4707097891","lat":25.0625898,"lon":121.5090111,"name":"豐舍","decorType":"restaurant"},{"id":"node-4838087722","lat":25.0583984,"lon":121.5088579,"name":"電腦商行","decorType":"electronics"},{"id":"node-4838087726","lat":25.0621688,"lon":121.5090956,"name":"大稻埕花園旅店","decorType":"hotel"},{"id":"node-4880303578","lat":25.0676847,"lon":121.4980319,"name":"全家便利商店","decorType":"convenience"},{"id":"node-4880303583","lat":25.0696396,"lon":121.4980472,"name":"馬師傅修鞋站","decorType":"clothing"},{"id":"node-4897384542","lat":25.0616185,"lon":121.4978956,"name":"7-Eleven","decorType":"convenience"},{"id":"node-4897384543","lat":25.0618513,"lon":121.4977731,"name":"全家便利商店","decorType":"convenience"},{"id":"node-5296714743","lat":25.062364,"lon":121.5000021,"name":"7-Eleven","decorType":"convenience"},{"id":"node-5570659591","lat":25.0658749,"lon":121.4988033,"name":"7-Eleven","decorType":"convenience"},{"id":"node-6024236723","lat":25.0683487,"lon":121.4997466,"name":"口福壽司","decorType":"restaurant"},{"id":"node-6024236724","lat":25.0687151,"lon":121.4993388,"name":"郭錢橋日式刷刷鍋","decorType":"restaurant"},{"id":"node-6024244349","lat":25.069768,"lon":121.4978412,"name":"春米鐵板吐司","decorType":"restaurant"},{"id":"node-6024254205","lat":25.0698036,"lon":121.497929,"name":"北港躼腳羊肉店","decorType":"restaurant"},{"id":"node-6024254207","lat":25.0690528,"lon":121.4988883,"name":"中島甜不辣","decorType":"restaurant"},{"id":"node-6024278385","lat":25.0693029,"lon":121.4975203,"name":"美廉社","decorType":"supermarket"},{"id":"node-6139877686","lat":25.0684418,"lon":121.4993111,"name":"路易莎咖啡","decorType":"cafe"},{"id":"node-6144633989","lat":25.0573082,"lon":121.5088645,"name":"威輪單車咖啡","decorType":"cafe"},{"id":"node-6188986704","lat":25.0688221,"lon":121.5009799,"name":"全家便利商店","decorType":"convenience"},{"id":"node-6188986705","lat":25.0694147,"lon":121.5008057,"name":"億親烘焙坊","decorType":"bakery"},{"id":"node-6188986706","lat":25.067874,"lon":121.50026,"name":"八方雲集","decorType":"burger"},{"id":"node-6188986707","lat":25.0673676,"lon":121.5013877,"name":"7-Eleven","decorType":"convenience"},{"id":"node-6188986708","lat":25.0678332,"lon":121.5003851,"name":"悅來涮涮鍋","decorType":"restaurant"},{"id":"node-6188986709","lat":25.0676909,"lon":121.5006485,"name":"三和旅舍","decorType":"hotel"},{"id":"node-6188989812","lat":25.0676139,"lon":121.5002195,"name":"NET","decorType":"clothing"},{"id":"node-6188989813","lat":25.0667112,"lon":121.5011979,"name":"7-Eleven","decorType":"convenience"},{"id":"node-6188989814","lat":25.0654515,"lon":121.5021793,"name":"7-Eleven","decorType":"convenience"},{"id":"node-6188996221","lat":25.0653924,"lon":121.5019617,"name":"金島甜不辣","decorType":"restaurant"},{"id":"node-6188996222","lat":25.0651749,"lon":121.5020176,"name":"桶一天下現滷滷味","decorType":"restaurant"},{"id":"node-6188996223","lat":25.0644395,"lon":121.5024743,"name":"蛋營養古早味蛋糕","decorType":"bakery"},{"id":"node-6188996224","lat":25.0646825,"lon":121.5021817,"name":"弘爺漢堡","decorType":"burger"},{"id":"node-6188996225","lat":25.0652307,"lon":121.5022364,"name":"Subway","decorType":"burger"},{"id":"node-6188996226","lat":25.06611,"lon":121.5020288,"name":"真永和北平烤鴨","decorType":"restaurant"},{"id":"node-6384892892","lat":25.0556098,"lon":121.5090985,"name":"香手捻咖啡","decorType":"cafe"},{"id":"node-6720844013","lat":25.0547929,"lon":121.5089866,"name":"為什麼手工窯烤披薩","decorType":"restaurant"},{"id":"node-6720844036","lat":25.0621285,"lon":121.5090619,"name":"D.G.Cafe","decorType":"cafe"},{"id":"node-6779509366","lat":25.0561095,"lon":121.5000976,"name":"忠孝碼頭","decorType":"station"},{"id":"node-6894204663","lat":25.0635688,"lon":121.502789,"name":"未命名郵局","decorType":"post_office"},{"id":"node-6894204669","lat":25.0620722,"lon":121.500037,"name":"美廉社","decorType":"supermarket"},{"id":"node-6894204670","lat":25.0625326,"lon":121.5001121,"name":"綠堤Coffee","decorType":"cafe"},{"id":"node-6894204675","lat":25.0624852,"lon":121.5012306,"name":"美廉社","decorType":"supermarket"},{"id":"node-6894204678","lat":25.0611428,"lon":121.501535,"name":"萊爾富","decorType":"convenience"},{"id":"node-6894204679","lat":25.0615218,"lon":121.5015256,"name":"鴨肉麵","decorType":"restaurant"},{"id":"node-6894204680","lat":25.0619069,"lon":121.5013124,"name":"興富發熱炒","decorType":"restaurant"},{"id":"node-7170215703","lat":25.063196,"lon":121.5028933,"name":"呷尚寶","decorType":"burger"},{"id":"node-7170215704","lat":25.0630593,"lon":121.502857,"name":"素越美食","decorType":"restaurant"},{"id":"node-7170215705","lat":25.0622904,"lon":121.5030873,"name":"奇萊早餐店","decorType":"restaurant"},{"id":"node-7170215706","lat":25.0624669,"lon":121.5026172,"name":"心妙素食自助餐)","decorType":"restaurant"},{"id":"node-7282086089","lat":25.0641756,"lon":121.4975236,"name":"朱記花枝羹","decorType":"restaurant"},{"id":"node-7365923858","lat":25.0626011,"lon":121.4985936,"name":"益安家電空調照明","decorType":"electronics"},{"id":"node-7365923862","lat":25.0624931,"lon":121.498281,"name":"天仁茗茶","decorType":"cafe"},{"id":"node-7365923863","lat":25.0625759,"lon":121.4985143,"name":"宜品福州乾拌麵","decorType":"restaurant"},{"id":"node-7365923864","lat":25.0625636,"lon":121.4984758,"name":"三商巧福","decorType":"restaurant"},{"id":"node-7365923865","lat":25.0624809,"lon":121.498236,"name":"樂釜極上鍋物","decorType":"restaurant"},{"id":"node-7365923866","lat":25.063601,"lon":121.4997204,"name":"全家便利商店","decorType":"convenience"},{"id":"node-7365923867","lat":25.0658935,"lon":121.4986621,"name":"Lin剪燙染護造型沙龍","decorType":"hair_salon"},{"id":"node-7365923868","lat":25.0661324,"lon":121.4987152,"name":"亂剪髮型沙龍","decorType":"hair_salon"},{"id":"node-7365923869","lat":25.0656692,"lon":121.498742,"name":"阿燕羊肉羹","decorType":"restaurant"},{"id":"node-7365923870","lat":25.0648598,"lon":121.4991324,"name":"素食滷味","decorType":"restaurant"},{"id":"node-7365923871","lat":25.0648792,"lon":121.4991274,"name":"佳弘電器行","decorType":"electronics"},{"id":"node-7365923872","lat":25.0647215,"lon":121.499188,"name":"文化素羹麵","decorType":"restaurant"},{"id":"node-7365923874","lat":25.0646245,"lon":121.4992123,"name":"林記臭豆腐、大腸麵線","decorType":"restaurant"},{"id":"node-7365923875","lat":25.0646607,"lon":121.4992023,"name":"蔡家三絲丸蚵仔煎","decorType":"restaurant"},{"id":"node-7365923876","lat":25.0671968,"lon":121.4982403,"name":"曾記花枝羹","decorType":"restaurant"},{"id":"node-7365923878","lat":25.0671186,"lon":121.498261,"name":"紅燈籠熱炒","decorType":"restaurant"},{"id":"node-7365923882","lat":25.066677,"lon":121.4985333,"name":"大新糙米麩","decorType":"sweetshop"},{"id":"node-7365923884","lat":25.0665843,"lon":121.4985722,"name":"阜囍廣東粥","decorType":"restaurant"},{"id":"node-7365963985","lat":25.0664133,"lon":121.4986246,"name":"澳門氹仔燒臘","decorType":"restaurant"},{"id":"node-7365963986","lat":25.066454,"lon":121.4986128,"name":"鼎記手工肉羹","decorType":"restaurant"},{"id":"node-7365963987","lat":25.0655296,"lon":121.4974624,"name":"蘇梅泰國小館","decorType":"restaurant"},{"id":"node-7365963988","lat":25.0655748,"lon":121.4970249,"name":"吉野家","decorType":"burger"},{"id":"node-7365963996","lat":25.0657027,"lon":121.4967083,"name":"聖美膚藥局","decorType":"pharmacy"},{"id":"node-7365963997","lat":25.0657144,"lon":121.49699,"name":"FIVE PENCE","decorType":"clothing"},{"id":"node-7365964001","lat":25.0661965,"lon":121.496573,"name":"大同3C","decorType":"electronics"},{"id":"node-7365964002","lat":25.0659657,"lon":121.4966348,"name":"星巴克","decorType":"cafe"},{"id":"node-7365964005","lat":25.0667281,"lon":121.4985183,"name":"壽司、甜不辣","decorType":"restaurant"},{"id":"node-7365964006","lat":25.0666222,"lon":121.4985494,"name":"二哥串烤","decorType":"restaurant"},{"id":"node-7365964007","lat":25.0666729,"lon":121.4984038,"name":"阿婆甜不辣","decorType":"restaurant"},{"id":"node-7365964010","lat":25.0673549,"lon":121.4983162,"name":"CoCo都可","decorType":"cafe"},{"id":"node-7365964011","lat":25.0673796,"lon":121.4983096,"name":"義軒刨冰","decorType":"cafe"},{"id":"node-7365964012","lat":25.067197,"lon":121.498361,"name":"世洲排骨飯","decorType":"restaurant"},{"id":"node-7365964017","lat":25.0640269,"lon":121.4972049,"name":"漢堡王","decorType":"burger"},{"id":"node-7365964018","lat":25.0659971,"lon":121.498769,"name":"真耶穌教會三重教會","decorType":"shrine"},{"id":"node-7365964019","lat":25.066403,"lon":121.4985006,"name":"萊爾富","decorType":"convenience"},{"id":"node-7365964020","lat":25.0644457,"lon":121.499156,"name":"一嘴鍋燒麵","decorType":"restaurant"},{"id":"node-7365964021","lat":25.0644623,"lon":121.4991266,"name":"唯寧記麻辣鴨血豆腐","decorType":"restaurant"},{"id":"node-7365964025","lat":25.0655821,"lon":121.4987687,"name":"水煎包小籠包","decorType":"restaurant"},{"id":"node-7365964026","lat":25.0661909,"lon":121.4985651,"name":"清心福全","decorType":"cafe"},{"id":"node-7365964027","lat":25.0660287,"lon":121.4986161,"name":"手作羮，赤肉羮","decorType":"restaurant"},{"id":"node-7365964028","lat":25.0660956,"lon":121.4987104,"name":"兄妹豆花","decorType":"cafe"},{"id":"node-7365964029","lat":25.0661924,"lon":121.4986988,"name":"佳奇鐵板燒","decorType":"restaurant"},{"id":"node-7365964030","lat":25.0663039,"lon":121.4985479,"name":"万丹紅豆餅","decorType":"sweetshop"},{"id":"node-7365964031","lat":25.0662872,"lon":121.4985365,"name":"寶神日式涮涮鍋","decorType":"restaurant"},{"id":"node-7365964032","lat":25.0663519,"lon":121.4985156,"name":"豪美精緻自助餐","decorType":"restaurant"},{"id":"node-7365964033","lat":25.0665142,"lon":121.4985939,"name":"鐵板城平價鐵板燒便當","decorType":"restaurant"},{"id":"node-7365964034","lat":25.0668421,"lon":121.4984939,"name":"三顧茅廬麻辣滷味","decorType":"restaurant"},{"id":"node-7365964035","lat":25.0672086,"lon":121.4976414,"name":"三重埔基督長老教會","decorType":"shrine"},{"id":"node-7365964037","lat":25.0667361,"lon":121.4970094,"name":"佳瑪生活百貨","decorType":"pharmacy"},{"id":"node-7365964038","lat":25.065935,"lon":121.4969367,"name":"1985窯烤披薩","decorType":"restaurant"},{"id":"node-7365964040","lat":25.0653317,"lon":121.4970913,"name":"瓦城泰國料理","decorType":"restaurant"},{"id":"node-7365964041","lat":25.06519,"lon":121.4968589,"name":"正義豆漿店","decorType":"restaurant"},{"id":"node-7365964042","lat":25.0657154,"lon":121.4967489,"name":"正義北路","decorType":"bus_stop"},{"id":"node-7365964043","lat":25.0658441,"lon":121.4986755,"name":"中華飯包","decorType":"restaurant"},{"id":"node-7365964044","lat":25.0659523,"lon":121.4986436,"name":"三重知高飯","decorType":"restaurant"},{"id":"node-7365964045","lat":25.0657937,"lon":121.4986825,"name":"佳鄉牛排","decorType":"restaurant"},{"id":"node-7365964047","lat":25.065425,"lon":121.4989556,"name":"香Q彰化肉圓大腸麵線香酥臭豆腐","decorType":"restaurant"},{"id":"node-7365964048","lat":25.0649464,"lon":121.4991029,"name":"金騰三重老牌油飯四神湯","decorType":"restaurant"},{"id":"node-7365964049","lat":25.0663673,"lon":121.498643,"name":"50嵐","decorType":"cafe"},{"id":"node-7365964050","lat":25.0662838,"lon":121.4986691,"name":"小林健保藥局","decorType":"pharmacy"},{"id":"node-7365964051","lat":25.0655962,"lon":121.4988947,"name":"好品味牛排","decorType":"restaurant"},{"id":"node-7365964052","lat":25.0653038,"lon":121.4989922,"name":"信義公園豬血湯","decorType":"restaurant"},{"id":"node-7365964053","lat":25.0653514,"lon":121.4989788,"name":"土庫鴨肉富","decorType":"restaurant"},{"id":"node-7365964054","lat":25.0653914,"lon":121.4989643,"name":"店小二","decorType":"restaurant"},{"id":"node-7365964055","lat":25.065229,"lon":121.4990188,"name":"享味清粥","decorType":"restaurant"},{"id":"node-7365964057","lat":25.0650793,"lon":121.4990663,"name":"妙音素食","decorType":"restaurant"},{"id":"node-7365964058","lat":25.0650331,"lon":121.4990791,"name":"滿佶養生食堂","decorType":"restaurant"},{"id":"node-7368540615","lat":25.0661868,"lon":121.5002677,"name":"萊爾富","decorType":"convenience"},{"id":"node-7368540623","lat":25.0665311,"lon":121.4984538,"name":"翟家家常紅燒牛肉麵","decorType":"restaurant"},{"id":"node-7368540627","lat":25.0653352,"lon":121.5019783,"name":"泉興五金行","decorType":"hardware"},{"id":"node-7368540628","lat":25.0664517,"lon":121.5018266,"name":"福安宮","decorType":"shrine"},{"id":"node-7368540682","lat":25.0687627,"lon":121.4988995,"name":"牛井","decorType":"restaurant"},{"id":"node-7368540683","lat":25.0682544,"lon":121.499547,"name":"驊珍食品","decorType":"bakery"},{"id":"node-7368631788","lat":25.0634124,"lon":121.5015065,"name":"肉多多火鍋","decorType":"restaurant"},{"id":"node-7368631789","lat":25.0637195,"lon":121.5016487,"name":"傑昇通信","decorType":"electronics"},{"id":"node-7368631796","lat":25.0637909,"lon":121.4975514,"name":"La new","decorType":"clothing"},{"id":"node-7368631797","lat":25.0639427,"lon":121.4975092,"name":"三槍","decorType":"clothing"},{"id":"node-7368631798","lat":25.0635858,"lon":121.4976049,"name":"Roots","decorType":"clothing"},{"id":"node-7368631799","lat":25.0636303,"lon":121.4975924,"name":"MO-BO","decorType":"clothing"},{"id":"node-7368631802","lat":25.0630545,"lon":121.4974989,"name":"可不可熟成紅茶","decorType":"cafe"},{"id":"node-7368631807","lat":25.0627757,"lon":121.499812,"name":"NET","decorType":"clothing"},{"id":"node-7368631808","lat":25.0623925,"lon":121.4976724,"name":"興豐通訊","decorType":"electronics"},{"id":"node-7368631809","lat":25.0624307,"lon":121.4976616,"name":"寧夏鄭記台南碗粿","decorType":"restaurant"},{"id":"node-7368631810","lat":25.0623494,"lon":121.4976811,"name":"里約歐義廚房","decorType":"restaurant"},{"id":"node-7368631812","lat":25.0622566,"lon":121.4976178,"name":"滋味多健康素食","decorType":"restaurant"},{"id":"node-7368631814","lat":25.0616766,"lon":121.4977978,"name":"全聯福利中心","decorType":"supermarket"},{"id":"node-7368631815","lat":25.0617246,"lon":121.4977919,"name":"康是美","decorType":"pharmacy"},{"id":"node-7368631816","lat":25.0619538,"lon":121.4980762,"name":"旺角石頭火鍋店","decorType":"restaurant"},{"id":"node-7368631821","lat":25.0622069,"lon":121.4981692,"name":"大賞平價鐵板燒","decorType":"restaurant"},{"id":"node-7368631823","lat":25.0622383,"lon":121.4982643,"name":"倉津鍋物","decorType":"restaurant"},{"id":"node-7368631824","lat":25.0622544,"lon":121.4983119,"name":"台灣大哥大","decorType":"electronics"},{"id":"node-7368631825","lat":25.0622686,"lon":121.4983557,"name":"Rosa羅撒蛋糕","decorType":"bakery"},{"id":"node-7368631826","lat":25.0622809,"lon":121.4983968,"name":"SCONA蘇格南皮鞋","decorType":"clothing"},{"id":"node-7368631828","lat":25.0624689,"lon":121.4989222,"name":"西維亞創意造型沙龍","decorType":"hair_salon"},{"id":"node-7368631829","lat":25.0627421,"lon":121.4989654,"name":"康是美","decorType":"pharmacy"},{"id":"node-7368631831","lat":25.0626275,"lon":121.4993557,"name":"麗的美容百貨","decorType":"pharmacy"},{"id":"node-7368631833","lat":25.0642037,"lon":121.4993703,"name":"普羅鐵板燒","decorType":"restaurant"},{"id":"node-7368631834","lat":25.0639271,"lon":121.4993638,"name":"圓泰式料理","decorType":"restaurant"},{"id":"node-7368631836","lat":25.0638233,"lon":121.4994238,"name":"御鼎極品豬腳","decorType":"restaurant"},{"id":"node-7368631837","lat":25.0637787,"lon":121.4994535,"name":"巨林美而美","decorType":"burger"},{"id":"node-7368631839","lat":25.0634756,"lon":121.4997616,"name":"祥毫五金行","decorType":"hardware"},{"id":"node-7368631840","lat":25.0635334,"lon":121.4995481,"name":"ONEHair時尚美髮造型","decorType":"hair_salon"},{"id":"node-7368631841","lat":25.0635461,"lon":121.4997232,"name":"加慕秀","decorType":"hair_salon"},{"id":"node-7368631842","lat":25.0632621,"lon":121.4998524,"name":"ONEHair時尚美髮造型","decorType":"hair_salon"},{"id":"node-7368631849","lat":25.0626899,"lon":121.4995301,"name":"路易莎咖啡LOUISA COFFEE","decorType":"cafe"},{"id":"node-7368631850","lat":25.0627127,"lon":121.4995955,"name":"二鬼麵舖","decorType":"restaurant"},{"id":"node-7368631853","lat":25.0633908,"lon":121.5007601,"name":"驊珍食品","decorType":"bakery"},{"id":"node-7368631854","lat":25.0634107,"lon":121.5008157,"name":"胖老爹美式炸雞","decorType":"burger"},{"id":"node-7368631855","lat":25.0634301,"lon":121.5008733,"name":"鴻泰健保藥局","decorType":"pharmacy"},{"id":"node-7368631859","lat":25.0631757,"lon":121.5002095,"name":"台灣大哥大","decorType":"electronics"},{"id":"node-7368631861","lat":25.0631482,"lon":121.5001215,"name":"臻曜藥局","decorType":"pharmacy"},{"id":"node-7368631863","lat":25.063205,"lon":121.4998782,"name":"歐家莊","decorType":"restaurant"},{"id":"node-7368631864","lat":25.0638972,"lon":121.49938,"name":"小火龍肉羹","decorType":"restaurant"},{"id":"node-7368631865","lat":25.0637389,"lon":121.5002257,"name":"慈惠宮","decorType":"shrine"},{"id":"node-7368631868","lat":25.0644035,"lon":121.499041,"name":"上紅小火鍋","decorType":"restaurant"},{"id":"node-7368631869","lat":25.0638529,"lon":121.499559,"name":"美而佳早餐店","decorType":"restaurant"},{"id":"node-7368631870","lat":25.0639247,"lon":121.4995198,"name":"泰品泰式料理","decorType":"restaurant"},{"id":"node-7368631871","lat":25.063729,"lon":121.4994764,"name":"鶴大眾化日本料理","decorType":"restaurant"},{"id":"node-7368631872","lat":25.0635119,"lon":121.499742,"name":"西町日本料理","decorType":"restaurant"},{"id":"node-7368631873","lat":25.0634436,"lon":121.4995767,"name":"精緻西點歐式麵包12元起","decorType":"bakery"},{"id":"node-7368631874","lat":25.063399,"lon":121.4995922,"name":"Duke's Pizza","decorType":"restaurant"},{"id":"node-7368631875","lat":25.0633568,"lon":121.4996065,"name":"日式威廉","decorType":"hair_salon"},{"id":"node-7368631876","lat":25.063256,"lon":121.4996337,"name":"重農超市","decorType":"supermarket"},{"id":"node-7368962857","lat":25.064305,"lon":121.4964978,"name":"吉坊素食烘焙","decorType":"bakery"},{"id":"node-7368962861","lat":25.0666223,"lon":121.498417,"name":"周式燒麻糬","decorType":"cafe"},{"id":"node-7368962862","lat":25.0667613,"lon":121.498374,"name":"水餃、牛肉麵","decorType":"restaurant"},{"id":"node-7368962863","lat":25.0667869,"lon":121.4983673,"name":"排行榜無骨鹽酥雞","decorType":"restaurant"},{"id":"node-7368962865","lat":25.0668227,"lon":121.4983566,"name":"穗安藥房","decorType":"pharmacy"},{"id":"node-7368962868","lat":25.0650424,"lon":121.4980052,"name":"三重老牌甜不辣專賣店","decorType":"restaurant"},{"id":"node-7368962869","lat":25.0644939,"lon":121.499119,"name":"北港生炒羊肉","decorType":"restaurant"},{"id":"node-7416497184","lat":25.0671756,"lon":121.4979422,"name":"7-Eleven","decorType":"convenience"},{"id":"node-7441633141","lat":25.0607342,"lon":121.4983364,"name":"福地涼麵","decorType":"restaurant"},{"id":"node-7441633142","lat":25.0618607,"lon":121.4982356,"name":"Koon coffee 㒭咖啡","decorType":"cafe"},{"id":"node-7746425817","lat":25.0679357,"lon":121.4998762,"name":"雙城美食 麻油雞","decorType":"restaurant"},{"id":"node-7746425818","lat":25.0674028,"lon":121.5004528,"name":"益昌豆漿","decorType":"restaurant"},{"id":"node-7746425819","lat":25.067274,"lon":121.50043,"name":"林傳統豆花","decorType":"restaurant"},{"id":"node-7746425820","lat":25.0673092,"lon":121.5004943,"name":"素食","decorType":"restaurant"},{"id":"node-7746425821","lat":25.0668087,"lon":121.5014157,"name":"大呼過癮","decorType":"restaurant"},{"id":"node-7746425822","lat":25.066496,"lon":121.5017633,"name":"嘎嘎","decorType":"restaurant"},{"id":"node-7746425823","lat":25.0663798,"lon":121.5020256,"name":"101鵝肉海鮮","decorType":"restaurant"},{"id":"node-7746425826","lat":25.0650211,"lon":121.5020677,"name":"未命名餐廳","decorType":"restaurant"},{"id":"node-7746425827","lat":25.0648708,"lon":121.5020942,"name":"未命名餐廳","decorType":"restaurant"},{"id":"node-7749782420","lat":25.0629002,"lon":121.5090671,"name":"東方饌黔天下","decorType":"restaurant"},{"id":"node-7800500960","lat":25.0622444,"lon":121.5087401,"name":"無口小廚","decorType":"restaurant"},{"id":"node-7803246842","lat":25.0629505,"lon":121.5010656,"name":"美式早餐屋","decorType":"restaurant"},{"id":"node-7803246843","lat":25.0626844,"lon":121.5011729,"name":"三和麵店","decorType":"restaurant"},{"id":"node-7803246844","lat":25.0638397,"lon":121.4989749,"name":"和源町食堂","decorType":"restaurant"},{"id":"node-7803246845","lat":25.063029,"lon":121.4998212,"name":"福州葱油餅","decorType":"restaurant"},{"id":"node-7820617678","lat":25.0611706,"lon":121.4979979,"name":"牛家莊原汁牛肉麵","decorType":"restaurant"},{"id":"node-7820702190","lat":25.0668478,"lon":121.5000775,"name":"小楊招牌脆腸","decorType":"restaurant"},{"id":"node-7820702197","lat":25.0603102,"lon":121.4984346,"name":"蘭陽鍋物","decorType":"restaurant"},{"id":"node-7820702202","lat":25.0649531,"lon":121.5011105,"name":"早安美芝城","decorType":"burger"},{"id":"node-7820702209","lat":25.0672843,"lon":121.5010971,"name":"松葉涮涮鍋壽喜鍋","decorType":"restaurant"},{"id":"node-7820702218","lat":25.0675892,"lon":121.5016854,"name":"Station 1993","decorType":"restaurant"},{"id":"node-7820702226","lat":25.0616724,"lon":121.5015457,"name":"哈姆蛋","decorType":"restaurant"},{"id":"node-7820702228","lat":25.0661469,"lon":121.5002488,"name":"双保明小籠湯包","decorType":"restaurant"},{"id":"node-7820702232","lat":25.0605526,"lon":121.4983921,"name":"得意圓滿火鍋","decorType":"restaurant"},{"id":"node-7820702236","lat":25.0685889,"lon":121.5028171,"name":"南洋炒泡麵","decorType":"restaurant"},{"id":"node-7820702240","lat":25.0651422,"lon":121.5007453,"name":"武大郎蔥仔餅","decorType":"restaurant"},{"id":"node-7820702255","lat":25.0644082,"lon":121.500906,"name":"大阪燒","decorType":"restaurant"},{"id":"node-7820702264","lat":25.0612147,"lon":121.4982156,"name":"食客餓餓義大利麵料理","decorType":"restaurant"},{"id":"node-7820702268","lat":25.067574,"lon":121.5020327,"name":"金展","decorType":"restaurant"},{"id":"node-7820702269","lat":25.0598171,"lon":121.4968494,"name":"皇家吉利堡","decorType":"restaurant"},{"id":"node-7820702279","lat":25.0645871,"lon":121.500974,"name":"台北橋三和夜市蝦仁羹","decorType":"restaurant"},{"id":"node-7820702297","lat":25.0660425,"lon":121.5004652,"name":"阿文餛飩湯圓","decorType":"restaurant"},{"id":"node-7820702305","lat":25.0651641,"lon":121.5004087,"name":"江南里-素食芋頭粥、麵線","decorType":"restaurant"},{"id":"node-7820702307","lat":25.0649716,"lon":121.5005871,"name":"無雙炭烤玉米","decorType":"restaurant"},{"id":"node-7820702313","lat":25.0661008,"lon":121.500533,"name":"上好大腸麵線","decorType":"restaurant"},{"id":"node-7820702315","lat":25.0610774,"lon":121.4982533,"name":"三重蛋餅大王","decorType":"restaurant"},{"id":"node-7820702316","lat":25.0659418,"lon":121.5004896,"name":"水果風炒冰","decorType":"restaurant"},{"id":"node-7820702317","lat":25.0662545,"lon":121.5006559,"name":"蚵四海小吃","decorType":"restaurant"},{"id":"node-7820702328","lat":25.0615752,"lon":121.5000001,"name":"双魚居食屋","decorType":"restaurant"},{"id":"node-7820702329","lat":25.0689741,"lon":121.5027239,"name":"麥味登","decorType":"restaurant"},{"id":"node-7820702336","lat":25.0651979,"lon":121.5006116,"name":"菜市場豆花","decorType":"restaurant"},{"id":"node-7820702349","lat":25.0601225,"lon":121.4978443,"name":"樂窩雞蛋糕","decorType":"restaurant"},{"id":"node-7820702364","lat":25.0611202,"lon":121.4980233,"name":"懷念切仔麵","decorType":"restaurant"},{"id":"node-7820702372","lat":25.0597363,"lon":121.4965946,"name":"巨林美而美","decorType":"burger"},{"id":"node-7820702383","lat":25.0663044,"lon":121.5002495,"name":"吉市牛排","decorType":"restaurant"},{"id":"node-7820702385","lat":25.0612691,"lon":121.5002301,"name":"喵家帕尼尼","decorType":"restaurant"},{"id":"node-7820702386","lat":25.0659647,"lon":121.5003303,"name":"金英古早味蛋餅","decorType":"restaurant"},{"id":"node-7820702392","lat":25.0616749,"lon":121.5000638,"name":"大吳航乾拌麵雞肉飯","decorType":"restaurant"},{"id":"node-7820702401","lat":25.0601116,"lon":121.4976957,"name":"楓林便當","decorType":"restaurant"},{"id":"node-7820702402","lat":25.0652006,"lon":121.5009425,"name":"林家傳統壽司","decorType":"restaurant"},{"id":"node-7820702411","lat":25.0597539,"lon":121.4967649,"name":"美而美漢堡店","decorType":"restaurant"},{"id":"node-7820702412","lat":25.0686794,"lon":121.5026655,"name":"雅加達漢堡店","decorType":"restaurant"},{"id":"node-7820702413","lat":25.0678394,"lon":121.5027809,"name":"豐味香","decorType":"restaurant"},{"id":"node-7820702419","lat":25.0657057,"lon":121.5005216,"name":"四海泡泡冰","decorType":"restaurant"},{"id":"node-7820702420","lat":25.0677012,"lon":121.5025768,"name":"呷飽堡早餐店","decorType":"restaurant"},{"id":"node-7820702422","lat":25.0612618,"lon":121.4982087,"name":"三重清水排骨酥麵","decorType":"restaurant"},{"id":"node-7820702426","lat":25.066117,"lon":121.5007474,"name":"川野關東煮麻辣燙","decorType":"restaurant"},{"id":"node-7820702440","lat":25.0662387,"lon":121.5005526,"name":"𩵚魠魚羹","decorType":"restaurant"},{"id":"node-7820702442","lat":25.0660144,"lon":121.5002055,"name":"豬肉餡餅 韭菜盒","decorType":"restaurant"},{"id":"node-7820702446","lat":25.0618943,"lon":121.5009854,"name":"逃逸線書室","decorType":"cafe"},{"id":"node-7820702448","lat":25.0616749,"lon":121.5003162,"name":"Yummy Burger","decorType":"restaurant"},{"id":"node-7820702450","lat":25.0660941,"lon":121.5004773,"name":"長元日本料理","decorType":"restaurant"},{"id":"node-7820702456","lat":25.0598608,"lon":121.4962922,"name":"吉祥素食","decorType":"restaurant"},{"id":"node-7820702458","lat":25.0616001,"lon":121.500155,"name":"禾田屋","decorType":"bakery"},{"id":"node-7820702469","lat":25.0661348,"lon":121.5006584,"name":"古早味四十年老店","decorType":"restaurant"},{"id":"node-7820702470","lat":25.0598755,"lon":121.4963492,"name":"光興街早餐店","decorType":"restaurant"},{"id":"node-7820702476","lat":25.0688775,"lon":121.5025093,"name":"早 日子","decorType":"restaurant"},{"id":"node-7820702483","lat":25.0661166,"lon":121.500596,"name":"台南鱔魚麵","decorType":"restaurant"},{"id":"node-7820702488","lat":25.0646287,"lon":121.500727,"name":"拿督肉骨茶","decorType":"restaurant"},{"id":"node-7820702491","lat":25.0597203,"lon":121.4973083,"name":"阿田麵","decorType":"restaurant"},{"id":"node-7820702492","lat":25.0645273,"lon":121.5007974,"name":"東石鮮蚵","decorType":"restaurant"},{"id":"node-7820702493","lat":25.0608308,"lon":121.4981959,"name":"刈包，肉粽","decorType":"restaurant"},{"id":"node-7820702495","lat":25.0611379,"lon":121.5001959,"name":"土司兄弟","decorType":"restaurant"},{"id":"node-7820702499","lat":25.0662795,"lon":121.5007385,"name":"吉市牛排二店","decorType":"restaurant"},{"id":"node-7820702501","lat":25.0672496,"lon":121.5012165,"name":"北港阿宏番麥大王","decorType":"restaurant"},{"id":"node-7820702509","lat":25.0612825,"lon":121.5016188,"name":"東方美","decorType":"restaurant"},{"id":"node-7820702512","lat":25.0651325,"lon":121.5007849,"name":"金本丸","decorType":"restaurant"},{"id":"node-7820702515","lat":25.0612642,"lon":121.5000189,"name":"好滷味鳳爪滷味","decorType":"restaurant"},{"id":"node-7820725897","lat":25.0629869,"lon":121.5011555,"name":"古早味小吃店","decorType":"restaurant"},{"id":"node-7820725898","lat":25.0630501,"lon":121.5011944,"name":"阿卡拉專業炸雞","decorType":"restaurant"},{"id":"node-7820725899","lat":25.0632141,"lon":121.501016,"name":"三重父女雞蛋糕","decorType":"restaurant"},{"id":"node-7820725901","lat":25.0643099,"lon":121.4963248,"name":"天亮了","decorType":"restaurant"},{"id":"node-7820725902","lat":25.0643463,"lon":121.4968345,"name":"畢斯特美味廚房","decorType":"restaurant"},{"id":"node-7820725903","lat":25.0659463,"lon":121.4971555,"name":"李記排骨麵","decorType":"restaurant"},{"id":"node-7820725905","lat":25.0646446,"lon":121.4978094,"name":"美之品滷味","decorType":"restaurant"},{"id":"node-7820725906","lat":25.0646306,"lon":121.497729,"name":"鱻味食堂","decorType":"restaurant"},{"id":"node-7820725907","lat":25.0645127,"lon":121.4977256,"name":"大眼妹","decorType":"restaurant"},{"id":"node-7820725908","lat":25.0645364,"lon":121.4978577,"name":"小蘋果早餐店","decorType":"restaurant"},{"id":"node-7820725909","lat":25.0645893,"lon":121.4983452,"name":"王將鬆餅","decorType":"restaurant"},{"id":"node-7820725910","lat":25.0646105,"lon":121.4984854,"name":"信義鯊魚煙","decorType":"restaurant"},{"id":"node-7820725911","lat":25.0646154,"lon":121.4985149,"name":"美而美","decorType":"restaurant"},{"id":"node-7820725912","lat":25.0646561,"lon":121.4987717,"name":"麥軒活力站","decorType":"restaurant"},{"id":"node-7820725913","lat":25.0646731,"lon":121.4988642,"name":"米粉湯","decorType":"restaurant"},{"id":"node-7820725914","lat":25.0647077,"lon":121.4989896,"name":"三重佳興魚丸店","decorType":"restaurant"},{"id":"node-7820748101","lat":25.0667407,"lon":121.5011796,"name":"三重橋頭麵線","decorType":"restaurant"},{"id":"node-7820748102","lat":25.066556,"lon":121.5013325,"name":"厚大雞排","decorType":"restaurant"},{"id":"node-7820748103","lat":25.0659984,"lon":121.501772,"name":"和鳳越南小吃","decorType":"restaurant"},{"id":"node-7836888447","lat":25.0607152,"lon":121.5013982,"name":"早餐店","decorType":"restaurant"},{"id":"node-7836888448","lat":25.0606727,"lon":121.5013982,"name":"元氣早午餐輕食","decorType":"restaurant"},{"id":"node-8014002743","lat":25.0545538,"lon":121.5089192,"name":"牛家莊海產","decorType":"restaurant"},{"id":"node-8014002744","lat":25.0546569,"lon":121.5089344,"name":"7號鬆餅屋","decorType":"restaurant"},{"id":"node-8014002745","lat":25.0546998,"lon":121.5083464,"name":"在她家","decorType":"restaurant"},{"id":"node-8059101002","lat":25.0604297,"lon":121.4979944,"name":"慶城商旅","decorType":"hotel"},{"id":"node-8059101006","lat":25.065202,"lon":121.502479,"name":"名華大旅社","decorType":"hotel"},{"id":"node-8059101015","lat":25.064789,"lon":121.49728,"name":"名爵汽車旅館","decorType":"hotel"},{"id":"node-8059101021","lat":25.067675,"lon":121.500698,"name":"三和旅舍","decorType":"hotel"},{"id":"node-8118279926","lat":25.0687981,"lon":121.5027856,"name":"7-Eleven","decorType":"convenience"},{"id":"node-8385313293","lat":25.0599417,"lon":121.4982886,"name":"八方雲集","decorType":"burger"},{"id":"node-8385313499","lat":25.0618237,"lon":121.4962866,"name":"八方雲集","decorType":"burger"},{"id":"node-8385313703","lat":25.0626527,"lon":121.5000566,"name":"八方雲集","decorType":"burger"},{"id":"node-8775966126","lat":25.0622143,"lon":121.4982735,"name":"Ink Salon","decorType":"hair_salon"},{"id":"node-8775987511","lat":25.0618158,"lon":121.4971469,"name":"屈臣氏","decorType":"pharmacy"},{"id":"node-8775987514","lat":25.0620369,"lon":121.4977531,"name":"紅不讓3C","decorType":"electronics"},{"id":"node-8775987516","lat":25.0628654,"lon":121.4975459,"name":"龜記茗品","decorType":"cafe"},{"id":"node-8776014817","lat":25.0626024,"lon":121.4976244,"name":"鍋藏精緻鍋物","decorType":"restaurant"},{"id":"node-8776014818","lat":25.0625162,"lon":121.4976203,"name":"Birkenstock","decorType":"clothing"},{"id":"node-8776014819","lat":25.0626541,"lon":121.4975613,"name":"影響力豐盛教會","decorType":"shrine"},{"id":"node-8776487264","lat":25.0616202,"lon":121.4965434,"name":"燦坤3C","decorType":"electronics"},{"id":"node-8776487265","lat":25.0618796,"lon":121.4964891,"name":"三重牛乳大王","decorType":"sweetshop"},{"id":"node-8776487267","lat":25.0620661,"lon":121.4970899,"name":"DK","decorType":"clothing"},{"id":"node-8776487268","lat":25.0620078,"lon":121.496929,"name":"廣澤通信","decorType":"electronics"},{"id":"node-8776487269","lat":25.0617296,"lon":121.4969303,"name":"大呼過癮","decorType":"restaurant"},{"id":"node-8776487270","lat":25.0617144,"lon":121.4968747,"name":"燒肉 Smile","decorType":"restaurant"},{"id":"node-8776487274","lat":25.061817,"lon":121.4961733,"name":"美康健保藥局","decorType":"pharmacy"},{"id":"node-9025783917","lat":25.0634406,"lon":121.5016185,"name":"卡比歐咖啡豆專賣店","decorType":"cafe"},{"id":"node-9342491838","lat":25.0616488,"lon":121.5011994,"name":"蝦皮店到店","decorType":"convenience"},{"id":"node-9403349754","lat":25.0630161,"lon":121.4975426,"name":"正義重新路口","decorType":"bus_stop"},{"id":"node-9410333981","lat":25.0670013,"lon":121.5008886,"name":"三媽臭臭鍋","decorType":"restaurant"},{"id":"node-9410410164","lat":25.0692213,"lon":121.4980817,"name":"老咖啡館","decorType":"cafe"},{"id":"node-9410410165","lat":25.0692553,"lon":121.4986517,"name":"7-Eleven","decorType":"convenience"},{"id":"node-9410410182","lat":25.0686115,"lon":121.4994939,"name":"地標網通","decorType":"electronics"},{"id":"node-9410445941","lat":25.0696525,"lon":121.4976076,"name":"開源社","decorType":"restaurant"},{"id":"node-9425953170","lat":25.0609727,"lon":121.4982909,"name":"麥克麵線","decorType":"restaurant"},{"id":"node-9429893502","lat":25.0636636,"lon":121.4972676,"name":"莉米雅手工婚紗攝影工作室","decorType":"clothing"},{"id":"node-9429893503","lat":25.0633842,"lon":121.4980066,"name":"未命名美髮院","decorType":"hair_salon"},{"id":"node-9429893505","lat":25.0643427,"lon":121.4973964,"name":"金格食品","decorType":"bakery"},{"id":"node-9429893506","lat":25.0647093,"lon":121.496968,"name":"鞋全家福","decorType":"clothing"},{"id":"node-9429893507","lat":25.0649128,"lon":121.4972561,"name":"咖啡葉","decorType":"cafe"},{"id":"node-9429893508","lat":25.0660312,"lon":121.4969349,"name":"萬波島嶼紅茶","decorType":"cafe"},{"id":"node-9429893509","lat":25.0667408,"lon":121.4967477,"name":"肯德基","decorType":"burger"},{"id":"node-9429915989","lat":25.0610529,"lon":121.4980327,"name":"真味燒臘家","decorType":"restaurant"},{"id":"node-9429915990","lat":25.0610146,"lon":121.4980415,"name":"A9 Salon","decorType":"hair_salon"},{"id":"node-9429915991","lat":25.0609739,"lon":121.4980482,"name":"清心福全","decorType":"cafe"},{"id":"node-9429916012","lat":25.0611428,"lon":121.4980039,"name":"哨子乾麵","decorType":"restaurant"},{"id":"node-9429930619","lat":25.0616014,"lon":121.497855,"name":"日式威廉","decorType":"hair_salon"},{"id":"node-9429930621","lat":25.0615759,"lon":121.4979013,"name":"好呷拉麵","decorType":"restaurant"},{"id":"node-9429930622","lat":25.0616154,"lon":121.4974326,"name":"薇米商旅","decorType":"hotel"},{"id":"node-9429930623","lat":25.0616943,"lon":121.497383,"name":"U2 電影館","decorType":"movie_theater"},{"id":"node-9429930624","lat":25.0617138,"lon":121.4974943,"name":"天臺影城","decorType":"movie_theater"},{"id":"node-9429930625","lat":25.0613688,"lon":121.4981749,"name":"Sonice Hair Salon","decorType":"hair_salon"},{"id":"node-9429930627","lat":25.0619823,"lon":121.4978175,"name":"WorHair","decorType":"hair_salon"},{"id":"node-9429930632","lat":25.0617211,"lon":121.4981461,"name":"早安美芝城","decorType":"burger"},{"id":"node-9429930633","lat":25.0618079,"lon":121.4980944,"name":"三口壽司","decorType":"restaurant"},{"id":"node-9429930634","lat":25.0618441,"lon":121.4980882,"name":"小妹的店","decorType":"restaurant"},{"id":"node-9429953419","lat":25.0573227,"lon":121.4988763,"name":"正昇殿","decorType":"shrine"},{"id":"node-9429953435","lat":25.0577959,"lon":121.4987227,"name":"7-Eleven","decorType":"convenience"},{"id":"node-9431405811","lat":25.0686291,"lon":121.4961143,"name":"三安里","decorType":"bus_stop"},{"id":"node-9431602742","lat":25.0677405,"lon":121.4961076,"name":"Mr. Apple 手機維修中心","decorType":"electronics"},{"id":"node-9431630971","lat":25.0685307,"lon":121.4961914,"name":"佑全三重正義藥局","decorType":"pharmacy"},{"id":"node-9431630997","lat":25.0686746,"lon":121.4961438,"name":"台鹽生技","decorType":"pharmacy"},{"id":"node-9432601397","lat":25.0634522,"lon":121.5027849,"name":"全家便利商店","decorType":"convenience"},{"id":"node-9432601402","lat":25.0626723,"lon":121.5027286,"name":"萊爾富","decorType":"convenience"},{"id":"node-9432601403","lat":25.0627452,"lon":121.5029821,"name":"7-Eleven","decorType":"convenience"},{"id":"node-9432601404","lat":25.0624828,"lon":121.5030585,"name":"Q Burger","decorType":"restaurant"},{"id":"node-9433973071","lat":25.0604382,"lon":121.4981434,"name":"名新美髮","decorType":"hair_salon"},{"id":"node-9433973074","lat":25.0606739,"lon":121.4980951,"name":"阮家廚坊","decorType":"restaurant"},{"id":"node-9433973075","lat":25.0608112,"lon":121.4980616,"name":"香園麻油雞","decorType":"restaurant"},{"id":"node-9433973076","lat":25.0608464,"lon":121.4980616,"name":"王記燒臘","decorType":"restaurant"},{"id":"node-9433973077","lat":25.0608847,"lon":121.4980549,"name":"咖哩1號倉","decorType":"restaurant"},{"id":"node-9433973078","lat":25.0609175,"lon":121.4980515,"name":"CoCo都可","decorType":"cafe"},{"id":"node-9434018909","lat":25.0602547,"lon":121.4981554,"name":"炸老大","decorType":"restaurant"},{"id":"node-9434060549","lat":25.0608166,"lon":121.4983191,"name":"美式投幣自助洗","decorType":"laundry"},{"id":"node-9434060576","lat":25.0611428,"lon":121.4982352,"name":"尚品香精緻早餐","decorType":"restaurant"},{"id":"node-9434060577","lat":25.0611805,"lon":121.4982228,"name":"博安藥局","decorType":"pharmacy"},{"id":"node-9434060578","lat":25.0613044,"lon":121.4982031,"name":"拉亞漢堡","decorType":"burger"},{"id":"node-9510824144","lat":25.06517,"lon":121.497104,"name":"長元西街口","decorType":"bus_stop"},{"id":"node-9516144635","lat":25.0671829,"lon":121.4963087,"name":"鬍鬚張","decorType":"restaurant"},{"id":"node-9522083174","lat":25.0618535,"lon":121.4963476,"name":"小林髮廊","decorType":"hair_salon"},{"id":"node-9522083176","lat":25.0618347,"lon":121.4963362,"name":"鍋老板百元頂級鍋物","decorType":"restaurant"},{"id":"node-9660073553","lat":25.0643782,"lon":121.4987979,"name":"蝦皮店到店","decorType":"convenience"},{"id":"node-9704943728","lat":25.0661463,"lon":121.5002442,"name":"大周蒙古烤肉","decorType":"restaurant"},{"id":"node-9867180253","lat":25.0597112,"lon":121.4982004,"name":"蝦皮店到店","decorType":"convenience"},{"id":"node-9952019340","lat":25.0586013,"lon":121.4991961,"name":"光興閱覽室","decorType":"library"},{"id":"node-9971792111","lat":25.0610225,"lon":121.4982869,"name":"派克脆皮雞排","decorType":"restaurant"},{"id":"node-10059413812","lat":25.0577502,"lon":121.4985367,"name":"Man man eat","decorType":"restaurant"},{"id":"node-10059532419","lat":25.0592583,"lon":121.4984721,"name":"Q Burger","decorType":"restaurant"},{"id":"node-10180951798","lat":25.0649549,"lon":121.4969324,"name":"麗嬰房","decorType":"clothing"},{"id":"node-10180951804","lat":25.0652331,"lon":121.4971362,"name":"一條通","decorType":"restaurant"},{"id":"node-10180951808","lat":25.0654882,"lon":121.4970497,"name":"詩威特國際美容","decorType":"cosmetics"},{"id":"node-10180951810","lat":25.0659912,"lon":121.4966105,"name":"TMMA 台北格鬥運動館","decorType":"stadium"},{"id":"node-11961008169","lat":25.0627541,"lon":121.5090618,"name":"無所洋食","decorType":"restaurant"},{"id":"node-12002347773","lat":25.0649075,"lon":121.4972996,"name":"瓦城","decorType":"restaurant"},{"id":"node-12638049515","lat":25.0685711,"lon":121.497962,"name":"尻食堂中華料理","decorType":"restaurant"},{"id":"way-50893540","lat":25.0638537,"lon":121.5046485,"name":"台北大橋","decorType":"bridge"},{"id":"way-51392698","lat":25.0636835,"lon":121.5072191,"name":"台北大橋機慢車引道","decorType":"bridge"},{"id":"way-51392756","lat":25.0636243,"lon":121.5057513,"name":"台北大橋機慢車引道","decorType":"bridge"},{"id":"way-51911208","lat":25.05471,"lon":121.5076003,"name":"環河快速道路","decorType":"bridge"},{"id":"way-99028523","lat":25.0684213,"lon":121.5038115,"name":"新北環河快速道路","decorType":"bridge"},{"id":"way-99028525","lat":25.0685742,"lon":121.5038946,"name":"新北環快","decorType":"bridge"},{"id":"way-99028528","lat":25.0629115,"lon":121.5038054,"name":"新北環河快速道路","decorType":"bridge"},{"id":"way-99028779","lat":25.063045,"lon":121.5039314,"name":"新北環河快速道路","decorType":"bridge"},{"id":"way-99028783","lat":25.0626384,"lon":121.5038517,"name":"未命名橋樑","decorType":"bridge"},{"id":"way-137183114","lat":25.0594303,"lon":121.5018004,"name":"未命名橋樑","decorType":"bridge"},{"id":"way-144183706","lat":25.0641498,"lon":121.5035635,"name":"台北大橋機慢車引道","decorType":"bridge"},{"id":"way-215552060","lat":25.0684884,"lon":121.4974407,"name":"正義公園","decorType":"park"},{"id":"way-215552072","lat":25.0651095,"lon":121.4985187,"name":"信義公園","decorType":"park"},{"id":"way-215554734","lat":25.0660715,"lon":121.5038706,"name":"開元公園","decorType":"park"},{"id":"way-215557459","lat":25.0590871,"lon":121.5010642,"name":"同安公園","decorType":"park"},{"id":"way-215557460","lat":25.0572978,"lon":121.4994588,"name":"同安公園","decorType":"park"},{"id":"way-215557461","lat":25.0582952,"lon":121.4997015,"name":"光興公園","decorType":"park"},{"id":"way-311576787","lat":25.0637905,"lon":121.5065235,"name":"台北大橋機慢車引道","decorType":"bridge"},{"id":"way-311576788","lat":25.0639324,"lon":121.5046756,"name":"台北大橋","decorType":"bridge"},{"id":"way-311689673","lat":25.0634924,"lon":121.5075437,"name":"台北大橋","decorType":"bridge"},{"id":"way-388166940","lat":25.0580787,"lon":121.5007182,"name":"三重天后宮","decorType":"shrine"},{"id":"way-462935586","lat":25.0579168,"lon":121.5087132,"name":"忠和公園","decorType":"park"},{"id":"way-462935590","lat":25.0566406,"lon":121.5083238,"name":"大同16號廣場","decorType":"park"},{"id":"way-462935601","lat":25.057868,"lon":121.5081944,"name":"天水宮","decorType":"shrine"},{"id":"way-491726111","lat":25.0551292,"lon":121.5082189,"name":"李春生紀念教會","decorType":"shrine"},{"id":"way-531361608","lat":25.0651012,"lon":121.4985018,"name":"未命名水邊","decorType":"waterside"},{"id":"way-531361611","lat":25.0649043,"lon":121.4982865,"name":"鎮安宮","decorType":"shrine"},{"id":"way-531364175","lat":25.0646171,"lon":121.4965388,"name":"未命名公園","decorType":"park"},{"id":"way-549100392","lat":25.066561,"lon":121.4963954,"name":"麥當勞","decorType":"burger"},{"id":"way-642797648","lat":25.0580188,"lon":121.4996414,"name":"空軍三重一村眷村文化園區","decorType":"theme_park"},{"id":"way-642797651","lat":25.0576346,"lon":121.4990798,"name":"未命名公園","decorType":"park"},{"id":"way-647667499","lat":25.0631933,"lon":121.5087808,"name":"未命名橋樑","decorType":"bridge"},{"id":"way-650694077","lat":25.0651914,"lon":121.5045444,"name":"未命名橋樑","decorType":"bridge"},{"id":"way-650694078","lat":25.0637132,"lon":121.5056468,"name":"未命名橋樑","decorType":"bridge"},{"id":"way-696335383","lat":25.0639689,"lon":121.5052814,"name":"未命名橋樑","decorType":"bridge"},{"id":"way-696335384","lat":25.0634363,"lon":121.5074308,"name":"台北大橋機慢車引道","decorType":"bridge"},{"id":"way-708164149","lat":25.0576226,"lon":121.5078563,"name":"淡埕橋","decorType":"bridge"},{"id":"way-708164152","lat":25.0574181,"lon":121.5081347,"name":"淡水河河濱自行車道","decorType":"bridge"},{"id":"way-708164156","lat":25.0555021,"lon":121.5074343,"name":"大稻埕千歲宮","decorType":"shrine"},{"id":"way-736385633","lat":25.0626506,"lon":121.501148,"name":"未命名公園","decorType":"park"},{"id":"way-766726294","lat":25.0547974,"lon":121.4967436,"name":"未命名公園","decorType":"park"},{"id":"way-769410488","lat":25.0636833,"lon":121.5063731,"name":"台北大橋","decorType":"bridge"},{"id":"way-772891702","lat":25.0635441,"lon":121.5075795,"name":"台北大橋","decorType":"bridge"},{"id":"way-870452536","lat":25.0666357,"lon":121.5039596,"name":"未命名神社","decorType":"shrine"},{"id":"way-888791837","lat":25.0636514,"lon":121.5086471,"name":"未命名橋樑","decorType":"bridge"},{"id":"way-889243264","lat":25.0636329,"lon":121.5063309,"name":"未命名橋樑","decorType":"bridge"},{"id":"way-889243265","lat":25.0639673,"lon":121.5035735,"name":"未命名橋樑","decorType":"bridge"},{"id":"way-889243266","lat":25.0642209,"lon":121.5036219,"name":"未命名橋樑","decorType":"bridge"},{"id":"way-889243273","lat":25.0634276,"lon":121.5091068,"name":"未命名橋樑","decorType":"bridge"},{"id":"way-889243276","lat":25.0631649,"lon":121.5090486,"name":"未命名橋樑","decorType":"bridge"},{"id":"way-889243279","lat":25.0638096,"lon":121.5061017,"name":"未命名橋樑","decorType":"bridge"},{"id":"way-889243281","lat":25.0634932,"lon":121.5088332,"name":"未命名橋樑","decorType":"bridge"},{"id":"way-890181862","lat":25.0667037,"lon":121.5042884,"name":"未命名橋樑","decorType":"bridge"},{"id":"way-890181863","lat":25.0667247,"lon":121.5042139,"name":"未命名橋樑","decorType":"bridge"},{"id":"way-890181865","lat":25.0667136,"lon":121.5048168,"name":"未命名橋樑","decorType":"bridge"},{"id":"way-890181866","lat":25.0666235,"lon":121.5047991,"name":"未命名橋樑","decorType":"bridge"},{"id":"way-890181867","lat":25.0667077,"lon":121.5045168,"name":"未命名橋樑","decorType":"bridge"},{"id":"way-890181873","lat":25.0672668,"lon":121.5050122,"name":"未命名橋樑","decorType":"bridge"},{"id":"way-890181883","lat":25.0678548,"lon":121.5050207,"name":"未命名橋樑","decorType":"bridge"},{"id":"way-890181884","lat":25.0678423,"lon":121.5052133,"name":"二重環狀自行車道","decorType":"bridge"},{"id":"way-890181886","lat":25.0682663,"lon":121.5051205,"name":"二重環狀自行車道","decorType":"bridge"},{"id":"way-890181889","lat":25.0681557,"lon":121.5049931,"name":"未命名橋樑","decorType":"bridge"},{"id":"way-893358865","lat":25.0570762,"lon":121.4992165,"name":"未命名橋樑","decorType":"bridge"},{"id":"way-893358866","lat":25.0570762,"lon":121.4992099,"name":"未命名橋樑","decorType":"bridge"},{"id":"way-893358868","lat":25.0561828,"lon":121.5000427,"name":"未命名橋樑","decorType":"bridge"},{"id":"way-893358872","lat":25.0572052,"lon":121.5008433,"name":"二重環狀自行車道","decorType":"bridge"},{"id":"way-893358874","lat":25.0570867,"lon":121.5006731,"name":"二重環狀自行車道","decorType":"bridge"},{"id":"way-893358876","lat":25.0611844,"lon":121.5034507,"name":"未命名橋樑","decorType":"bridge"},{"id":"way-893358877","lat":25.0612065,"lon":121.5028703,"name":"未命名橋樑","decorType":"bridge"},{"id":"way-893358878","lat":25.0567392,"lon":121.4993252,"name":"未命名橋樑","decorType":"bridge"},{"id":"way-893358886","lat":25.0612114,"lon":121.5031608,"name":"未命名橋樑","decorType":"bridge"},{"id":"way-893358890","lat":25.0613375,"lon":121.5035773,"name":"二重環狀自行車道","decorType":"bridge"},{"id":"way-909274072","lat":25.0548128,"lon":121.4967494,"name":"未命名公園","decorType":"park"},{"id":"way-909274076","lat":25.0545696,"lon":121.4963842,"name":"未命名橋樑","decorType":"bridge"},{"id":"way-909274077","lat":25.0545665,"lon":121.4963842,"name":"未命名橋樑","decorType":"bridge"},{"id":"way-909274079","lat":25.0543482,"lon":121.4961064,"name":"未命名橋樑","decorType":"bridge"},{"id":"way-909274080","lat":25.0543482,"lon":121.4961087,"name":"未命名橋樑","decorType":"bridge"},{"id":"way-1018813545","lat":25.0593867,"lon":121.5006875,"name":"未命名公園","decorType":"park"},{"id":"way-1022460760","lat":25.0589261,"lon":121.4986158,"name":"光興陸橋","decorType":"bridge"},{"id":"way-1209753706","lat":25.0641671,"lon":121.5047019,"name":"未命名橋樑","decorType":"bridge"},{"id":"way-1209753707","lat":25.0637402,"lon":121.5047105,"name":"未命名橋樑","decorType":"bridge"},{"id":"way-1228832811","lat":25.0631054,"lon":121.5005419,"name":"未命名公車站","decorType":"bus_stop"},{"id":"way-1239852606","lat":25.0568526,"lon":121.5071247,"name":"未命名橋樑","decorType":"bridge"},{"id":"way-1349002350","lat":25.0675596,"lon":121.5047232,"name":"未命名水邊","decorType":"waterside"}]}