{"bbox":{"south":25.054338,"north":25.069944,"west":121.509125,"east":121.522156},"pois":[{"id":"way-50893534","lat":25.063177,"lon":121.509699,"name":"台北大橋","decorType":"bridge"},{"id":"way-51392699","lat":25.063283,"lon":121.509757,"name":"台北大橋機慢車引道","decorType":"bridge"},{"id":"way-311689672","lat":25.063065,"lon":121.509695,"name":"台北大橋機慢車引道","decorType":"bridge"},{"id":"node-1234328197","lat":25.067595,"lon":121.520953,"name":"活肺操場裏","decorType":"stadium"},{"id":"node-1234328206","lat":25.067769,"lon":121.520663,"name":"籃球場(2)","decorType":"stadium"},{"id":"node-2124843027","lat":25.057621,"lon":121.519247,"name":"7-Eleven","decorType":"convenience"},{"id":"node-2124843029","lat":25.058477,"lon":121.515195,"name":"7-Eleven","decorType":"convenience"},{"id":"node-2124843033","lat":25.060246,"lon":121.521797,"name":"全家便利商店","decorType":"convenience"},{"id":"node-2124843037","lat":25.060226,"lon":121.521934,"name":"百利旅館","decorType":"hotel"},{"id":"node-2124843038","lat":25.05711,"lon":121.517619,"name":"7-Eleven","decorType":"convenience"},{"id":"node-2124843040","lat":25.057545,"lon":121.52087,"name":"全家便利商店","decorType":"convenience"},{"id":"node-2124843047","lat":25.057921,"lon":121.52167,"name":"肯德基","decorType":"burger"},{"id":"node-2124843052","lat":25.05774,"lon":121.520348,"name":"麥當勞","decorType":"burger"},{"id":"node-2124843059","lat":25.057679,"lon":121.519707,"name":"摩斯漢堡","decorType":"burger"},{"id":"node-2124843063","lat":25.058073,"lon":121.521718,"name":"萊爾富","decorType":"convenience"},{"id":"node-2124843075","lat":25.060269,"lon":121.52122,"name":"7-Eleven","decorType":"convenience"},{"id":"node-2152782067","lat":25.060987,"lon":121.509815,"name":"賣麵炎仔 金泉小吃店","decorType":"restaurant"},{"id":"node-2166428733","lat":25.059598,"lon":121.515616,"name":"涼洲街越南美食","decorType":"restaurant"},{"id":"node-2441345996","lat":25.062557,"lon":121.519491,"name":"未命名車站","decorType":"station"},{"id":"node-2441346005","lat":25.062729,"lon":121.516121,"name":"朝代戲院","decorType":"movie_theater"},{"id":"node-2507914373","lat":25.055707,"lon":121.513099,"name":"有記名茶","decorType":"cafe"},{"id":"node-2509668573","lat":25.068384,"lon":121.520686,"name":"花博公園","decorType":"bus_stop"},{"id":"node-2509668574","lat":25.068555,"lon":121.520875,"name":"花博公園","decorType":"bus_stop"},{"id":"node-2509668586","lat":25.069084,"lon":121.519937,"name":"捷運圓山站","decorType":"bus_stop"},{"id":"node-2517658824","lat":25.064837,"lon":121.518159,"name":"大同國小","decorType":"bus_stop"},{"id":"node-2517658825","lat":25.066187,"lon":121.518494,"name":"大同國小","decorType":"bus_stop"},{"id":"node-2517658850","lat":25.05438,"lon":121.518215,"name":"建成公園","decorType":"bus_stop"},{"id":"node-2517658859","lat":25.062156,"lon":121.518087,"name":"成淵高中","decorType":"bus_stop"},{"id":"node-2517658931","lat":25.068056,"lon":121.518233,"name":"民族承德路口","decorType":"bus_stop"},{"id":"node-2517658936","lat":25.068763,"lon":121.518552,"name":"民族承德路口","decorType":"bus_stop"},{"id":"node-2517658943","lat":25.05686,"lon":121.518016,"name":"民生西路口","decorType":"bus_stop"},{"id":"node-2517658948","lat":25.0579,"lon":121.518356,"name":"民生西路口","decorType":"bus_stop"},{"id":"node-2517659483","lat":25.063493,"lon":121.518466,"name":"防癆協會","decorType":"bus_stop"},{"id":"node-2528868387","lat":25.055438,"lon":121.514035,"name":"朝陽公園 (鈕釦街)","decorType":"bus_stop"},{"id":"node-2528868388","lat":25.055693,"lon":121.514162,"name":"朝陽公園 (鈕釦街)","decorType":"bus_stop"},{"id":"node-2532090488","lat":25.055255,"lon":121.513288,"name":"振南皮飾五金有限公司","decorType":"clothing"},{"id":"node-2532090489","lat":25.055241,"lon":121.513243,"name":"火車牌蒸氣熨斗","decorType":"electronics"},{"id":"node-2532090491","lat":25.055222,"lon":121.513117,"name":"節盈股份有限公司","decorType":"clothing"},{"id":"node-2532090492","lat":25.055215,"lon":121.51306,"name":"允順紗線行","decorType":"clothing"},{"id":"node-2559997193","lat":25.055091,"lon":121.509835,"name":"萊爾富","decorType":"convenience"},{"id":"node-2559997219","lat":25.054909,"lon":121.509999,"name":"全家便利商店","decorType":"convenience"},{"id":"node-2559997220","lat":25.054954,"lon":121.510252,"name":"耀篷布行","decorType":"clothing"},{"id":"node-2560204209","lat":25.065356,"lon":121.510987,"name":"施家湯圓","decorType":"restaurant"},{"id":"node-2579109182","lat":25.065264,"lon":121.510984,"name":"杉味豆花","decorType":"cafe"},{"id":"node-2619610222","lat":25.055152,"lon":121.515183,"name":"7-Eleven","decorType":"convenience"},{"id":"node-2631129013","lat":25.057181,"lon":121.513722,"name":"民生重慶路口","decorType":"bus_stop"},{"id":"node-2631129014","lat":25.056778,"lon":121.513832,"name":"民生重慶路口","decorType":"bus_stop"},{"id":"node-2631129015","lat":25.060936,"lon":121.513517,"name":"涼州重慶路口","decorType":"bus_stop"},{"id":"node-2631129016","lat":25.060661,"lon":121.513574,"name":"涼州重慶路口","decorType":"bus_stop"},{"id":"node-2631129017","lat":25.062745,"lon":121.513625,"name":"捷運大橋頭站","decorType":"bus_stop"},{"id":"node-2631129018","lat":25.063274,"lon":121.513617,"name":"捷運大橋頭站","decorType":"bus_stop"},{"id":"node-2631129019","lat":25.066112,"lon":121.513655,"name":"昌吉重慶路口","decorType":"bus_stop"},{"id":"node-2631129020","lat":25.065791,"lon":121.513732,"name":"昌吉重慶路口","decorType":"bus_stop"},{"id":"node-2631129022","lat":25.06846,"lon":121.51378,"name":"民族重慶路口","decorType":"bus_stop"},{"id":"node-2638333410","lat":25.057593,"lon":121.521409,"name":"百八魚場","decorType":"restaurant"},{"id":"node-2638333425","lat":25.057659,"lon":121.521366,"name":"馬偕醫院","decorType":"bus_stop"},{"id":"node-2638505683","lat":25.057835,"lon":121.521329,"name":"馬偕醫院","decorType":"bus_stop"},{"id":"node-2638610782","lat":25.057284,"lon":121.518901,"name":"双連口仔湯","decorType":"restaurant"},{"id":"node-2638610910","lat":25.05478,"lon":121.510035,"name":"未命名郵局","decorType":"post_office"},{"id":"node-2651256441","lat":25.056277,"lon":121.519778,"name":"美依修改衣服換拉鏈工作室","decorType":"clothing"},{"id":"node-2651256488","lat":25.056269,"lon":121.520088,"name":"北玄宮","decorType":"shrine"},{"id":"node-2651256514","lat":25.054988,"lon":121.518431,"name":"全家便利商店","decorType":"convenience"},{"id":"node-2700749823","lat":25.068041,"lon":121.510966,"name":"天師宮","decorType":"bus_stop"},{"id":"node-2700749824","lat":25.068064,"lon":121.510853,"name":"天師宮","decorType":"bus_stop"},{"id":"node-2700750818","lat":25.06613,"lon":121.510953,"name":"延平國小","decorType":"bus_stop"},{"id":"node-2700750819","lat":25.066245,"lon":121.51104,"name":"延平國小","decorType":"bus_stop"},{"id":"node-2700751797","lat":25.064443,"lon":121.511058,"name":"延三觀光夜市","decorType":"bus_stop"},{"id":"node-2700753009","lat":25.063575,"lon":121.511218,"name":"延三觀光夜市","decorType":"bus_stop"},{"id":"node-2700754539","lat":25.06152,"lon":121.511326,"name":"臺北橋","decorType":"bus_stop"},{"id":"node-2700754540","lat":25.061526,"lon":121.511216,"name":"臺北橋","decorType":"bus_stop"},{"id":"node-2700756622","lat":25.059874,"lon":121.511456,"name":"保安街口","decorType":"bus_stop"},{"id":"node-2700756623","lat":25.059872,"lon":121.511337,"name":"保安街口","decorType":"bus_stop"},{"id":"node-2700757811","lat":25.057931,"lon":121.511456,"name":"民生西路口(大稻埕碼頭)","decorType":"bus_stop"},{"id":"node-2700760318","lat":25.057517,"lon":121.511598,"name":"民生西路口(大稻埕碼頭)","decorType":"bus_stop"},{"id":"node-2700761152","lat":25.054443,"lon":121.511785,"name":"南京西路口(鈕扣街)","decorType":"bus_stop"},{"id":"node-2700761742","lat":25.054608,"lon":121.51168,"name":"南京西路口(鈕扣街)","decorType":"bus_stop"},{"id":"node-2706343208","lat":25.06882,"lon":121.513688,"name":"民族重慶路口","decorType":"bus_stop"},{"id":"node-2713414521","lat":25.06286,"lon":121.517945,"name":"捷運民權西路站","decorType":"bus_stop"},{"id":"node-2713414522","lat":25.062973,"lon":121.516404,"name":"民權大龍街口","decorType":"bus_stop"},{"id":"node-2779084522","lat":25.05693,"lon":121.515002,"name":"靜修女中","decorType":"bus_stop"},{"id":"node-2923881157","lat":25.063289,"lon":121.517279,"name":"日月蔬食坊","decorType":"restaurant"},{"id":"node-2950841623","lat":25.056862,"lon":121.513031,"name":"全聯福利中心","decorType":"supermarket"},{"id":"node-2950843062","lat":25.066059,"lon":121.513962,"name":"伯朗咖啡","decorType":"cafe"},{"id":"node-3034546864","lat":25.069809,"lon":121.518662,"name":"金春發牛肉麵","decorType":"restaurant"},{"id":"node-3034549125","lat":25.065877,"lon":121.518564,"name":"未命名郵局","decorType":"post_office"},{"id":"node-3100254481","lat":25.062661,"lon":121.519774,"name":"NET","decorType":"clothing"},{"id":"node-3100255230","lat":25.062739,"lon":121.518901,"name":"未命名車站","decorType":"station"},{"id":"node-3188090053","lat":25.056871,"lon":121.511249,"name":"迪化街","decorType":"bus_stop"},{"id":"node-3188090054","lat":25.056961,"lon":121.511057,"name":"迪化街","decorType":"bus_stop"},{"id":"node-3188090057","lat":25.05734,"lon":121.518823,"name":"捷運雙連站","decorType":"bus_stop"},{"id":"node-3188090058","lat":25.057533,"lon":121.518915,"name":"捷運雙連站","decorType":"bus_stop"},{"id":"node-3188090770","lat":25.056358,"lon":121.511635,"name":"民生西路口(大稻埕碼頭)","decorType":"bus_stop"},{"id":"node-3188090787","lat":25.057092,"lon":121.514916,"name":"靜修女中","decorType":"bus_stop"},{"id":"node-3188479010","lat":25.06292,"lon":121.518622,"name":"捷運民權西路站","decorType":"bus_stop"},{"id":"node-3221768723","lat":25.062702,"lon":121.520195,"name":"未命名車站","decorType":"station"},{"id":"node-3221770058","lat":25.062688,"lon":121.520575,"name":"未命名車站","decorType":"station"},{"id":"node-3221770059","lat":25.062953,"lon":121.520614,"name":"未命名車站","decorType":"station"},{"id":"node-3221770885","lat":25.062964,"lon":121.520153,"name":"未命名車站","decorType":"station"},{"id":"node-3221770918","lat":25.057506,"lon":121.520591,"name":"未命名車站","decorType":"station"},{"id":"node-3221771075","lat":25.062621,"lon":121.520093,"name":"屈臣氏","decorType":"pharmacy"},{"id":"node-3229482484","lat":25.057823,"lon":121.520601,"name":"未命名車站","decorType":"station"},{"id":"node-3270616971","lat":25.054457,"lon":121.519498,"name":"SOBDEALL graceful gentlemen","decorType":"clothing"},{"id":"node-3270616972","lat":25.054552,"lon":121.5203,"name":"蘑菇MOGU 中山本店","decorType":"clothing"},{"id":"node-3270616974","lat":25.054779,"lon":121.520301,"name":"御之香","decorType":"restaurant"},{"id":"node-3270616975","lat":25.054944,"lon":121.520327,"name":"R9 cafe","decorType":"cafe"},{"id":"node-3270616976","lat":25.05519,"lon":121.520146,"name":"Misty Mint","decorType":"clothing"},{"id":"node-3270616977","lat":25.054814,"lon":121.519905,"name":"赤峰洋行","decorType":"clothing"},{"id":"node-3270616978","lat":25.05495,"lon":121.519781,"name":"E goat","decorType":"clothing"},{"id":"node-3270620068","lat":25.05582,"lon":121.520371,"name":"登波咖啡","decorType":"cafe"},{"id":"node-3270665661","lat":25.056542,"lon":121.52032,"name":"松柏農 SONBERNOR 台茶 咖啡 司康 戚風 肉桂捲 專門店","decorType":"restaurant"},{"id":"node-3270665662","lat":25.056715,"lon":121.520129,"name":"圍裙咖啡","decorType":"cafe"},{"id":"node-3270665663","lat":25.056572,"lon":121.520046,"name":"Alice wrkshop","decorType":"clothing"},{"id":"node-3270665664","lat":25.056697,"lon":121.519635,"name":"MB more","decorType":"clothing"},{"id":"node-3270665665","lat":25.056939,"lon":121.51967,"name":"極度剪髮SAM Supercut","decorType":"hair_salon"},{"id":"node-3270665667","lat":25.057117,"lon":121.519671,"name":"la boutique","decorType":"clothing"},{"id":"node-3270665668","lat":25.05721,"lon":121.519674,"name":"蕙比壽","decorType":"clothing"},{"id":"node-3270665669","lat":25.0571,"lon":121.519506,"name":"芙歐娜","decorType":"clothing"},{"id":"node-3270665670","lat":25.057301,"lon":121.519678,"name":"名古屋台所","decorType":"restaurant"},{"id":"node-3270665672","lat":25.05716,"lon":121.520424,"name":"原味湯廚","decorType":"restaurant"},{"id":"node-3270665674","lat":25.057096,"lon":121.520424,"name":"豆酥朋","decorType":"cafe"},{"id":"node-3270665675","lat":25.056283,"lon":121.519513,"name":"Le Gaulois穀樂","decorType":"cafe"},{"id":"node-3270665676","lat":25.056281,"lon":121.51963,"name":"Dolly Nails","decorType":"cosmetics"},{"id":"node-3273605579","lat":25.061755,"lon":121.519822,"name":"未命名車站","decorType":"station"},{"id":"node-3273605580","lat":25.061861,"lon":121.519632,"name":"未命名車站","decorType":"station"},{"id":"node-3273605581","lat":25.061938,"lon":121.519858,"name":"未命名車站","decorType":"station"},{"id":"node-3273605586","lat":25.063153,"lon":121.512263,"name":"未命名車站","decorType":"station"},{"id":"node-3273605587","lat":25.06321,"lon":121.518781,"name":"未命名車站","decorType":"station"},{"id":"node-3273605588","lat":25.063182,"lon":121.513202,"name":"未命名車站","decorType":"station"},{"id":"node-3273605589","lat":25.063849,"lon":121.513431,"name":"未命名車站","decorType":"station"},{"id":"node-3305647700","lat":25.064816,"lon":121.513689,"name":"捷運大橋頭站","decorType":"bus_stop"},{"id":"node-3305647703","lat":25.062913,"lon":121.513657,"name":"民權重慶路口","decorType":"bus_stop"},{"id":"node-3396604307","lat":25.06259,"lon":121.520315,"name":"福勝亭","decorType":"restaurant"},{"id":"node-3487358004","lat":25.05583,"lon":121.515133,"name":"全家便利商店","decorType":"convenience"},{"id":"node-3495094872","lat":25.057632,"lon":121.520699,"name":"雙連","decorType":"station"},{"id":"node-3495094873","lat":25.062851,"lon":121.519403,"name":"民權西路","decorType":"station"},{"id":"node-3510209907","lat":25.054411,"lon":121.521731,"name":"AN-Burger","decorType":"burger"},{"id":"node-3510514465","lat":25.058914,"lon":121.511669,"name":"保安捌肆","decorType":"cafe"},{"id":"node-3510597156","lat":25.057135,"lon":121.517787,"name":"高雄黑輪大王","decorType":"restaurant"},{"id":"node-3541171395","lat":25.064589,"lon":121.521523,"name":"大同工學院科學博物館","decorType":"art_gallery"},{"id":"node-3541175894","lat":25.064662,"lon":121.522108,"name":"未命名郵局","decorType":"post_office"},{"id":"node-3541175994","lat":25.063698,"lon":121.520556,"name":"OK超商","decorType":"convenience"},{"id":"node-3541200793","lat":25.063496,"lon":121.520864,"name":"全家便利商店","decorType":"convenience"},{"id":"node-3541200794","lat":25.064146,"lon":121.519406,"name":"cafe wien","decorType":"cafe"},{"id":"node-3541200893","lat":25.063473,"lon":121.521724,"name":"法尼斯小館","decorType":"cafe"},{"id":"node-3541200993","lat":25.062502,"lon":121.521737,"name":"未命名郵局","decorType":"post_office"},{"id":"node-3541201094","lat":25.065057,"lon":121.522014,"name":"漢堡王","decorType":"burger"},{"id":"node-3541201294","lat":25.06509,"lon":121.521698,"name":"Tonup cafe","decorType":"cafe"},{"id":"node-3542104232","lat":25.063124,"lon":121.520593,"name":"神召會","decorType":"shrine"},{"id":"node-3699452814","lat":25.066647,"lon":121.52188,"name":"萊爾富","decorType":"convenience"},{"id":"node-3738520752","lat":25.062104,"lon":121.509536,"name":"醒心宮","decorType":"shrine"},{"id":"node-3738520753","lat":25.062242,"lon":121.509692,"name":"福德宮","decorType":"shrine"},{"id":"node-3738533126","lat":25.061761,"lon":121.509152,"name":"明峰摃丸","decorType":"burger"},{"id":"node-3794141096","lat":25.064583,"lon":121.511245,"name":"三重知高飯","decorType":"restaurant"},{"id":"node-3794141097","lat":25.06932,"lon":121.51092,"name":"全家便利商店","decorType":"convenience"},{"id":"node-3794141116","lat":25.064709,"lon":121.510936,"name":"萊爾富","decorType":"convenience"},{"id":"node-3794154664","lat":25.059387,"lon":121.518366,"name":"成淵高中","decorType":"bus_stop"},{"id":"node-3794154665","lat":25.06089,"lon":121.518418,"name":"成淵高中","decorType":"bus_stop"},{"id":"node-3811440914","lat":25.057143,"lon":121.51566,"name":"Hangten","decorType":"clothing"},{"id":"node-3811440915","lat":25.057007,"lon":121.516562,"name":"未命名漢堡店","decorType":"burger"},{"id":"node-3811440916","lat":25.057008,"lon":121.516613,"name":"未命名服飾店","decorType":"clothing"},{"id":"node-3811440917","lat":25.057129,"lon":121.518019,"name":"未命名郵局","decorType":"post_office"},{"id":"node-3811440918","lat":25.057932,"lon":121.521747,"name":"星巴克","decorType":"cafe"},{"id":"node-3811445822","lat":25.057329,"lon":121.519303,"name":"士紀豆漿大王","decorType":"restaurant"},{"id":"node-3811445878","lat":25.057446,"lon":121.520167,"name":"孫東寶","decorType":"restaurant"},{"id":"node-3811445879","lat":25.057286,"lon":121.519085,"name":"路易莎咖啡","decorType":"cafe"},{"id":"node-3811446149","lat":25.05774,"lon":121.520159,"name":"全家便利商店","decorType":"convenience"},{"id":"node-3811446151","lat":25.057335,"lon":121.519177,"name":"大樹藥局","decorType":"pharmacy"},{"id":"node-3811446152","lat":25.057239,"lon":121.518519,"name":"雙福食品","decorType":"bakery"},{"id":"node-3811446939","lat":25.057502,"lon":121.520469,"name":"大盜陳","decorType":"cafe"},{"id":"node-3811446940","lat":25.05736,"lon":121.519521,"name":"Honor","decorType":"clothing"},{"id":"node-3811446943","lat":25.057032,"lon":121.516781,"name":"未命名漢堡店","decorType":"burger"},{"id":"node-3812564398","lat":25.063198,"lon":121.512694,"name":"大橋頭","decorType":"station"},{"id":"node-3826541457","lat":25.06105,"lon":121.520938,"name":"下港吔羊肉專賣店","decorType":"restaurant"},{"id":"node-3835265057","lat":25.061136,"lon":121.509496,"name":"永興農具工廠","decorType":"hardware"},{"id":"node-3835268457","lat":25.060564,"lon":121.511197,"name":"全家便利商店","decorType":"convenience"},{"id":"node-3835269657","lat":25.062513,"lon":121.509303,"name":"稻舍","decorType":"restaurant"},{"id":"node-3835271157","lat":25.061611,"lon":121.509313,"name":"林豐益商行","decorType":"convenience"},{"id":"node-3835272258","lat":25.056654,"lon":121.509798,"name":"百安堂","decorType":"pharmacy"},{"id":"node-3835273957","lat":25.059249,"lon":121.509403,"name":"誠記蔘藥行","decorType":"pharmacy"},{"id":"node-3835274357","lat":25.058935,"lon":121.509464,"name":"高建桶店","decorType":"convenience"},{"id":"node-3835274557","lat":25.059136,"lon":121.509571,"name":"蘑菇","decorType":"clothing"},{"id":"node-3835277357","lat":25.059242,"lon":121.509667,"name":"孔雀歐亞料理餐酒館","decorType":"restaurant"},{"id":"node-3835281161","lat":25.058321,"lon":121.512394,"name":"開心茶舖","decorType":"restaurant"},{"id":"node-3835295060","lat":25.056029,"lon":121.509996,"name":"乾元參藥行","decorType":"pharmacy"},{"id":"node-3835295061","lat":25.055689,"lon":121.509908,"name":"福來許","decorType":"cafe"},{"id":"node-3835296357","lat":25.055091,"lon":121.510275,"name":"老媽麵店","decorType":"restaurant"},{"id":"node-3835318157","lat":25.05617,"lon":121.511099,"name":"花生騷","decorType":"clothing"},{"id":"node-3835324082","lat":25.054805,"lon":121.510008,"name":"臺北迪化街郵局","decorType":"post_office"},{"id":"node-3835331157","lat":25.055948,"lon":121.510158,"name":"點子生活","decorType":"sweetshop"},{"id":"node-3835833777","lat":25.06225,"lon":121.513717,"name":"捷運大橋頭站","decorType":"bus_stop"},{"id":"node-3840317457","lat":25.060928,"lon":121.509373,"name":"248農學市集","decorType":"restaurant"},{"id":"node-3840470157","lat":25.054655,"lon":121.510018,"name":"屈臣氏大藥局","decorType":"pharmacy"},{"id":"node-3842772506","lat":25.057672,"lon":121.509671,"name":"臻味茶苑","decorType":"restaurant"},{"id":"node-3842874057","lat":25.058001,"lon":121.509803,"name":"泉通行","decorType":"cosmetics"},{"id":"node-3843183295","lat":25.058054,"lon":121.509779,"name":"永利行","decorType":"supermarket"},{"id":"node-3881368454","lat":25.069282,"lon":121.518561,"name":"民族承德路口","decorType":"bus_stop"},{"id":"node-3881368455","lat":25.068552,"lon":121.51289,"name":"民族西路","decorType":"bus_stop"},{"id":"node-3881368456","lat":25.068506,"lon":121.514415,"name":"民族重慶路口","decorType":"bus_stop"},{"id":"node-3881369157","lat":25.060701,"lon":121.512887,"name":"涼州重慶路口","decorType":"bus_stop"},{"id":"node-3881369162","lat":25.068456,"lon":121.51604,"name":"蘭州國中","decorType":"bus_stop"},{"id":"node-3881369163","lat":25.068677,"lon":121.516134,"name":"蘭州國中","decorType":"bus_stop"},{"id":"node-3887274155","lat":25.059929,"lon":121.512011,"name":"台北當代藝術中心","decorType":"art_gallery"},{"id":"node-3889227326","lat":25.06075,"lon":121.520965,"name":"曼特林咖啡館","decorType":"cafe"},{"id":"node-3889227327","lat":25.061053,"lon":121.521141,"name":"多禮咖啡","decorType":"cafe"},{"id":"node-3889230208","lat":25.0626,"lon":121.521112,"name":"康是美","decorType":"pharmacy"},{"id":"node-3889230209","lat":25.063039,"lon":121.520945,"name":"三商巧福","decorType":"restaurant"},{"id":"node-3889230210","lat":25.06302,"lon":121.521003,"name":"鬍鬚張","decorType":"restaurant"},{"id":"node-3889230211","lat":25.062593,"lon":121.521335,"name":"松屋","decorType":"burger"},{"id":"node-3889230212","lat":25.063009,"lon":121.521356,"name":"摩斯漢堡","decorType":"burger"},{"id":"node-3914109555","lat":25.065736,"lon":121.516229,"name":"未命名體育館","decorType":"stadium"},{"id":"node-3939157999","lat":25.057851,"lon":121.521145,"name":"全家便利商店","decorType":"convenience"},{"id":"node-3939158014","lat":25.058141,"lon":121.521657,"name":"城光教會","decorType":"shrine"},{"id":"node-4031296809","lat":25.068406,"lon":121.518917,"name":"丞德路口","decorType":"bus_stop"},{"id":"node-4031296841","lat":25.069908,"lon":121.518266,"name":"庫倫街口","decorType":"bus_stop"},{"id":"node-4031297483","lat":25.065061,"lon":121.518923,"name":"承德宮","decorType":"shrine"},{"id":"node-4031297496","lat":25.062493,"lon":121.520718,"name":"萊爾富","decorType":"convenience"},{"id":"node-4104062190","lat":25.057828,"lon":121.520883,"name":"老董牛肉麵","decorType":"restaurant"},{"id":"node-4160651808","lat":25.066025,"lon":121.518147,"name":"牛老大涮牛肉","decorType":"restaurant"},{"id":"node-4160651809","lat":25.065771,"lon":121.518126,"name":"馬可先生","decorType":"bakery"},{"id":"node-4160651810","lat":25.065362,"lon":121.518122,"name":"7-Eleven","decorType":"convenience"},{"id":"node-4160651813","lat":25.065224,"lon":121.51855,"name":"7-Eleven","decorType":"convenience"},{"id":"node-4175821990","lat":25.06279,"lon":121.514885,"name":"珠記大橋頭油飯","decorType":"restaurant"},{"id":"node-4206677963","lat":25.069865,"lon":121.519737,"name":"21工房","decorType":"restaurant"},{"id":"node-4225593280","lat":25.054802,"lon":121.5202,"name":"Ilha Formosa Cafe","decorType":"cafe"},{"id":"node-4236764836","lat":25.054658,"lon":121.515032,"name":"191寧夏旅店","decorType":"hotel"},{"id":"node-4265555089","lat":25.05552,"lon":121.511576,"name":"老媽麵店","decorType":"restaurant"},{"id":"node-4317096446","lat":25.055761,"lon":121.511558,"name":"加福奇士蛋糕","decorType":"sweetshop"},{"id":"node-4317096447","lat":25.055638,"lon":121.51157,"name":"十字軒糕餅舖","decorType":"sweetshop"},{"id":"node-4317096448","lat":25.054774,"lon":121.511858,"name":"義美食品","decorType":"convenience"},{"id":"node-4318556090","lat":25.054546,"lon":121.514519,"name":"三元號","decorType":"restaurant"},{"id":"node-4338081989","lat":25.055416,"lon":121.516762,"name":"家樂福","decorType":"supermarket"},{"id":"node-4340216595","lat":25.056056,"lon":121.515198,"name":"寧夏素食","decorType":"restaurant"},{"id":"node-4341417590","lat":25.057894,"lon":121.521345,"name":"阿瘦皮鞋","decorType":"clothing"},{"id":"node-4344542422","lat":25.055169,"lon":121.521191,"name":"公寓咖啡館","decorType":"restaurant"},{"id":"node-4344543604","lat":25.055165,"lon":121.521123,"name":"長春飯館","decorType":"restaurant"},{"id":"node-4351000299","lat":25.056906,"lon":121.515556,"name":"大昌沙拉船","decorType":"restaurant"},{"id":"node-4353617480","lat":25.057567,"lon":121.521001,"name":"麵店","decorType":"restaurant"},{"id":"node-4353617481","lat":25.057573,"lon":121.521039,"name":"水果","decorType":"supermarket"},{"id":"node-4353617482","lat":25.057586,"lon":121.521117,"name":"屈臣氏","decorType":"pharmacy"},{"id":"node-4353617487","lat":25.0576,"lon":121.521173,"name":"Giordano","decorType":"clothing"},{"id":"node-4355316077","lat":25.057611,"lon":121.521285,"name":"瑞松電器公司","decorType":"electronics"},{"id":"node-4355316078","lat":25.057599,"lon":121.521342,"name":"馬可先生麵包坊","decorType":"bakery"},{"id":"node-4397232199","lat":25.05762,"lon":121.521546,"name":"巧味包子饅頭","decorType":"restaurant"},{"id":"node-4397232200","lat":25.057627,"lon":121.521607,"name":"美蓉刀削麵之家","decorType":"restaurant"},{"id":"node-4397232201","lat":25.057632,"lon":121.521662,"name":"三花生活館","decorType":"hardware"},{"id":"node-4397232202","lat":25.057645,"lon":121.521721,"name":"達生中西藥行","decorType":"pharmacy"},{"id":"node-4397232203","lat":25.057655,"lon":121.521772,"name":"iROO","decorType":"clothing"},{"id":"node-4397232205","lat":25.057637,"lon":121.521922,"name":"民生雙連食堂","decorType":"restaurant"},{"id":"node-4397232207","lat":25.057672,"lon":121.521957,"name":"日藥本舖","decorType":"pharmacy"},{"id":"node-4397232208","lat":25.057674,"lon":121.521993,"name":"彩虹全球3C","decorType":"electronics"},{"id":"node-4397232210","lat":25.05767,"lon":121.522084,"name":"Mamaway媽媽餵孕婦裝","decorType":"clothing"},{"id":"node-4400929026","lat":25.06976,"lon":121.520219,"name":"捷運圓山站(玉門街)","decorType":"bus_stop"},{"id":"node-4424881797","lat":25.064153,"lon":121.518537,"name":"維格餅家","decorType":"sweetshop"},{"id":"node-4429728194","lat":25.060772,"lon":121.51495,"name":"涼州街無名涼麵","decorType":"restaurant"},{"id":"node-4429913290","lat":25.059359,"lon":121.51276,"name":"呷二嘴","decorType":"restaurant"},{"id":"node-4430893490","lat":25.054827,"lon":121.510604,"name":"永樂車輪餅","decorType":"bakery"},{"id":"node-4440624790","lat":25.056554,"lon":121.515318,"name":"千歲宴","decorType":"restaurant"},{"id":"node-4440636290","lat":25.055761,"lon":121.515254,"name":"劉芋仔蛋黄芋餅","decorType":"sweetshop"},{"id":"node-4520803812","lat":25.05716,"lon":121.517951,"name":"宸品咖啡","decorType":"cafe"},{"id":"node-4524400584","lat":25.057049,"lon":121.516502,"name":"雙連市場","decorType":"bus_stop"},{"id":"node-4524863564","lat":25.057085,"lon":121.511389,"name":"萊爾富","decorType":"convenience"},{"id":"node-4524863566","lat":25.054601,"lon":121.520287,"name":"蘑菇","decorType":"cafe"},{"id":"node-4524864139","lat":25.058337,"lon":121.511648,"name":"7-Eleven","decorType":"convenience"},{"id":"node-4524864142","lat":25.057046,"lon":121.511049,"name":"7-Eleven","decorType":"convenience"},{"id":"node-4524864143","lat":25.057119,"lon":121.510388,"name":"啟文飯店","decorType":"hotel"},{"id":"node-4533443390","lat":25.06595,"lon":121.516963,"name":"手工蛋餅","decorType":"restaurant"},{"id":"node-4535893293","lat":25.068692,"lon":121.514499,"name":"廣嚴閣","decorType":"shrine"},{"id":"node-4549415489","lat":25.058079,"lon":121.511656,"name":"意麵王","decorType":"restaurant"},{"id":"node-4563648141","lat":25.056715,"lon":121.515368,"name":"鬍鬚張","decorType":"restaurant"},{"id":"node-4563700391","lat":25.056359,"lon":121.515275,"name":"圓環邊蚵仔煎","decorType":"restaurant"},{"id":"node-4563703690","lat":25.056749,"lon":121.515493,"name":"山東赤肉蒸餃","decorType":"restaurant"},{"id":"node-4563720689","lat":25.056408,"lon":121.515288,"name":"蔡家嘉義火雛肉飯","decorType":"restaurant"},{"id":"node-4563977990","lat":25.059191,"lon":121.509983,"name":"Doorway Cafe","decorType":"cafe"},{"id":"node-4596733575","lat":25.056969,"lon":121.516669,"name":"C U Hotel","decorType":"hotel"},{"id":"node-4633606690","lat":25.063221,"lon":121.518037,"name":"隆發五金行","decorType":"hardware"},{"id":"node-4633697989","lat":25.057125,"lon":121.517882,"name":"大埔鐵板燒","decorType":"restaurant"},{"id":"node-4634215397","lat":25.068791,"lon":121.51077,"name":"萬鄉烤鴨莊","decorType":"restaurant"},{"id":"node-4644280790","lat":25.06606,"lon":121.514635,"name":"美廉社","decorType":"supermarket"},{"id":"node-4705045000","lat":25.056875,"lon":121.5152,"name":"燦坤3C","decorType":"electronics"},{"id":"node-4705120089","lat":25.059355,"lon":121.513863,"name":"太子油飯","decorType":"restaurant"},{"id":"node-4707090391","lat":25.063237,"lon":121.51209,"name":"郵局","decorType":"post_office"},{"id":"node-4721548095","lat":25.063612,"lon":121.521255,"name":"實驗攝","decorType":"electronics"},{"id":"node-4790130021","lat":25.062749,"lon":121.513814,"name":"全家便利商店","decorType":"convenience"},{"id":"node-4809511027","lat":25.054345,"lon":121.510339,"name":"民樂旗魚米粉湯","decorType":"restaurant"},{"id":"node-4828108425","lat":25.060071,"lon":121.509232,"name":"La Lupa Classic","decorType":"restaurant"},{"id":"node-4828117121","lat":25.059514,"lon":121.509524,"name":"迪化207博物館","decorType":"art_gallery"},{"id":"node-4832102524","lat":25.063541,"lon":121.519941,"name":"路易莎咖啡","decorType":"cafe"},{"id":"node-4838086672","lat":25.062717,"lon":121.515869,"name":"全家便利商店","decorType":"convenience"},{"id":"node-4838086676","lat":25.063038,"lon":121.51906,"name":"捷運民權西路站","decorType":"bus_stop"},{"id":"node-4838086680","lat":25.062983,"lon":121.522154,"name":"BEST 最佳風情","decorType":"clothing"},{"id":"node-4838086683","lat":25.062441,"lon":121.514811,"name":"玄天宮","decorType":"shrine"},{"id":"node-4838086684","lat":25.062382,"lon":121.514551,"name":"蓬萊廟","decorType":"shrine"},{"id":"node-4838086685","lat":25.063117,"lon":121.51474,"name":"未命名郵局","decorType":"post_office"},{"id":"node-4838086687","lat":25.063147,"lon":121.516434,"name":"7-Eleven","decorType":"convenience"},{"id":"node-4838086688","lat":25.062604,"lon":121.515796,"name":"基督教新生教團重慶教會","decorType":"shrine"},{"id":"node-4838086690","lat":25.064261,"lon":121.515126,"name":"一加書店","decorType":"library"},{"id":"node-4838086691","lat":25.064959,"lon":121.515549,"name":"蘭州街湯包","decorType":"restaurant"},{"id":"node-4838086692","lat":25.064777,"lon":121.513473,"name":"未命名郵局","decorType":"post_office"},{"id":"node-4838086693","lat":25.065579,"lon":121.51652,"name":"地藏王廟","decorType":"shrine"},{"id":"node-4838086694","lat":25.065771,"lon":121.516735,"name":"紅昌吉豬血湯","decorType":"restaurant"},{"id":"node-4838086695","lat":25.065951,"lon":121.51737,"name":"永緣素食餐館","decorType":"restaurant"},{"id":"node-4838086696","lat":25.066033,"lon":121.517903,"name":"昌吉一號記憶旅店","decorType":"hotel"},{"id":"node-4838086697","lat":25.066225,"lon":121.518601,"name":"大同靈糧福音中心","decorType":"shrine"},{"id":"node-4838086698","lat":25.065877,"lon":121.518491,"name":"未命名郵局","decorType":"post_office"},{"id":"node-4838086700","lat":25.065162,"lon":121.518089,"name":"台灣長老教會圓山教會","decorType":"shrine"},{"id":"node-4838086715","lat":25.062256,"lon":121.519886,"name":"F2法式甜點","decorType":"bakery"},{"id":"node-4838087694","lat":25.054941,"lon":121.516347,"name":"玩味旅舍","decorType":"hotel"},{"id":"node-4838087695","lat":25.055277,"lon":121.516717,"name":"ID COFFEE","decorType":"cafe"},{"id":"node-4838087701","lat":25.05681,"lon":121.512089,"name":"波麗路","decorType":"restaurant"},{"id":"node-4838087702","lat":25.05682,"lon":121.511947,"name":"波麗路","decorType":"restaurant"},{"id":"node-4838087704","lat":25.054594,"lon":121.509589,"name":"轉角咖啡豆咖啡","decorType":"cafe"},{"id":"node-4838087723","lat":25.059672,"lon":121.509272,"name":"老阿伯魷魚羹","decorType":"restaurant"},{"id":"node-4838087724","lat":25.060211,"lon":121.509224,"name":"AMA Cafe","decorType":"cafe"},{"id":"node-4838087727","lat":25.059261,"lon":121.510652,"name":"佳興魚丸店","decorType":"restaurant"},{"id":"node-4838087748","lat":25.064412,"lon":121.513492,"name":"捷運大橋頭站","decorType":"bus_stop"},{"id":"node-4838087750","lat":25.065062,"lon":121.51097,"name":"雞蛋客仔煎","decorType":"restaurant"},{"id":"node-4838087751","lat":25.064072,"lon":121.510717,"name":"龍雲寺","decorType":"shrine"},{"id":"node-4838087752","lat":25.064963,"lon":121.510324,"name":"靈聖宮","decorType":"shrine"},{"id":"node-4838087753","lat":25.065969,"lon":121.510274,"name":"廣信府","decorType":"shrine"},{"id":"node-4838087754","lat":25.065779,"lon":121.510936,"name":"未命名郵局","decorType":"post_office"},{"id":"node-4838087757","lat":25.068344,"lon":121.510997,"name":"OK超商","decorType":"convenience"},{"id":"node-4838087758","lat":25.065808,"lon":121.511173,"name":"7-Eleven","decorType":"convenience"},{"id":"node-4838087759","lat":25.064391,"lon":121.511259,"name":"全家便利商店","decorType":"convenience"},{"id":"node-4838087761","lat":25.063432,"lon":121.510957,"name":"橋泰商務旅館","decorType":"hotel"},{"id":"node-4838087762","lat":25.063202,"lon":121.511042,"name":"未命名郵局","decorType":"post_office"},{"id":"node-4848960023","lat":25.056876,"lon":121.513326,"name":"燦坤3C","decorType":"electronics"},{"id":"node-4848972921","lat":25.057471,"lon":121.5155,"name":"四海豆漿大王","decorType":"restaurant"},{"id":"node-4931821023","lat":25.054625,"lon":121.51005,"name":"Lugou","decorType":"cafe"},{"id":"node-4945133722","lat":25.059336,"lon":121.513268,"name":"星巴克","decorType":"cafe"},{"id":"node-4945137021","lat":25.059095,"lon":121.514035,"name":"爭鮮","decorType":"restaurant"},{"id":"node-4953075493","lat":25.056871,"lon":121.51498,"name":"7-Eleven","decorType":"convenience"},{"id":"node-4953075501","lat":25.060634,"lon":121.512614,"name":"阿輝牛肉","decorType":"restaurant"},{"id":"node-4973714947","lat":25.059323,"lon":121.509546,"name":"鹹花生","decorType":"cafe"},{"id":"node-4973810990","lat":25.054657,"lon":121.510012,"name":"二十年代","decorType":"library"},{"id":"node-5001056822","lat":25.055013,"lon":121.50921,"name":"破朽","decorType":"clothing"},{"id":"node-5052921367","lat":25.057893,"lon":121.521502,"name":"雙連高記水餃","decorType":"restaurant"},{"id":"node-5052921368","lat":25.057901,"lon":121.5214,"name":"康是美","decorType":"pharmacy"},{"id":"node-5052921369","lat":25.057914,"lon":121.521564,"name":"三五手工水餃","decorType":"restaurant"},{"id":"node-5110488710","lat":25.060242,"lon":121.521042,"name":"Rayca Coffee","decorType":"cafe"},{"id":"node-5110488711","lat":25.060443,"lon":121.52131,"name":"肉老大","decorType":"restaurant"},{"id":"node-5110488712","lat":25.060455,"lon":121.520788,"name":"雅式食品","decorType":"bakery"},{"id":"node-5110488714","lat":25.05918,"lon":121.521691,"name":"好佳麵食館","decorType":"restaurant"},{"id":"node-5110488715","lat":25.059324,"lon":121.521713,"name":"維康醫療用品(北馬院外店)","decorType":"convenience"},{"id":"node-5110488716","lat":25.059159,"lon":121.521559,"name":"佳佳豆漿","decorType":"restaurant"},{"id":"node-5110488718","lat":25.060221,"lon":121.521454,"name":"50嵐","decorType":"cafe"},{"id":"node-5110488719","lat":25.060223,"lon":121.521595,"name":"春天連鎖藥局","decorType":"pharmacy"},{"id":"node-5110488720","lat":25.060217,"lon":121.521667,"name":"全聯福利中心","decorType":"supermarket"},{"id":"node-5110488921","lat":25.060248,"lon":121.52135,"name":"燦坤3C","decorType":"electronics"},{"id":"node-5110488922","lat":25.060543,"lon":121.521417,"name":"永靜廟","decorType":"shrine"},{"id":"node-5110488923","lat":25.060617,"lon":121.520607,"name":"九府先師普惠堂","decorType":"shrine"},{"id":"node-5110489230","lat":25.056932,"lon":121.516116,"name":"賴家蛤仔煎","decorType":"restaurant"},{"id":"node-5110489231","lat":25.056919,"lon":121.516452,"name":"建成分館","decorType":"library"},{"id":"node-5110489232","lat":25.056859,"lon":121.514222,"name":"全國電子","decorType":"electronics"},{"id":"node-5110489239","lat":25.056754,"lon":121.513594,"name":"WENDY","decorType":"clothing"},{"id":"node-5110489241","lat":25.055797,"lon":121.513826,"name":"7-Eleven","decorType":"convenience"},{"id":"node-5110491055","lat":25.062995,"lon":121.522048,"name":"ARTCO DE CAFE","decorType":"cafe"},{"id":"node-5110491056","lat":25.062584,"lon":121.521195,"name":"全家便利商店","decorType":"convenience"},{"id":"node-5110491057","lat":25.062583,"lon":121.521296,"name":"美術系壽司","decorType":"restaurant"},{"id":"node-5110491058","lat":25.062591,"lon":121.520969,"name":"洪瑞珍三明治","decorType":"bakery"},{"id":"node-5144548821","lat":25.054812,"lon":121.520051,"name":"Coffee Stand By Me","decorType":"cafe"},{"id":"node-5208155828","lat":25.054656,"lon":121.509979,"name":"未命名咖啡廳","decorType":"cafe"},{"id":"node-5236381023","lat":25.056838,"lon":121.511487,"name":"果原農產行","decorType":"supermarket"},{"id":"node-5251477699","lat":25.059913,"lon":121.521939,"name":"家鄉味水餃","decorType":"restaurant"},{"id":"node-5251477700","lat":25.057873,"lon":121.521227,"name":"留乃堂","decorType":"bakery"},{"id":"node-5251477701","lat":25.059922,"lon":121.521895,"name":"家和素食","decorType":"restaurant"},{"id":"node-5274513724","lat":25.054984,"lon":121.510595,"name":"林合發油飯","decorType":"restaurant"},{"id":"node-5314334356","lat":25.06508,"lon":121.509669,"name":"大橋教會","decorType":"shrine"},{"id":"node-5314334357","lat":25.0628,"lon":121.512721,"name":"未命名郵局","decorType":"post_office"},{"id":"node-5332524926","lat":25.05437,"lon":121.510555,"name":"金仙魚丸店","decorType":"restaurant"},{"id":"node-5335025723","lat":25.054845,"lon":121.51141,"name":"未命名超市","decorType":"supermarket"},{"id":"node-5335039022","lat":25.054984,"lon":121.514389,"name":"未命名餐廳","decorType":"restaurant"},{"id":"node-5335045521","lat":25.056802,"lon":121.51039,"name":"未命名超市","decorType":"supermarket"},{"id":"node-5335045621","lat":25.056845,"lon":121.50975,"name":"妙口四神湯.肉包專賣店","decorType":"restaurant"},{"id":"node-5340265923","lat":25.055777,"lon":121.513833,"name":"林三益旗艦店","decorType":"cosmetics"},{"id":"node-5342451422","lat":25.054704,"lon":121.514484,"name":"龍緣魯肉飯","decorType":"restaurant"},{"id":"node-5344337522","lat":25.068921,"lon":121.510955,"name":"津津豆漿","decorType":"restaurant"},{"id":"node-5344367621","lat":25.06857,"lon":121.511069,"name":"老牌張豬腳飯","decorType":"restaurant"},{"id":"node-5490093322","lat":25.063206,"lon":121.512603,"name":"未命名車站","decorType":"station"},{"id":"node-5493901122","lat":25.055684,"lon":121.521978,"name":"跳舞咖啡廳","decorType":"restaurant"},{"id":"node-5544090027","lat":25.057124,"lon":121.519912,"name":"蜜菓拾伍甜點店","decorType":"cafe"},{"id":"node-5636490721","lat":25.061127,"lon":121.520343,"name":"豆咖鮮烘咖啡坊","decorType":"cafe"},{"id":"node-5643524621","lat":25.056314,"lon":121.515271,"name":"感恩牛羊肉小館","decorType":"restaurant"},{"id":"node-5643534921","lat":25.056991,"lon":121.516371,"name":"阿川","decorType":"restaurant"},{"id":"node-5666895650","lat":25.065956,"lon":121.521718,"name":"學餐:大野狼小火鍋蓋飯","decorType":"restaurant"},{"id":"node-5666895651","lat":25.065999,"lon":121.521823,"name":"學餐:早餐店","decorType":"restaurant"},{"id":"node-5666895652","lat":25.066045,"lon":121.521698,"name":"學餐:自助餐","decorType":"restaurant"},{"id":"node-5666895653","lat":25.065972,"lon":121.521785,"name":"學餐:義大利麵店","decorType":"restaurant"},{"id":"node-5666895654","lat":25.065949,"lon":121.521662,"name":"學餐:滷味","decorType":"restaurant"},{"id":"node-5666895655","lat":25.065938,"lon":121.521594,"name":"學餐:中華麵店","decorType":"restaurant"},{"id":"node-5666895656","lat":25.06597,"lon":121.521545,"name":"學餐:麵包店","decorType":"restaurant"},{"id":"node-5666895657","lat":25.066147,"lon":121.52169,"name":"學餐:手搖飲料店","decorType":"restaurant"},{"id":"node-5666895658","lat":25.066113,"lon":121.521461,"name":"理髮廳","decorType":"hair_salon"},{"id":"node-5666994085","lat":25.066638,"lon":121.521992,"name":"學餐:早餐","decorType":"restaurant"},{"id":"node-5666994086","lat":25.066591,"lon":121.521987,"name":"學餐:早餐&滷味","decorType":"restaurant"},{"id":"node-5666994087","lat":25.066558,"lon":121.521982,"name":"學餐:手搖影料店","decorType":"restaurant"},{"id":"node-5667002227","lat":25.066475,"lon":121.52197,"name":"學餐:日韓料理&炸物","decorType":"restaurant"},{"id":"node-5667002228","lat":25.066159,"lon":121.521921,"name":"學餐:自助餐","decorType":"restaurant"},{"id":"node-5843095485","lat":25.060243,"lon":121.519823,"name":"未命名咖啡廳","decorType":"cafe"},{"id":"node-5843097587","lat":25.059693,"lon":121.515113,"name":"Laundry","decorType":"laundry"},{"id":"node-5843180886","lat":25.05878,"lon":121.514938,"name":"Steep Stairs","decorType":"cafe"},{"id":"node-5851984997","lat":25.068747,"lon":121.514161,"name":"正中藥局","decorType":"pharmacy"},{"id":"node-5851985004","lat":25.06983,"lon":121.515485,"name":"龍安宮","decorType":"shrine"},{"id":"node-5851985016","lat":25.066495,"lon":121.516923,"name":"順天府","decorType":"shrine"},{"id":"node-5851985017","lat":25.066497,"lon":121.516833,"name":"蓮興宮","decorType":"shrine"},{"id":"node-5851985018","lat":25.066495,"lon":121.516731,"name":"民聖堂","decorType":"shrine"},{"id":"node-5851985019","lat":25.066297,"lon":121.516806,"name":"朝安宮","decorType":"shrine"},{"id":"node-5851985020","lat":25.066301,"lon":121.516712,"name":"澤安宮","decorType":"shrine"},{"id":"node-5851985024","lat":25.069074,"lon":121.514475,"name":"民族教會","decorType":"shrine"},{"id":"node-5851985026","lat":25.067376,"lon":121.517335,"name":"老地方牛肉麵","decorType":"restaurant"},{"id":"node-5851985027","lat":25.066593,"lon":121.516708,"name":"北安府","decorType":"shrine"},{"id":"node-5851985028","lat":25.066258,"lon":121.516272,"name":"台北行天府","decorType":"shrine"},{"id":"node-5851985029","lat":25.065683,"lon":121.51591,"name":"7-Eleven","decorType":"convenience"},{"id":"node-5851985030","lat":25.066232,"lon":121.515811,"name":"景福宮","decorType":"shrine"},{"id":"node-5851985032","lat":25.067357,"lon":121.516058,"name":"全家便利商店","decorType":"convenience"},{"id":"node-5851985033","lat":25.066829,"lon":121.515256,"name":"報安堂","decorType":"shrine"},{"id":"node-5851985034","lat":25.066975,"lon":121.515476,"name":"五龍宮","decorType":"shrine"},{"id":"node-5851985037","lat":25.067799,"lon":121.514757,"name":"太子壜","decorType":"shrine"},{"id":"node-5883211185","lat":25.056662,"lon":121.515333,"name":"青蛙下","decorType":"burger"},{"id":"node-6024333533","lat":25.060034,"lon":121.509314,"name":"同安樂","decorType":"restaurant"},{"id":"node-6026319586","lat":25.068365,"lon":121.519515,"name":"鴉咖啡","decorType":"cafe"},{"id":"node-6114015235","lat":25.061855,"lon":121.514801,"name":"未命名公園","decorType":"park"},{"id":"node-6129972003","lat":25.065739,"lon":121.517373,"name":"好杯咖啡","decorType":"cafe"},{"id":"node-6204895486","lat":25.058218,"lon":121.51173,"name":"Apple 203","decorType":"restaurant"},{"id":"node-6253878186","lat":25.054661,"lon":121.52081,"name":"銷魂麵舖","decorType":"restaurant"},{"id":"node-6259442485","lat":25.065832,"lon":121.518618,"name":"臺北大同郵局","decorType":"post_office"},{"id":"node-6334684521","lat":25.058128,"lon":121.512464,"name":"清心福全","decorType":"cafe"},{"id":"node-6384886387","lat":25.055554,"lon":121.509611,"name":"Chance Cafe","decorType":"cafe"},{"id":"node-6400241777","lat":25.05826,"lon":121.513009,"name":"全家便利商店","decorType":"convenience"},{"id":"node-6403449999","lat":25.058378,"lon":121.511017,"name":"八方雲集","decorType":"burger"},{"id":"node-6418121431","lat":25.062566,"lon":121.511607,"name":"久居棧旅店","decorType":"hotel"},{"id":"node-6418121441","lat":25.057394,"lon":121.517794,"name":"未命名拉麵店","decorType":"ramen"},{"id":"node-6418121442","lat":25.062411,"lon":121.511122,"name":"鞋全家福","decorType":"clothing"},{"id":"node-6418121443","lat":25.063135,"lon":121.511992,"name":"Lucky Foot","decorType":"cafe"},{"id":"node-6418121448","lat":25.062693,"lon":121.511701,"name":"未命名美髮院","decorType":"hair_salon"},{"id":"node-6418121458","lat":25.062425,"lon":121.511371,"name":"萊爾富","decorType":"convenience"},{"id":"node-6422218527","lat":25.054907,"lon":121.509282,"name":"有木的森","decorType":"cafe"},{"id":"node-6433456342","lat":25.05487,"lon":121.511852,"name":"行冊","decorType":"restaurant"},{"id":"node-6433456343","lat":25.054837,"lon":121.511335,"name":"永久號","decorType":"restaurant"},{"id":"node-6433466703","lat":25.054594,"lon":121.511865,"name":"森林小鎮洗衣店","decorType":"laundry"},{"id":"node-6440001986","lat":25.055998,"lon":121.515181,"name":"明吉小館","decorType":"restaurant"},{"id":"node-6499848126","lat":25.057678,"lon":121.510517,"name":"未命名咖啡廳","decorType":"cafe"},{"id":"node-6499848128","lat":25.054617,"lon":121.510262,"name":"早餐吃了沒","decorType":"restaurant"},{"id":"node-6499848129","lat":25.057518,"lon":121.51064,"name":"也賣咖啡","decorType":"cafe"},{"id":"node-6499848138","lat":25.058138,"lon":121.51272,"name":"未命名美髮院","decorType":"hair_salon"},{"id":"node-6499848145","lat":25.056457,"lon":121.510613,"name":"未命名咖啡廳","decorType":"cafe"},{"id":"node-6499848151","lat":25.05752,"lon":121.510898,"name":"未命名漢堡店","decorType":"burger"},{"id":"node-6499848154","lat":25.05761,"lon":121.510625,"name":"Station 26","decorType":"cafe"},{"id":"node-6499848155","lat":25.057643,"lon":121.510417,"name":"玩藝工廠","decorType":"art_gallery"},{"id":"node-6499848158","lat":25.058138,"lon":121.512678,"name":"未命名漢堡店","decorType":"burger"},{"id":"node-6499848161","lat":25.058129,"lon":121.512166,"name":"未命名自主洗衣店&乾洗店","decorType":"laundry"},{"id":"node-6499848163","lat":25.057898,"lon":121.513068,"name":"未命名公園","decorType":"park"},{"id":"node-6499848164","lat":25.056597,"lon":121.511742,"name":"OH MI! CAFE","decorType":"cafe"},{"id":"node-6499848166","lat":25.057616,"lon":121.510522,"name":"未命名咖啡廳","decorType":"cafe"},{"id":"node-6499848167","lat":25.057422,"lon":121.510654,"name":"DaMa kitchen","decorType":"burger"},{"id":"node-6499848168","lat":25.057133,"lon":121.51396,"name":"台南碗粿","decorType":"restaurant"},{"id":"node-6499848170","lat":25.05813,"lon":121.512227,"name":"Jian Shan","decorType":"hotel"},{"id":"node-6499848176","lat":25.058562,"lon":121.511376,"name":"福州料理","decorType":"restaurant"},{"id":"node-6499848183","lat":25.058106,"lon":121.511896,"name":"鮮堡漢堡","decorType":"burger"},{"id":"node-6510454287","lat":25.058237,"lon":121.51276,"name":"世界美食","decorType":"restaurant"},{"id":"node-6516663886","lat":25.059695,"lon":121.513761,"name":"未命名自主洗衣店&乾洗店","decorType":"laundry"},{"id":"node-6559456885","lat":25.065811,"lon":121.516624,"name":"拉亞漢堡","decorType":"burger"},{"id":"node-6579380113","lat":25.066017,"lon":121.510929,"name":"錢都","decorType":"restaurant"},{"id":"node-6579380114","lat":25.065465,"lon":121.512842,"name":"未命名公園","decorType":"park"},{"id":"node-6579380116","lat":25.065878,"lon":121.511693,"name":"牡丹居","decorType":"hotel"},{"id":"node-6579661152","lat":25.058195,"lon":121.510319,"name":"孵咖啡洋館","decorType":"cafe"},{"id":"node-6579661153","lat":25.062078,"lon":121.50917,"name":"孵咖啡","decorType":"cafe"},{"id":"node-6579661155","lat":25.062051,"lon":121.509813,"name":"未命名便利商店","decorType":"convenience"},{"id":"node-6579661157","lat":25.060955,"lon":121.509256,"name":"Modern mode café","decorType":"cafe"},{"id":"node-6579661158","lat":25.058336,"lon":121.5111,"name":"正心牛肉飯麵館","decorType":"restaurant"},{"id":"node-6579661159","lat":25.058271,"lon":121.510016,"name":"琢磨","decorType":"cafe"},{"id":"node-6681493385","lat":25.056443,"lon":121.509843,"name":"度小月擔仔麵","decorType":"restaurant"},{"id":"node-6709918285","lat":25.055675,"lon":121.520135,"name":"三角三圓","decorType":"restaurant"},{"id":"node-6720843989","lat":25.062783,"lon":121.512917,"name":"肉羹 魯肉飯","decorType":"restaurant"},{"id":"node-6720843990","lat":25.062746,"lon":121.512648,"name":"未命名郵局","decorType":"post_office"},{"id":"node-6720844000","lat":25.06252,"lon":121.511541,"name":"未命名漢堡店","decorType":"burger"},{"id":"node-6720844003","lat":25.062782,"lon":121.513386,"name":"未命名漢堡店","decorType":"burger"},{"id":"node-6720844005","lat":25.062355,"lon":121.511352,"name":"Just for U","decorType":"burger"},{"id":"node-6720844007","lat":25.05933,"lon":121.51135,"name":"擺渡咖啡","decorType":"cafe"},{"id":"node-6720844008","lat":25.05525,"lon":121.510219,"name":"未命名神社","decorType":"shrine"},{"id":"node-6720844009","lat":25.062272,"lon":121.513756,"name":"Pythonism","decorType":"cafe"},{"id":"node-6720844023","lat":25.057327,"lon":121.510674,"name":"未命名漢堡店","decorType":"burger"},{"id":"node-6720844025","lat":25.069212,"lon":121.518587,"name":"一流男士西服","decorType":"clothing"},{"id":"node-6720844026","lat":25.06279,"lon":121.51329,"name":"Qburger","decorType":"burger"},{"id":"node-6720844029","lat":25.062049,"lon":121.510587,"name":"Lab Man Mano","decorType":"cafe"},{"id":"node-6720844030","lat":25.062757,"lon":121.512429,"name":"一品佳油飯","decorType":"restaurant"},{"id":"node-6720844031","lat":25.062789,"lon":121.513048,"name":"品越小館","decorType":"cafe"},{"id":"node-6720844035","lat":25.056803,"lon":121.510775,"name":"Sugar Café bar","decorType":"cafe"},{"id":"node-6720844039","lat":25.062326,"lon":121.511367,"name":"未命名漢堡店","decorType":"burger"},{"id":"node-6858306521","lat":25.060127,"lon":121.514617,"name":"大同分局","decorType":"bus_stop"},{"id":"node-6872618285","lat":25.057125,"lon":121.519795,"name":"小良絆","decorType":"restaurant"},{"id":"node-6886468241","lat":25.063377,"lon":121.511704,"name":"未命名車站","decorType":"station"},{"id":"node-6900173326","lat":25.062209,"lon":121.511483,"name":"阿角紅燒肉","decorType":"restaurant"},{"id":"node-6925887686","lat":25.056225,"lon":121.510975,"name":"迪化街32巷口米粉湯","decorType":"restaurant"},{"id":"node-6925916485","lat":25.067321,"lon":121.511053,"name":"旗魚新竹米粉","decorType":"restaurant"},{"id":"node-6939523047","lat":25.05895,"lon":121.518896,"name":"雷達壇","decorType":"shrine"},{"id":"node-6939523049","lat":25.058775,"lon":121.519113,"name":"雙福宮","decorType":"shrine"},{"id":"node-6939523050","lat":25.058287,"lon":121.518994,"name":"皇冠租書","decorType":"library"},{"id":"node-6939523052","lat":25.058479,"lon":121.519145,"name":"滿庭香滷肉飯","decorType":"restaurant"},{"id":"node-6939523053","lat":25.058148,"lon":121.519177,"name":"品香越南牛肉河粉","decorType":"restaurant"},{"id":"node-6939523055","lat":25.057939,"lon":121.51922,"name":"雙連街滷肉飯","decorType":"restaurant"},{"id":"node-6939523056","lat":25.05782,"lon":121.518688,"name":"三聖堂","decorType":"shrine"},{"id":"node-6939523061","lat":25.057402,"lon":121.519669,"name":"達芙妮","decorType":"clothing"},{"id":"node-6944250287","lat":25.057447,"lon":121.510646,"name":"永樂米苔目","decorType":"restaurant"},{"id":"node-7008579986","lat":25.056838,"lon":121.514351,"name":"霸味薑母鴨民生西店","decorType":"restaurant"},{"id":"node-7014022773","lat":25.063509,"lon":121.511072,"name":"林家鯊魚煙","decorType":"burger"},{"id":"node-7014033279","lat":25.064368,"lon":121.51116,"name":"大橋頭延三夜市蒸餃","decorType":"restaurant"},{"id":"node-7021208675","lat":25.057273,"lon":121.513952,"name":"大橋頭筒仔米糕","decorType":"restaurant"},{"id":"node-7037347315","lat":25.05785,"lon":121.521014,"name":"唐滷","decorType":"restaurant"},{"id":"node-7037347316","lat":25.057868,"lon":121.521074,"name":"鶴 現滷滷味","decorType":"restaurant"},{"id":"node-7037347317","lat":25.057831,"lon":121.520961,"name":"源美素食","decorType":"restaurant"},{"id":"node-7090080380","lat":25.058959,"lon":121.510282,"name":"未命名公園","decorType":"park"},{"id":"node-7129638620","lat":25.056243,"lon":121.519559,"name":"紅拾玖","decorType":"burger"},{"id":"node-7130046505","lat":25.057106,"lon":121.512607,"name":"新芳春","decorType":"art_gallery"},{"id":"node-7170215707","lat":25.063516,"lon":121.511281,"name":"保記小籠包","decorType":"restaurant"},{"id":"node-7170215708","lat":25.063538,"lon":121.511058,"name":"黃大腸煎","decorType":"restaurant"},{"id":"node-7170215709","lat":25.063684,"lon":121.511037,"name":"素麵線攤","decorType":"restaurant"},{"id":"node-7170215710","lat":25.064207,"lon":121.511008,"name":"魏祥記純糖麻糬","decorType":"restaurant"},{"id":"node-7170215711","lat":25.063854,"lon":121.511279,"name":"灶頂","decorType":"restaurant"},{"id":"node-7170215712","lat":25.063999,"lon":121.511284,"name":"麻辣鹽水雞健康蔬菜","decorType":"restaurant"},{"id":"node-7170215713","lat":25.064097,"lon":121.511222,"name":"阿欉大橋頭肉粽","decorType":"restaurant"},{"id":"node-7170215714","lat":25.064088,"lon":121.511026,"name":"台北橋頭滷肉飯","decorType":"restaurant"},{"id":"node-7170215715","lat":25.064134,"lon":121.511013,"name":"林記牛肉麵","decorType":"restaurant"},{"id":"node-7170215716","lat":25.064747,"lon":121.511063,"name":"汕頭四神湯刈包肉粽","decorType":"restaurant"},{"id":"node-7170215717","lat":25.064884,"lon":121.511014,"name":"大呼過癮臭臭鍋","decorType":"restaurant"},{"id":"node-7170215718","lat":25.06491,"lon":121.510994,"name":"東石鮮蚵","decorType":"restaurant"},{"id":"node-7170215719","lat":25.065152,"lon":121.511015,"name":"汕頭牛肉麵","decorType":"restaurant"},{"id":"node-7170215720","lat":25.065239,"lon":121.511166,"name":"寶神涮涮鍋","decorType":"restaurant"},{"id":"node-7170215721","lat":25.065375,"lon":121.510966,"name":"大橋頭魯肉飯","decorType":"restaurant"},{"id":"node-7170215722","lat":25.065449,"lon":121.511201,"name":"胖老爹美式炸雞","decorType":"burger"},{"id":"node-7170215723","lat":25.065409,"lon":121.511155,"name":"帝一好生猛快炒","decorType":"restaurant"},{"id":"node-7194693214","lat":25.069019,"lon":121.522092,"name":"肉舖廚房","decorType":"restaurant"},{"id":"node-7194693264","lat":25.069362,"lon":121.513488,"name":"貳分之一串燒丼飯","decorType":"restaurant"},{"id":"node-7194693284","lat":25.066031,"lon":121.514126,"name":"紅蘿蔔早餐店","decorType":"restaurant"},{"id":"node-7194706692","lat":25.068954,"lon":121.522068,"name":"三隻獅子英國餐廳 The Three Lions Inn","decorType":"restaurant"},{"id":"node-7194706712","lat":25.065834,"lon":121.513307,"name":"武吉家","decorType":"restaurant"},{"id":"node-7194706742","lat":25.069676,"lon":121.519648,"name":"駱師父醬味川客菜","decorType":"restaurant"},{"id":"node-7194706762","lat":25.066123,"lon":121.51861,"name":"靈芝茶藝館","decorType":"restaurant"},{"id":"node-7194706769","lat":25.069302,"lon":121.522143,"name":"POPEYE波派地中海料理餐廳","decorType":"restaurant"},{"id":"node-7194706774","lat":25.068365,"lon":121.513469,"name":"英仕堡早餐店","decorType":"restaurant"},{"id":"node-7194706789","lat":25.065839,"lon":121.513221,"name":"認真煮麵","decorType":"restaurant"},{"id":"node-7194706823","lat":25.06956,"lon":121.519627,"name":"如意泰式料理","decorType":"restaurant"},{"id":"node-7194706842","lat":25.068117,"lon":121.518974,"name":"農物小舖","decorType":"restaurant"},{"id":"node-7194706849","lat":25.069173,"lon":121.513973,"name":"馥鍋日式涮涮鍋","decorType":"restaurant"},{"id":"node-7194706856","lat":25.068971,"lon":121.518632,"name":"金春發牛肉店","decorType":"restaurant"},{"id":"node-7194706924","lat":25.066413,"lon":121.513451,"name":"洪瑞珍三明治","decorType":"restaurant"},{"id":"node-7194706932","lat":25.065888,"lon":121.513019,"name":"台北橋頭魯肉飯","decorType":"restaurant"},{"id":"node-7194706939","lat":25.068907,"lon":121.522036,"name":"GAUCHO高卓人","decorType":"restaurant"},{"id":"node-7194706959","lat":25.065773,"lon":121.513953,"name":"君城本家","decorType":"restaurant"},{"id":"node-7194707010","lat":25.06588,"lon":121.512881,"name":"美而美","decorType":"restaurant"},{"id":"node-7205578387","lat":25.055622,"lon":121.520296,"name":"Miss V Bakery","decorType":"bakery"},{"id":"node-7214103918","lat":25.059221,"lon":121.512072,"name":"延平分館","decorType":"library"},{"id":"node-7216196568","lat":25.060815,"lon":121.513113,"name":"涼州重慶路口","decorType":"bus_stop"},{"id":"node-7216987765","lat":25.068824,"lon":121.512155,"name":"全聯福利中心","decorType":"supermarket"},{"id":"node-7216987766","lat":25.068467,"lon":121.51245,"name":"7-Eleven","decorType":"convenience"},{"id":"node-7216987767","lat":25.055191,"lon":121.511005,"name":"紅燒土鯽魚鯗","decorType":"restaurant"},{"id":"node-7216987768","lat":25.055245,"lon":121.510998,"name":"古早口味水餃阿姨的店","decorType":"restaurant"},{"id":"node-7216987769","lat":25.055299,"lon":121.510994,"name":"海山便當","decorType":"restaurant"},{"id":"node-7216987770","lat":25.055342,"lon":121.510997,"name":"四十年歷史魷魚羹","decorType":"restaurant"},{"id":"node-7216987771","lat":25.056022,"lon":121.510777,"name":"幹嘛西班牙酒館","decorType":"restaurant"},{"id":"node-7217000493","lat":25.060442,"lon":121.511482,"name":"延平四面佛","decorType":"shrine"},{"id":"node-7217000496","lat":25.059763,"lon":121.512104,"name":"小葉海鮮","decorType":"restaurant"},{"id":"node-7217000497","lat":25.059797,"lon":121.512008,"name":"秀秀小吃店","decorType":"restaurant"},{"id":"node-7217000500","lat":25.058434,"lon":121.512854,"name":"棟發鼓亭","decorType":"art_gallery"},{"id":"node-7296140686","lat":25.063471,"lon":121.518517,"name":"美加炸雞","decorType":"burger"},{"id":"node-7343439093","lat":25.055784,"lon":121.515001,"name":"越春真","decorType":"restaurant"},{"id":"node-7643770585","lat":25.057288,"lon":121.517293,"name":"文大叔蔬食麵线","decorType":"restaurant"},{"id":"node-7652736150","lat":25.059145,"lon":121.511647,"name":"葳皇時尚飯店","decorType":"hotel"},{"id":"node-7652736151","lat":25.059316,"lon":121.511607,"name":"意芙旅店","decorType":"hotel"},{"id":"node-7652736155","lat":25.059299,"lon":121.512934,"name":"保慶藥局","decorType":"pharmacy"},{"id":"node-7652736181","lat":25.059015,"lon":121.514054,"name":"三商巧福","decorType":"restaurant"},{"id":"node-7652736182","lat":25.059107,"lon":121.514196,"name":"百八魚場","decorType":"restaurant"},{"id":"node-7652736183","lat":25.059024,"lon":121.514195,"name":"薩莉亞","decorType":"restaurant"},{"id":"node-7682149834","lat":25.05575,"lon":121.50991,"name":"三銘大藥局","decorType":"pharmacy"},{"id":"node-7747684806","lat":25.063676,"lon":121.515931,"name":"美又堡","decorType":"restaurant"},{"id":"node-7747684815","lat":25.063331,"lon":121.516052,"name":"尚品香","decorType":"restaurant"},{"id":"node-7749776768","lat":25.061907,"lon":121.521201,"name":"一口良甜-甜點工作室","decorType":"restaurant"},{"id":"node-7749776782","lat":25.061654,"lon":121.521147,"name":"麵線傳奇","decorType":"restaurant"},{"id":"node-7749776784","lat":25.061742,"lon":121.52049,"name":"吉祥海鮮樓","decorType":"restaurant"},{"id":"node-7749782388","lat":25.061756,"lon":121.520834,"name":"品司和食","decorType":"restaurant"},{"id":"node-7749782392","lat":25.061648,"lon":121.520909,"name":"美而美","decorType":"restaurant"},{"id":"node-7749782394","lat":25.061474,"lon":121.520953,"name":"頂香快餐","decorType":"restaurant"},{"id":"node-7749782398","lat":25.062331,"lon":121.519828,"name":"F2 法式甜點","decorType":"restaurant"},{"id":"node-7749782399","lat":25.062062,"lon":121.521147,"name":"十方緣養生素食","decorType":"restaurant"},{"id":"node-7749782402","lat":25.062184,"lon":121.519879,"name":"冰豆","decorType":"restaurant"},{"id":"node-7749782403","lat":25.06173,"lon":121.521153,"name":"潘朵拉複合式早午餐店","decorType":"restaurant"},{"id":"node-7749782412","lat":25.061936,"lon":121.520119,"name":"天善素苑","decorType":"restaurant"},{"id":"node-7749782413","lat":25.062631,"lon":121.519968,"name":"麥當勞","decorType":"burger"},{"id":"node-7749782414","lat":25.062354,"lon":121.520505,"name":"天祥豬腳飯","decorType":"restaurant"},{"id":"node-7749782415","lat":25.062445,"lon":121.520428,"name":"巷仔內","decorType":"restaurant"},{"id":"node-7749782416","lat":25.062635,"lon":121.520446,"name":"頂呱呱","decorType":"burger"},{"id":"node-7749782419","lat":25.062972,"lon":121.509223,"name":"如記蔬廚","decorType":"restaurant"},{"id":"node-7749806934","lat":25.069197,"lon":121.513994,"name":"馥鍋日式涮涮鍋","decorType":"restaurant"},{"id":"node-7749806944","lat":25.061699,"lon":121.515994,"name":"大同海產商行","decorType":"restaurant"},{"id":"node-7749806946","lat":25.061767,"lon":121.516009,"name":"惠發燒臘小吃店","decorType":"restaurant"},{"id":"node-7749806951","lat":25.068779,"lon":121.514708,"name":"酒食無雙","decorType":"restaurant"},{"id":"node-7749806954","lat":25.062143,"lon":121.515974,"name":"呷尚寶","decorType":"burger"},{"id":"node-7749806964","lat":25.062063,"lon":121.516016,"name":"昇冠雞排專賣店","decorType":"restaurant"},{"id":"node-7749806967","lat":25.069104,"lon":121.515845,"name":"圓環魯肉飯肉羹","decorType":"restaurant"},{"id":"node-7749806975","lat":25.068918,"lon":121.515846,"name":"簡家大龍峒肉圓","decorType":"restaurant"},{"id":"node-7749822701","lat":25.06721,"lon":121.517634,"name":"阿儒食堂","decorType":"restaurant"},{"id":"node-7749822703","lat":25.067355,"lon":121.517396,"name":"老地方牛肉麵食館","decorType":"restaurant"},{"id":"node-7749822729","lat":25.067404,"lon":121.516995,"name":"JOMO COFFEE","decorType":"restaurant"},{"id":"node-7749822732","lat":25.067409,"lon":121.517081,"name":"小林麵食店","decorType":"restaurant"},{"id":"node-7749832492","lat":25.063426,"lon":121.51605,"name":"三大牛肉麵","decorType":"restaurant"},{"id":"node-7749832493","lat":25.064651,"lon":121.515426,"name":"和太咖哩屋","decorType":"restaurant"},{"id":"node-7749832495","lat":25.063617,"lon":121.521076,"name":"小珍園拉麵","decorType":"restaurant"},{"id":"node-7749832498","lat":25.063095,"lon":121.520889,"name":"民權台菜自助餐","decorType":"restaurant"},{"id":"node-7749832500","lat":25.064344,"lon":121.515359,"name":"無名豆漿店","decorType":"restaurant"},{"id":"node-7749832501","lat":25.062827,"lon":121.51485,"name":"柴寮仔涼麵","decorType":"restaurant"},{"id":"node-7749832502","lat":25.06454,"lon":121.51529,"name":"傳統清粥小菜早餐","decorType":"restaurant"},{"id":"node-7749832503","lat":25.064357,"lon":121.515637,"name":"漸層蘭","decorType":"restaurant"},{"id":"node-7749832505","lat":25.063831,"lon":121.515918,"name":"Ray yummy亞米雷早午餐","decorType":"restaurant"},{"id":"node-7749832506","lat":25.063143,"lon":121.516198,"name":"蒜翻天 鹹酥雞","decorType":"restaurant"},{"id":"node-7749832507","lat":25.06377,"lon":121.516079,"name":"弘爺漢堡","decorType":"burger"},{"id":"node-7749832508","lat":25.064736,"lon":121.513435,"name":"米拉圖鳥花園","decorType":"restaurant"},{"id":"node-7749832509","lat":25.063539,"lon":121.520888,"name":"御村日本廣島燒","decorType":"restaurant"},{"id":"node-7749832510","lat":25.06457,"lon":121.515393,"name":"梔の坊 複合式早午餐","decorType":"restaurant"},{"id":"node-7749832511","lat":25.062391,"lon":121.515857,"name":"一方豬腳飯","decorType":"restaurant"},{"id":"node-7749832513","lat":25.06347,"lon":121.519488,"name":"美而美","decorType":"restaurant"},{"id":"node-7749832514","lat":25.06473,"lon":121.51394,"name":"達美樂","decorType":"restaurant"},{"id":"node-7749832515","lat":25.062996,"lon":121.521838,"name":"圈子 Brunch.Coffee","decorType":"restaurant"},{"id":"node-7749832516","lat":25.06314,"lon":121.51625,"name":"初","decorType":"restaurant"},{"id":"node-7749832517","lat":25.063602,"lon":121.516067,"name":"歐浮找餐-大同店","decorType":"restaurant"},{"id":"node-7749832519","lat":25.063058,"lon":121.519804,"name":"すき家","decorType":"burger"},{"id":"node-7749832520","lat":25.063307,"lon":121.520903,"name":"八方雲集","decorType":"burger"},{"id":"node-7749832522","lat":25.063306,"lon":121.521148,"name":"銀座小路日式拉麵","decorType":"restaurant"},{"id":"node-7749832523","lat":25.064678,"lon":121.513938,"name":"旺盛苑和牛燒肉","decorType":"restaurant"},{"id":"node-7749832524","lat":25.06225,"lon":121.51691,"name":"大楊牛肉麵店","decorType":"restaurant"},{"id":"node-7749832526","lat":25.062522,"lon":121.514667,"name":"陳壽司","decorType":"restaurant"},{"id":"node-7765178673","lat":25.055359,"lon":121.515364,"name":"隨緣素食","decorType":"restaurant"},{"id":"node-7765187637","lat":25.054448,"lon":121.516242,"name":"日新現做早餐店","decorType":"restaurant"},{"id":"node-7765187760","lat":25.054546,"lon":121.51599,"name":"四喜堂私廚","decorType":"restaurant"},{"id":"node-7765187774","lat":25.055514,"lon":121.517978,"name":"好吃羊肉爐","decorType":"restaurant"},{"id":"node-7765187835","lat":25.055489,"lon":121.515823,"name":"日船章魚燒","decorType":"restaurant"},{"id":"node-7765187970","lat":25.055218,"lon":121.515939,"name":"龍賛鍋","decorType":"restaurant"},{"id":"node-7765188482","lat":25.055192,"lon":121.516037,"name":"澎湖活生蠔","decorType":"restaurant"},{"id":"node-7778780617","lat":25.055408,"lon":121.51795,"name":"Taiwan Bistro","decorType":"restaurant"},{"id":"node-7780481069","lat":25.055872,"lon":121.515159,"name":"豆花莊","decorType":"restaurant"},{"id":"node-7780481071","lat":25.055936,"lon":121.515185,"name":"里長伯麻辣臭豆腐","decorType":"restaurant"},{"id":"node-7780481072","lat":25.056551,"lon":121.515456,"name":"豬肝榮仔","decorType":"restaurant"},{"id":"node-7780481073","lat":25.056554,"lon":121.515579,"name":"牛媽媽","decorType":"restaurant"},{"id":"node-7780481074","lat":25.056393,"lon":121.515479,"name":"鴻記鐵板燒蔥餅捲","decorType":"restaurant"},{"id":"node-7780481075","lat":25.056457,"lon":121.515488,"name":"方家雞肉飯","decorType":"restaurant"},{"id":"node-7780481076","lat":25.056983,"lon":121.516608,"name":"古早味豆花","decorType":"restaurant"},{"id":"node-7780481077","lat":25.056518,"lon":121.515519,"name":"慈音古早味阿婆飯糰","decorType":"restaurant"},{"id":"node-7780481078","lat":25.056607,"lon":121.515504,"name":"三星蔥肉捲","decorType":"restaurant"},{"id":"node-7780481079","lat":25.05665,"lon":121.51554,"name":"感恩東山鴨頭","decorType":"restaurant"},{"id":"node-7780481080","lat":25.056805,"lon":121.515403,"name":"東石鮮蚵","decorType":"restaurant"},{"id":"node-7780481081","lat":25.056442,"lon":121.515302,"name":"客家放山雞","decorType":"restaurant"},{"id":"node-7780481082","lat":25.056254,"lon":121.515259,"name":"環記麻油雞","decorType":"restaurant"},{"id":"node-7780481083","lat":25.056183,"lon":121.515336,"name":"鴨頭正二代滷肉飯","decorType":"restaurant"},{"id":"node-7780481084","lat":25.05672,"lon":121.515621,"name":"料理長胡椒蝦","decorType":"restaurant"},{"id":"node-7780482085","lat":25.057387,"lon":121.51561,"name":"老攤肉粥","decorType":"restaurant"},{"id":"node-7780482086","lat":25.057289,"lon":121.515669,"name":"福州胡椒餅攤","decorType":"restaurant"},{"id":"node-7786748172","lat":25.062454,"lon":121.520339,"name":"天祥豬腳飯","decorType":"restaurant"},{"id":"node-7786748173","lat":25.062621,"lon":121.520142,"name":"星巴克","decorType":"cafe"},{"id":"node-7786748174","lat":25.062629,"lon":121.520038,"name":"7-Eleven","decorType":"convenience"},{"id":"node-7786874208","lat":25.061331,"lon":121.521902,"name":"和韵WAING","decorType":"restaurant"},{"id":"node-7786874209","lat":25.061039,"lon":121.521712,"name":"古早味陽春麵","decorType":"restaurant"},{"id":"node-7786874210","lat":25.061128,"lon":121.521131,"name":"正功夫港式煨湯","decorType":"restaurant"},{"id":"node-7786874211","lat":25.060803,"lon":121.520954,"name":"阿珍福州麵","decorType":"restaurant"},{"id":"node-7786874212","lat":25.060735,"lon":121.520949,"name":"魚港生猛海鮮","decorType":"restaurant"},{"id":"node-7786874213","lat":25.060649,"lon":121.520923,"name":"鍋媽媽牛奶火鍋","decorType":"restaurant"},{"id":"node-7786874214","lat":25.060575,"lon":121.520927,"name":"滿腹早午餐","decorType":"restaurant"},{"id":"node-7786874215","lat":25.060243,"lon":121.521123,"name":"禾崧牛排屋","decorType":"restaurant"},{"id":"node-7786874216","lat":25.060235,"lon":121.521214,"name":"阿國切仔麵","decorType":"restaurant"},{"id":"node-7786874217","lat":25.060225,"lon":121.52151,"name":"錦西街車輪餅","decorType":"restaurant"},{"id":"node-7786874218","lat":25.060373,"lon":121.522101,"name":"天食堂涮涮鍋","decorType":"restaurant"},{"id":"node-7786874224","lat":25.05989,"lon":121.522032,"name":"開封包公府的私房麵","decorType":"restaurant"},{"id":"node-7787035839","lat":25.068683,"lon":121.517368,"name":"101咖哩肉圓甜不辣","decorType":"restaurant"},{"id":"node-7787035840","lat":25.068837,"lon":121.518179,"name":"牆角一扇門","decorType":"restaurant"},{"id":"node-7787035841","lat":25.069503,"lon":121.519637,"name":"吉米究食廚房","decorType":"restaurant"},{"id":"node-7800411570","lat":25.068429,"lon":121.511,"name":"炒飯專家","decorType":"restaurant"},{"id":"node-7800450789","lat":25.068378,"lon":121.511006,"name":"歐陽麵店","decorType":"restaurant"},{"id":"node-7800461584","lat":25.068135,"lon":121.510812,"name":"老程麵店","decorType":"restaurant"},{"id":"node-7800467585","lat":25.065808,"lon":121.510531,"name":"昌吉便當","decorType":"restaurant"},{"id":"node-7800467587","lat":25.068807,"lon":121.51154,"name":"大食神炭燒薑母鴨","decorType":"restaurant"},{"id":"node-7800467590","lat":25.068782,"lon":121.512949,"name":"富山天滿","decorType":"restaurant"},{"id":"node-7800467591","lat":25.068784,"lon":121.512483,"name":"味津烤鴨","decorType":"restaurant"},{"id":"node-7800467592","lat":25.065672,"lon":121.510942,"name":"新營人牛肉","decorType":"restaurant"},{"id":"node-7800467593","lat":25.069037,"lon":121.510962,"name":"好味快餐便當","decorType":"restaurant"},{"id":"node-7800467594","lat":25.067597,"lon":121.512193,"name":"見來成魯肉飯","decorType":"restaurant"},{"id":"node-7800467597","lat":25.065846,"lon":121.509725,"name":"百九麵攤","decorType":"restaurant"},{"id":"node-7800467599","lat":25.068868,"lon":121.510979,"name":"赤肉胡椒餅","decorType":"restaurant"},{"id":"node-7800467600","lat":25.068971,"lon":121.510767,"name":"林森北路章記魷魚羹","decorType":"restaurant"},{"id":"node-7800467601","lat":25.067508,"lon":121.510822,"name":"大橋町","decorType":"restaurant"},{"id":"node-7800467603","lat":25.068183,"lon":121.510799,"name":"八方雲集","decorType":"burger"},{"id":"node-7800467604","lat":25.068774,"lon":121.513026,"name":"佳裕香冒菜涼皮","decorType":"restaurant"},{"id":"node-7800467605","lat":25.058726,"lon":121.509651,"name":"牧山丘","decorType":"restaurant"},{"id":"node-7800467606","lat":25.068995,"lon":121.510967,"name":"勁雞小子","decorType":"restaurant"},{"id":"node-7800467607","lat":25.068297,"lon":121.510584,"name":"素香飯糰","decorType":"restaurant"},{"id":"node-7800467608","lat":25.068365,"lon":121.513475,"name":"英仕堡早餐店","decorType":"restaurant"},{"id":"node-7800467611","lat":25.068305,"lon":121.510995,"name":"徐記涼麵","decorType":"restaurant"},{"id":"node-7800467612","lat":25.068273,"lon":121.510699,"name":"阿桃油飯","decorType":"restaurant"},{"id":"node-7800467613","lat":25.058077,"lon":121.509627,"name":"金桔檸檬汁","decorType":"restaurant"},{"id":"node-7800467616","lat":25.068774,"lon":121.5131,"name":"嗑一鍋","decorType":"restaurant"},{"id":"node-7800467617","lat":25.069194,"lon":121.510987,"name":"香港榮華燒臘","decorType":"restaurant"},{"id":"node-7800467618","lat":25.068023,"lon":121.510818,"name":"燒蝦","decorType":"restaurant"},{"id":"node-7800467619","lat":25.068548,"lon":121.511292,"name":"世界豆漿大王","decorType":"restaurant"},{"id":"node-7800467621","lat":25.068198,"lon":121.513509,"name":"禾楓創意烘焙","decorType":"restaurant"},{"id":"node-7800467622","lat":25.068484,"lon":121.510998,"name":"牛爺爺生炒沙茶牛肉店","decorType":"restaurant"},{"id":"node-7800467625","lat":25.067723,"lon":121.511026,"name":"廟口厚切牛排","decorType":"restaurant"},{"id":"node-7800467626","lat":25.067891,"lon":121.510745,"name":"美而美早餐店","decorType":"restaurant"},{"id":"node-7800467627","lat":25.067988,"lon":121.510823,"name":"無名生魚片握壽司鴨肉","decorType":"restaurant"},{"id":"node-7820748091","lat":25.064827,"lon":121.518572,"name":"向陽庭自助餐","decorType":"restaurant"},{"id":"node-7820748092","lat":25.065797,"lon":121.517898,"name":"雞佬餓","decorType":"restaurant"},{"id":"node-7820748093","lat":25.066008,"lon":121.51651,"name":"八方雲集","decorType":"burger"},{"id":"node-7820748094","lat":25.065998,"lon":121.516268,"name":"昌吉紅燒鰻","decorType":"restaurant"},{"id":"node-7820748095","lat":25.065584,"lon":121.515775,"name":"東區小賴甜不辣","decorType":"restaurant"},{"id":"node-7820748096","lat":25.065769,"lon":121.515619,"name":"正宗川味福州牛肉麵","decorType":"restaurant"},{"id":"node-7820748097","lat":25.065783,"lon":121.514971,"name":"大慈素食","decorType":"restaurant"},{"id":"node-7820748098","lat":25.065772,"lon":121.514874,"name":"雙胖子","decorType":"restaurant"},{"id":"node-7820748099","lat":25.065806,"lon":121.514623,"name":"找餐趣複合式早午餐","decorType":"restaurant"},{"id":"node-7820748100","lat":25.065795,"lon":121.514472,"name":"油飯、肉羹","decorType":"restaurant"},{"id":"node-7839875695","lat":25.060253,"lon":121.511961,"name":"許仔豬腳麵線","decorType":"restaurant"},{"id":"node-7911265785","lat":25.059854,"lon":121.509478,"name":"合興1947","decorType":"bakery"},{"id":"node-8118207178","lat":25.065678,"lon":121.513939,"name":"7-Eleven","decorType":"convenience"},{"id":"node-8118207179","lat":25.059648,"lon":121.511305,"name":"7-Eleven","decorType":"convenience"},{"id":"node-8118207180","lat":25.060634,"lon":121.514593,"name":"7-Eleven","decorType":"convenience"},{"id":"node-8150339517","lat":25.055215,"lon":121.52022,"name":"浮光書店","decorType":"library"},{"id":"node-8397520224","lat":25.054646,"lon":121.514492,"name":"臺北圓環郵局","decorType":"post_office"},{"id":"node-8397520225","lat":25.054596,"lon":121.514508,"name":"好味港式茶餐廳","decorType":"restaurant"},{"id":"node-8397520226","lat":25.057537,"lon":121.518424,"name":"梁社漢排骨","decorType":"restaurant"},{"id":"node-8397520227","lat":25.054399,"lon":121.514557,"name":"梁社漢排骨","decorType":"restaurant"},{"id":"node-8397520228","lat":25.054395,"lon":121.514684,"name":"寧夏2號旅店","decorType":"hotel"},{"id":"node-8397882153","lat":25.056944,"lon":121.515824,"name":"慈音古早味阿婆飯糰","decorType":"restaurant"},{"id":"node-8428073317","lat":25.055744,"lon":121.52103,"name":"柚子花花","decorType":"restaurant"},{"id":"node-8432400545","lat":25.061035,"lon":121.518099,"name":"成淵高中","decorType":"bus_stop"},{"id":"node-8518273533","lat":25.060138,"lon":121.514658,"name":"大同分局","decorType":"bus_stop"},{"id":"node-8629125664","lat":25.057882,"lon":121.520513,"name":"香滿園","decorType":"restaurant"},{"id":"node-8789294950","lat":25.063019,"lon":121.521131,"name":"全家便利商店","decorType":"convenience"},{"id":"node-8916363584","lat":25.063982,"lon":121.519031,"name":"未命名公園","decorType":"park"},{"id":"node-9239426827","lat":25.054662,"lon":121.520706,"name":"Lisa","decorType":"hair_salon"},{"id":"node-9239426829","lat":25.054652,"lon":121.520981,"name":"WOW Bistro旺.慢食餐酒館-中山店","decorType":"restaurant"},{"id":"node-9245717461","lat":25.054343,"lon":121.520844,"name":"HABIT SELECT中山店","decorType":"clothing"},{"id":"node-9245717468","lat":25.054631,"lon":121.521489,"name":"玫瑰緣結婚百貨公司","decorType":"clothing"},{"id":"node-9245717469","lat":25.054632,"lon":121.521608,"name":"Ruby","decorType":"cosmetics"},{"id":"node-9245717470","lat":25.054587,"lon":121.521634,"name":"稲町家香料咖哩 中山本舖","decorType":"restaurant"},{"id":"node-9245717474","lat":25.054451,"lon":121.521625,"name":"Between服飾中山店","decorType":"clothing"},{"id":"node-9245717475","lat":25.054364,"lon":121.521617,"name":"BAZOOKA","decorType":"clothing"},{"id":"node-9245919413","lat":25.054442,"lon":121.52108,"name":"ann's中山門市","decorType":"clothing"},{"id":"node-9247054924","lat":25.054653,"lon":121.520297,"name":"礫川","decorType":"restaurant"},{"id":"node-9247054925","lat":25.054694,"lon":121.52032,"name":"未命名服飾店","decorType":"clothing"},{"id":"node-9247054926","lat":25.054811,"lon":121.520126,"name":"HYCEIA","decorType":"cosmetics"},{"id":"node-9247054930","lat":25.054958,"lon":121.519696,"name":"威基基小島","decorType":"clothing"},{"id":"node-9247131658","lat":25.055224,"lon":121.521242,"name":"DEER LASH 美睫 除毛 紋綉 美甲","decorType":"cosmetics"},{"id":"node-9247131660","lat":25.055229,"lon":121.521313,"name":"MUKK服飾店","decorType":"clothing"},{"id":"node-9247165589","lat":25.055401,"lon":121.519776,"name":"月霞咖啡館","decorType":"restaurant"},{"id":"node-9247165592","lat":25.057417,"lon":121.520083,"name":"台灣大哥大","decorType":"electronics"},{"id":"node-9250144670","lat":25.058182,"lon":121.520683,"name":"未命名車站","decorType":"station"},{"id":"node-9256917241","lat":25.056518,"lon":121.520821,"name":"未命名咖啡廳","decorType":"cafe"},{"id":"node-9258829240","lat":25.055175,"lon":121.520028,"name":"八時神仙草-赤峰店","decorType":"restaurant"},{"id":"node-9258829241","lat":25.055201,"lon":121.52027,"name":"北風社","decorType":"cafe"},{"id":"node-9258829245","lat":25.054942,"lon":121.519802,"name":"阡日咖啡供應所","decorType":"cafe"},{"id":"node-9258856288","lat":25.054809,"lon":121.519973,"name":"Haeng bok","decorType":"cosmetics"},{"id":"node-9258992304","lat":25.054419,"lon":121.5203,"name":"AFAD 南西門市","decorType":"clothing"},{"id":"node-9258992313","lat":25.055402,"lon":121.520362,"name":"double like雙倍喜歡","decorType":"restaurant"},{"id":"node-9258992314","lat":25.055398,"lon":121.520249,"name":"#nude showroom","decorType":"clothing"},{"id":"node-9258992315","lat":25.055429,"lon":121.519717,"name":"iki_shop","decorType":"restaurant"},{"id":"node-9259008397","lat":25.056272,"lon":121.520397,"name":"巷仔內大腸煎","decorType":"restaurant"},{"id":"node-9259026617","lat":25.055617,"lon":121.519788,"name":"赤鐵 廣島燒專賣店","decorType":"restaurant"},{"id":"node-9259026618","lat":25.055635,"lon":121.519914,"name":"台北中山許許兒沐光店","decorType":"clothing"},{"id":"node-9259026619","lat":25.055654,"lon":121.520376,"name":"赤豐 蔬坊","decorType":"restaurant"},{"id":"node-9259026620","lat":25.055822,"lon":121.520298,"name":"登波咖啡","decorType":"restaurant"},{"id":"node-9259026623","lat":25.055813,"lon":121.520244,"name":"A-ONE ACADEMY髮型教育","decorType":"cosmetics"},{"id":"node-9259026624","lat":25.05583,"lon":121.519703,"name":"猫蔵咖啡 -《NEZO CAFE》","decorType":"cafe"},{"id":"node-9259026625","lat":25.055812,"lon":121.519763,"name":"EWF Vintage","decorType":"clothing"},{"id":"node-9259026626","lat":25.055796,"lon":121.520048,"name":"香蕉貓。Banana Cats","decorType":"clothing"},{"id":"node-9259026627","lat":25.055812,"lon":121.520192,"name":"A-ONE ACADEMY髮型教育","decorType":"cosmetics"},{"id":"node-9259026629","lat":25.05609,"lon":121.519989,"name":"三貓小舖-貓咪文創咖啡館","decorType":"cafe"},{"id":"node-9259026630","lat":25.056104,"lon":121.519767,"name":"妮可製顏所 紋繡藝術美學","decorType":"cosmetics"},{"id":"node-9260117502","lat":25.056273,"lon":121.519907,"name":"MEET Hair Salon","decorType":"cosmetics"},{"id":"node-9260117509","lat":25.056355,"lon":121.520405,"name":"Home Page 首頁讀書館","decorType":"library"},{"id":"node-9260117510","lat":25.056478,"lon":121.520405,"name":"隱家拉麵 赤峰店","decorType":"restaurant"},{"id":"node-9260117511","lat":25.056568,"lon":121.520406,"name":"貨室甜品","decorType":"restaurant"},{"id":"node-9260117514","lat":25.056543,"lon":121.519842,"name":"好剪才 - Superbcut (赤峰中山店)","decorType":"cosmetics"},{"id":"node-9260117515","lat":25.056551,"lon":121.51977,"name":"Aura Art Nail 尋光美甲美學","decorType":"cosmetics"},{"id":"node-9260166347","lat":25.056752,"lon":121.519812,"name":"Circle's cinema 實體門市","decorType":"clothing"},{"id":"node-9260166348","lat":25.056727,"lon":121.520396,"name":"未命名餐廳","decorType":"restaurant"},{"id":"node-9260166349","lat":25.056949,"lon":121.520423,"name":"未命名餐廳","decorType":"restaurant"},{"id":"node-9260166351","lat":25.057462,"lon":121.520368,"name":"艾琳美容","decorType":"cosmetics"},{"id":"node-9260222064","lat":25.05629,"lon":121.521526,"name":"Starry hair design","decorType":"hair_salon"},{"id":"node-9260222065","lat":25.056285,"lon":121.521779,"name":"安妞韓館","decorType":"restaurant"},{"id":"node-9260222066","lat":25.056278,"lon":121.521973,"name":"La Fashion","decorType":"clothing"},{"id":"node-9260222085","lat":25.05629,"lon":121.522147,"name":"B.simple","decorType":"hair_salon"},{"id":"node-9260222086","lat":25.056288,"lon":121.522049,"name":"不放藝廊 Bouffant Hair Design 2nd","decorType":"hair_salon"},{"id":"node-9260222089","lat":25.056283,"lon":121.521888,"name":"吉松和漢日本料理","decorType":"restaurant"},{"id":"node-9260286662","lat":25.056945,"lon":121.521426,"name":"雅信服裝社","decorType":"clothing"},{"id":"node-9260286664","lat":25.05694,"lon":121.521582,"name":"好人好室 x 七二聚場","decorType":"cafe"},{"id":"node-9260286666","lat":25.056964,"lon":121.522146,"name":"田園城市生活風格書店","decorType":"library"},{"id":"node-9260305540","lat":25.056911,"lon":121.520862,"name":"R. mosu 沐蔬","decorType":"restaurant"},{"id":"node-9260305541","lat":25.05682,"lon":121.520842,"name":"A&A beauty salon","decorType":"cosmetics"},{"id":"node-9260305542","lat":25.05692,"lon":121.521112,"name":"榕豆花","decorType":"restaurant"},{"id":"node-9260305543","lat":25.056784,"lon":121.521095,"name":"誇手設計","decorType":"cosmetics"},{"id":"node-9260305544","lat":25.056955,"lon":121.521351,"name":"雅信服裝社","decorType":"clothing"},{"id":"node-9260305545","lat":25.056619,"lon":121.521384,"name":"June Cafe 六月咖啡","decorType":"cafe"},{"id":"node-9260305546","lat":25.056742,"lon":121.522147,"name":"f. 美髮","decorType":"cosmetics"},{"id":"node-9260305547","lat":25.056757,"lon":121.522048,"name":"La Belleza Hair Salon","decorType":"cosmetics"},{"id":"node-9260305549","lat":25.056789,"lon":121.521281,"name":"永恆婚禮顧問社","decorType":"clothing"},{"id":"node-9260636609","lat":25.057123,"lon":121.521996,"name":"千采複合式客家菜","decorType":"restaurant"},{"id":"node-9260641947","lat":25.057152,"lon":121.520863,"name":"Greedy Beagle 貪吃狗","decorType":"restaurant"},{"id":"node-9260641948","lat":25.057414,"lon":121.521019,"name":"源本家燒肉火鍋","decorType":"restaurant"},{"id":"node-9260641949","lat":25.057327,"lon":121.521878,"name":"菲芮藝術美甲Fairy Nails/台北美甲","decorType":"cosmetics"},{"id":"node-9267638430","lat":25.056829,"lon":121.51965,"name":"髮藝男女剪燙","decorType":"hair_salon"},{"id":"node-9267638433","lat":25.05694,"lon":121.519553,"name":"未命名咖啡廳","decorType":"cafe"},{"id":"node-9267638434","lat":25.05661,"lon":121.519455,"name":"豬腸冬粉","decorType":"restaurant"},{"id":"node-9267638435","lat":25.05622,"lon":121.519646,"name":"米爾利蛋糕","decorType":"restaurant"},{"id":"node-9267638446","lat":25.055697,"lon":121.519453,"name":"ulta","decorType":"hair_salon"},{"id":"node-9267638449","lat":25.055279,"lon":121.519124,"name":"光明五金行","decorType":"hardware"},{"id":"node-9267638454","lat":25.054977,"lon":121.518684,"name":"思慕雪","decorType":"restaurant"},{"id":"node-9267638455","lat":25.05496,"lon":121.518926,"name":"自助餐便當","decorType":"restaurant"},{"id":"node-9267638456","lat":25.054949,"lon":121.519104,"name":"快樂早餐坊","decorType":"restaurant"},{"id":"node-9326064076","lat":25.057363,"lon":121.517752,"name":"雙連滷味","decorType":"restaurant"},{"id":"node-9355737465","lat":25.063083,"lon":121.517427,"name":"大龍街口","decorType":"bus_stop"},{"id":"node-9375541249","lat":25.058753,"lon":121.520279,"name":"Savoir Faire","decorType":"cosmetics"},{"id":"node-9375541250","lat":25.058741,"lon":121.520218,"name":"Pilates Corner","decorType":"cosmetics"},{"id":"node-9375541252","lat":25.059049,"lon":121.520146,"name":"果昂甜品illumine","decorType":"restaurant"},{"id":"node-9375541253","lat":25.059205,"lon":121.520372,"name":"未命名化妝品商店","decorType":"cosmetics"},{"id":"node-9375541254","lat":25.059269,"lon":121.520358,"name":"未命名餐廳","decorType":"restaurant"},{"id":"node-9375541256","lat":25.058606,"lon":121.520469,"name":"未命名餐廳","decorType":"restaurant"},{"id":"node-9375541257","lat":25.058601,"lon":121.520345,"name":"未命名化妝品商店","decorType":"cosmetics"},{"id":"node-9375541258","lat":25.058504,"lon":121.520473,"name":"未命名餐廳","decorType":"restaurant"},{"id":"node-9375541259","lat":25.058325,"lon":121.520472,"name":"未命名餐廳","decorType":"restaurant"},{"id":"node-9375541260","lat":25.058065,"lon":121.52048,"name":"世紀豆漿","decorType":"restaurant"},{"id":"node-9375541262","lat":25.057929,"lon":121.520325,"name":"未命名餐廳","decorType":"restaurant"},{"id":"node-9375541263","lat":25.057988,"lon":121.520311,"name":"未命名餐廳","decorType":"restaurant"},{"id":"node-9375541264","lat":25.058106,"lon":121.520323,"name":"未命名餐廳","decorType":"restaurant"},{"id":"node-9375541265","lat":25.058236,"lon":121.520307,"name":"未命名餐廳","decorType":"restaurant"},{"id":"node-9375541266","lat":25.05842,"lon":121.520278,"name":"未命名餐廳","decorType":"restaurant"},{"id":"node-9375560790","lat":25.060243,"lon":121.520884,"name":"未命名超市","decorType":"supermarket"},{"id":"node-9375560791","lat":25.060242,"lon":121.520966,"name":"未命名餐廳","decorType":"restaurant"},{"id":"node-9375560794","lat":25.059938,"lon":121.521379,"name":"嘎哩咖啡 ｜ GaliGabi","decorType":"cafe"},{"id":"node-9375560795","lat":25.059909,"lon":121.522142,"name":"未命名咖啡廳","decorType":"cafe"},{"id":"node-9375560796","lat":25.060235,"lon":121.522128,"name":"未命名電器行","decorType":"electronics"},{"id":"node-9375560798","lat":25.059958,"lon":121.520895,"name":"未命名餐廳","decorType":"restaurant"},{"id":"node-9375560800","lat":25.059778,"lon":121.521262,"name":"未命名餐廳","decorType":"restaurant"},{"id":"node-9375560801","lat":25.059755,"lon":121.521322,"name":"未命名餐廳","decorType":"restaurant"},{"id":"node-9375560802","lat":25.059787,"lon":121.521534,"name":"家常飯朴老師1號店 집밥박선생","decorType":"restaurant"},{"id":"node-9375560805","lat":25.05961,"lon":121.521748,"name":"美好現炒小吃","decorType":"restaurant"},{"id":"node-9375560807","lat":25.059596,"lon":121.521123,"name":"未命名超市","decorType":"supermarket"},{"id":"node-9375560809","lat":25.05942,"lon":121.521626,"name":"藝林髮廊","decorType":"hair_salon"},{"id":"node-9375560810","lat":25.059421,"lon":121.52135,"name":"六月三十義式手工冰淇淋台北店","decorType":"restaurant"},{"id":"node-9375560811","lat":25.058846,"lon":121.52194,"name":"未命名餐廳","decorType":"restaurant"},{"id":"node-9375560812","lat":25.058999,"lon":121.521572,"name":"未命名咖啡廳","decorType":"cafe"},{"id":"node-9375560813","lat":25.058999,"lon":121.52164,"name":"未命名餐廳","decorType":"restaurant"},{"id":"node-9375560814","lat":25.058995,"lon":121.521343,"name":"未命名餐廳","decorType":"restaurant"},{"id":"node-9375560815","lat":25.058995,"lon":121.521438,"name":"未命名餐廳","decorType":"restaurant"},{"id":"node-9375560816","lat":25.058833,"lon":121.521622,"name":"未命名餐廳","decorType":"restaurant"},{"id":"node-9375565017","lat":25.058844,"lon":121.521513,"name":"未命名餐廳","decorType":"restaurant"},{"id":"node-9375565018","lat":25.058665,"lon":121.521596,"name":"未命名藥局","decorType":"pharmacy"},{"id":"node-9375565019","lat":25.058489,"lon":121.521605,"name":"未命名藥局","decorType":"pharmacy"},{"id":"node-9375565021","lat":25.058456,"lon":121.521491,"name":"未命名餐廳","decorType":"restaurant"},{"id":"node-9375565023","lat":25.058272,"lon":121.521574,"name":"未命名餐廳","decorType":"restaurant"},{"id":"node-9375565024","lat":25.058272,"lon":121.521475,"name":"未命名餐廳","decorType":"restaurant"},{"id":"node-9375565025","lat":25.058268,"lon":121.52132,"name":"未命名餐廳","decorType":"restaurant"},{"id":"node-9375565026","lat":25.058083,"lon":121.521208,"name":"未命名餐廳","decorType":"restaurant"},{"id":"node-9375565027","lat":25.058102,"lon":121.521132,"name":"未命名餐廳","decorType":"restaurant"},{"id":"node-9375565028","lat":25.058098,"lon":121.520949,"name":"未命名餐廳","decorType":"restaurant"},{"id":"node-9375565029","lat":25.058451,"lon":121.520926,"name":"未命名餐廳","decorType":"restaurant"},{"id":"node-9375565031","lat":25.058846,"lon":121.521073,"name":"未命名餐廳","decorType":"restaurant"},{"id":"node-9375565032","lat":25.059005,"lon":121.520933,"name":"未命名餐廳","decorType":"restaurant"},{"id":"node-9375565033","lat":25.059,"lon":121.520974,"name":"未命名餐廳","decorType":"restaurant"},{"id":"node-9375565034","lat":25.058993,"lon":121.521024,"name":"未命名餐廳","decorType":"restaurant"},{"id":"node-9375565036","lat":25.059001,"lon":121.521237,"name":"未命名餐廳","decorType":"restaurant"},{"id":"node-9375568415","lat":25.060094,"lon":121.520319,"name":"未命名餐廳","decorType":"restaurant"},{"id":"node-9375568416","lat":25.060028,"lon":121.520347,"name":"未命名餐廳","decorType":"restaurant"},{"id":"node-9375575770","lat":25.05774,"lon":121.520068,"name":"未命名餐廳","decorType":"restaurant"},{"id":"node-9375575771","lat":25.057746,"lon":121.519961,"name":"未命名餐廳","decorType":"restaurant"},{"id":"node-9375575772","lat":25.057728,"lon":121.519889,"name":"未命名餐廳","decorType":"restaurant"},{"id":"node-9375575774","lat":25.057662,"lon":121.519364,"name":"未命名藥局","decorType":"pharmacy"},{"id":"node-9375575775","lat":25.057773,"lon":121.519237,"name":"未命名餐廳","decorType":"restaurant"},{"id":"node-9375575776","lat":25.057872,"lon":121.519238,"name":"未命名餐廳","decorType":"restaurant"},{"id":"node-9375575777","lat":25.057896,"lon":121.519387,"name":"未命名化妝品商店","decorType":"cosmetics"},{"id":"node-9375575778","lat":25.058008,"lon":121.520092,"name":"丼魂","decorType":"restaurant"},{"id":"node-9375575779","lat":25.058123,"lon":121.520077,"name":"未命名餐廳","decorType":"restaurant"},{"id":"node-9375575780","lat":25.058155,"lon":121.520094,"name":"未命名餐廳","decorType":"restaurant"},{"id":"node-9375575781","lat":25.058397,"lon":121.520044,"name":"未命名餐廳","decorType":"restaurant"},{"id":"node-9375575782","lat":25.058301,"lon":121.519547,"name":"未命名咖啡廳","decorType":"cafe"},{"id":"node-9375575783","lat":25.058654,"lon":121.519111,"name":"未命名餐廳","decorType":"restaurant"},{"id":"node-9375575785","lat":25.05899,"lon":121.519404,"name":"未命名服飾店","decorType":"clothing"},{"id":"node-9375575786","lat":25.059066,"lon":121.519965,"name":"未命名化妝品商店","decorType":"cosmetics"},{"id":"node-9375575787","lat":25.059125,"lon":121.519032,"name":"未命名咖啡廳","decorType":"cafe"},{"id":"node-9375575789","lat":25.059304,"lon":121.519015,"name":"未命名餐廳","decorType":"restaurant"},{"id":"node-9375575790","lat":25.060148,"lon":121.518916,"name":"未命名餐廳","decorType":"restaurant"},{"id":"node-9375575791","lat":25.060176,"lon":121.519061,"name":"未命名餐廳","decorType":"restaurant"},{"id":"node-9375575792","lat":25.06021,"lon":121.520281,"name":"未命名餐廳","decorType":"restaurant"},{"id":"node-9375575793","lat":25.060247,"lon":121.520029,"name":"未命名化妝品商店","decorType":"cosmetics"},{"id":"node-9375579531","lat":25.060249,"lon":121.519767,"name":"未命名漢堡店","decorType":"burger"},{"id":"node-9375579532","lat":25.060153,"lon":121.518697,"name":"未命名咖啡廳","decorType":"cafe"},{"id":"node-9375579533","lat":25.0599,"lon":121.518802,"name":"未命名餐廳","decorType":"restaurant"},{"id":"node-9375579534","lat":25.060083,"lon":121.518548,"name":"未命名餐廳","decorType":"restaurant"},{"id":"node-9375579535","lat":25.059758,"lon":121.518459,"name":"未命名餐廳","decorType":"restaurant"},{"id":"node-9375579536","lat":25.059783,"lon":121.518444,"name":"未命名漢堡店","decorType":"burger"},{"id":"node-9375579537","lat":25.059608,"lon":121.518786,"name":"未命名自主洗衣店&乾洗店","decorType":"laundry"},{"id":"node-9375579538","lat":25.059469,"lon":121.518433,"name":"未命名咖啡廳","decorType":"cafe"},{"id":"node-9375579539","lat":25.059253,"lon":121.51885,"name":"未命名圖書館／書店","decorType":"library"},{"id":"node-9375579541","lat":25.058767,"lon":121.518801,"name":"未命名餐廳","decorType":"restaurant"},{"id":"node-9375579542","lat":25.05842,"lon":121.519006,"name":"洗樂全自助洗衣店","decorType":"laundry"},{"id":"node-9375579545","lat":25.058093,"lon":121.51902,"name":"未命名餐廳","decorType":"restaurant"},{"id":"node-9375579546","lat":25.057893,"lon":121.519076,"name":"未命名餐廳","decorType":"restaurant"},{"id":"node-9375579547","lat":25.057735,"lon":121.5191,"name":"未命名餐廳","decorType":"restaurant"},{"id":"node-9375579548","lat":25.057675,"lon":121.519565,"name":"未命名餐廳","decorType":"restaurant"},{"id":"node-9375579549","lat":25.057126,"lon":121.519407,"name":"未命名化妝品商店","decorType":"cosmetics"},{"id":"node-9375579550","lat":25.057118,"lon":121.51908,"name":"未命名化妝品商店","decorType":"cosmetics"},{"id":"node-9375579553","lat":25.056955,"lon":121.519385,"name":"未命名餐廳","decorType":"restaurant"},{"id":"node-9375579556","lat":25.055856,"lon":121.51959,"name":"未命名餐廳","decorType":"restaurant"},{"id":"node-9375579560","lat":25.055255,"lon":121.519451,"name":"未命名化妝品商店","decorType":"cosmetics"},{"id":"node-9375696093","lat":25.055704,"lon":121.521025,"name":"未命名餐廳","decorType":"restaurant"},{"id":"node-9427849332","lat":25.062621,"lon":121.520209,"name":"天仁茗茶","decorType":"cafe"},{"id":"node-9427849335","lat":25.063046,"lon":121.519904,"name":"CoCo壱番屋","decorType":"restaurant"},{"id":"node-9427849336","lat":25.063053,"lon":121.519848,"name":"7-Eleven","decorType":"convenience"},{"id":"node-9427849337","lat":25.062541,"lon":121.5196,"name":"Mister Donut","decorType":"burger"},{"id":"node-9427849338","lat":25.062589,"lon":121.519581,"name":"樂田麵包屋","decorType":"bakery"},{"id":"node-9491209680","lat":25.062021,"lon":121.513752,"name":"蝦皮店到店","decorType":"convenience"},{"id":"node-9588074532","lat":25.065714,"lon":121.514924,"name":"蝦皮店到店","decorType":"convenience"},{"id":"node-9661917329","lat":25.058416,"lon":121.511399,"name":"永樂雞捲大王","decorType":"restaurant"},{"id":"node-9676896682","lat":25.05993,"lon":121.521754,"name":"呷上飽早餐店","decorType":"burger"},{"id":"node-9682731193","lat":25.064938,"lon":121.511174,"name":"大橋頭米糕","decorType":"restaurant"},{"id":"node-9787827350","lat":25.066432,"lon":121.513524,"name":"昌吉重慶路口 (延平國小)","decorType":"bus_stop"},{"id":"node-9894637282","lat":25.062717,"lon":121.516927,"name":"全家便利商店","decorType":"convenience"},{"id":"node-9894637283","lat":25.062713,"lon":121.516834,"name":"心心麻辣鍋","decorType":"restaurant"},{"id":"node-9894683561","lat":25.063025,"lon":121.521051,"name":"VADDI 凡帝時尚","decorType":"clothing"},{"id":"node-9894683562","lat":25.062598,"lon":121.521071,"name":"en-suey","decorType":"clothing"},{"id":"node-9894683564","lat":25.063064,"lon":121.52098,"name":"小林髮廊","decorType":"hair_salon"},{"id":"node-9894683565","lat":25.06323,"lon":121.520903,"name":"Come Buy","decorType":"cafe"},{"id":"node-9894683567","lat":25.062624,"lon":121.520322,"name":"湘滋緹","decorType":"clothing"},{"id":"node-9894683568","lat":25.062592,"lon":121.520266,"name":"愛妮雅化妝品","decorType":"pharmacy"},{"id":"node-9894683569","lat":25.062619,"lon":121.520268,"name":"MO-BO","decorType":"clothing"},{"id":"node-9909809643","lat":25.068402,"lon":121.517925,"name":"蝦皮店到店","decorType":"convenience"},{"id":"node-10076726199","lat":25.056873,"lon":121.515044,"name":"再睡五分鐘","decorType":"cafe"},{"id":"node-10312585405","lat":25.057042,"lon":121.512023,"name":"雅米自助餐店","decorType":"restaurant"},{"id":"node-10536274359","lat":25.056823,"lon":121.512045,"name":"克雷德國際服飾","decorType":"clothing"},{"id":"node-10536274360","lat":25.056822,"lon":121.512132,"name":"吃吃等石頭沙茶火鍋","decorType":"restaurant"},{"id":"node-10801472278","lat":25.057013,"lon":121.509909,"name":"365德和蔘茸","decorType":"pharmacy"},{"id":"node-10801488097","lat":25.057519,"lon":121.511651,"name":"躍獅藥局","decorType":"pharmacy"},{"id":"node-10917747792","lat":25.059818,"lon":121.518443,"name":"Lisa泰式美食","decorType":"restaurant"},{"id":"node-10917747793","lat":25.05887,"lon":121.518471,"name":"順豐速運 SF Express","decorType":"post_office"},{"id":"node-10917797645","lat":25.067551,"lon":121.518593,"name":"普泉精舍","decorType":"shrine"},{"id":"node-10917797647","lat":25.064073,"lon":121.518536,"name":"1996 台灣茶葉飲品專賣店","decorType":"cafe"},{"id":"node-10917892117","lat":25.068718,"lon":121.515984,"name":"7-Eleven","decorType":"convenience"},{"id":"node-11079226544","lat":25.064072,"lon":121.521953,"name":"朗咖啡館","decorType":"cafe"},{"id":"node-11198928037","lat":25.059117,"lon":121.514366,"name":"未命名超市","decorType":"supermarket"},{"id":"node-11215541431","lat":25.054592,"lon":121.511636,"name":"金冠皮鞋","decorType":"clothing"},{"id":"node-11215541432","lat":25.054638,"lon":121.511636,"name":"披薩有張臉","decorType":"restaurant"},{"id":"node-11215628858","lat":25.056047,"lon":121.511774,"name":"桃花源緣","decorType":"restaurant"},{"id":"node-11215628859","lat":25.055981,"lon":121.51178,"name":"洪裕泰","decorType":"clothing"},{"id":"node-11215628863","lat":25.054349,"lon":121.511651,"name":"微醺花園","decorType":"restaurant"},{"id":"node-11215628864","lat":25.054685,"lon":121.511862,"name":"芙稻菓室","decorType":"restaurant"},{"id":"node-11215628865","lat":25.054493,"lon":121.511875,"name":"COOCHAD","decorType":"clothing"},{"id":"node-11220379702","lat":25.057326,"lon":121.511436,"name":"富康藥局","decorType":"pharmacy"},{"id":"node-11299163756","lat":25.060265,"lon":121.511236,"name":"7-Eleven","decorType":"convenience"},{"id":"node-11299163763","lat":25.058355,"lon":121.509748,"name":"Backer House","decorType":"cafe"},{"id":"node-11299185771","lat":25.061884,"lon":121.509279,"name":"Anita's Life Cafe","decorType":"cafe"},{"id":"node-11311415379","lat":25.061105,"lon":121.521583,"name":"演咖啡","decorType":"cafe"},{"id":"node-11555970224","lat":25.054514,"lon":121.510017,"name":"小樽咖啡","decorType":"cafe"},{"id":"node-11555970228","lat":25.054369,"lon":121.510585,"name":"嶌日咖啡","decorType":"cafe"},{"id":"node-11774800135","lat":25.055352,"lon":121.515248,"name":"清心福全","decorType":"cafe"},{"id":"node-11774800137","lat":25.054762,"lon":121.51483,"name":"香連鐵板料理","decorType":"restaurant"},{"id":"node-11917369001","lat":25.05457,"lon":121.521954,"name":"理茶招待所2.0","decorType":"cafe"},{"id":"node-11951783477","lat":25.069285,"lon":121.518613,"name":"力揚體育","decorType":"clothing"},{"id":"node-12085079043","lat":25.054351,"lon":121.510214,"name":"一郎嫂快炒","decorType":"restaurant"},{"id":"node-12095149690","lat":25.05458,"lon":121.514999,"name":"屈臣氏","decorType":"pharmacy"},{"id":"node-12095329001","lat":25.055289,"lon":121.515216,"name":"Ban Ban Hot Pot","decorType":"restaurant"},{"id":"node-12095329002","lat":25.056116,"lon":121.515252,"name":"曾家鮮果汁","decorType":"burger"},{"id":"node-12095329003","lat":25.056741,"lon":121.515373,"name":"蚵仔煎大王","decorType":"restaurant"},{"id":"node-12095329004","lat":25.05675,"lon":121.515391,"name":"芋頭太郎","decorType":"cafe"},{"id":"node-12095329006","lat":25.056895,"lon":121.515474,"name":"吉乃川","decorType":"sweetshop"},{"id":"node-12095329007","lat":25.055717,"lon":121.515134,"name":"欧家果汁","decorType":"burger"},{"id":"node-12095329009","lat":25.055614,"lon":121.515111,"name":"豬血糕","decorType":"restaurant"},{"id":"node-12382177935","lat":25.063242,"lon":121.519354,"name":"未命名車站","decorType":"station"},{"id":"node-12382238384","lat":25.062979,"lon":121.520219,"name":"未命名車站","decorType":"station"},{"id":"node-12702606801","lat":25.056824,"lon":121.509274,"name":"窩窩咖啡廳","decorType":"cafe"},{"id":"node-12802027481","lat":25.057036,"lon":121.52086,"name":"一流二事素椒麵","decorType":"restaurant"},{"id":"node-12901648431","lat":25.055885,"lon":121.519642,"name":"權泉珈琲","decorType":"cafe"},{"id":"node-13041333279","lat":25.056188,"lon":121.513165,"name":"現流冊店","decorType":"library"},{"id":"node-13041333282","lat":25.056105,"lon":121.512752,"name":"聖南宮","decorType":"shrine"},{"id":"node-13063373601","lat":25.064002,"lon":121.511005,"name":"可不可熟成紅茶","decorType":"cafe"},{"id":"node-13063479302","lat":25.063764,"lon":121.511037,"name":"樂翻天","decorType":"restaurant"},{"id":"node-13146774801","lat":25.06445,"lon":121.518076,"name":"阿嬤家 和平與女性人權館","decorType":"art_gallery"},{"id":"node-13305918325","lat":25.0571,"lon":121.512564,"name":"蒔現茶空間","decorType":"cafe"},{"id":"node-13447514474","lat":25.057758,"lon":121.520304,"name":"雙連文記花枝羹","decorType":"restaurant"},{"id":"node-13447565726","lat":25.057427,"lon":121.517869,"name":"阿桐阿寶四神湯","decorType":"restaurant"},{"id":"way-50893533","lat":25.06296,"lon":121.512021,"name":"台北大橋","decorType":"bridge"},{"id":"way-50893549","lat":25.063018,"lon":121.513284,"name":"台北大橋","decorType":"bridge"},{"id":"way-111481151","lat":25.062892,"lon":121.518295,"name":"民權西路天橋","decorType":"bridge"},{"id":"way-194618328","lat":25.057643,"lon":121.520653,"name":"未命名公車站","decorType":"bus_stop"},{"id":"way-194618331","lat":25.062296,"lon":121.519595,"name":"未命名公車站","decorType":"bus_stop"},{"id":"way-201280835","lat":25.05579,"lon":121.512641,"name":"福興宮","decorType":"shrine"},{"id":"way-201280859","lat":25.06024,"lon":121.512396,"name":"慈聖宮","decorType":"shrine"},{"id":"way-201280861","lat":25.055934,"lon":121.513169,"name":"朝陽茶葉公園","decorType":"park"},{"id":"way-201280869","lat":25.055597,"lon":121.510216,"name":"霞海城隍廟","decorType":"shrine"},{"id":"way-203723648","lat":25.059056,"lon":121.514362,"name":"家樂福","decorType":"supermarket"},{"id":"way-211853511","lat":25.067063,"lon":121.521111,"name":"私立大同大學","decorType":"university"},{"id":"way-211853512","lat":25.068167,"lon":121.520601,"name":"室內體育館","decorType":"university"},{"id":"way-211853513","lat":25.068307,"lon":121.521247,"name":"A2 實驗大樓","decorType":"university"},{"id":"way-211853515","lat":25.067171,"lon":121.521796,"name":"A8 尚志教育研究館","decorType":"university"},{"id":"way-211853517","lat":25.066372,"lon":121.521921,"name":"A1 經營大樓","decorType":"university"},{"id":"way-211853518","lat":25.06725,"lon":121.520046,"name":"A4 綜合大樓","decorType":"university"},{"id":"way-211853520","lat":25.067685,"lon":121.520146,"name":"電波無反射室","decorType":"university"},{"id":"way-231659462","lat":25.059601,"lon":121.512515,"name":"臺灣基督長老教會","decorType":"shrine"},{"id":"way-246582235","lat":25.055396,"lon":121.512149,"name":"真聖堂","decorType":"shrine"},{"id":"way-247419611","lat":25.059273,"lon":121.521092,"name":"民享公園","decorType":"park"},{"id":"way-247419612","lat":25.059195,"lon":121.521009,"name":"文昌宮","decorType":"shrine"},{"id":"way-257354146","lat":25.066858,"lon":121.516283,"name":"樹德公園","decorType":"park"},{"id":"way-258432685","lat":25.05486,"lon":121.521387,"name":"臺北市中山運動中心","decorType":"stadium"},{"id":"way-258432691","lat":25.055631,"lon":121.522044,"name":"蔡瑞月舞蹈研究社","decorType":"park"},{"id":"way-258534756","lat":25.05976,"lon":121.516796,"name":"蔣渭水紀念公園","decorType":"park"},{"id":"way-259084320","lat":25.058721,"lon":121.510398,"name":"大稻埕公園","decorType":"park"},{"id":"way-282342256","lat":25.06127,"lon":121.5174,"name":"活動中心","decorType":"stadium"},{"id":"way-296786576","lat":25.059406,"lon":121.513323,"name":"台北城大飯店","decorType":"hotel"},{"id":"way-303408848","lat":25.067641,"lon":121.522105,"name":"志生紀念館","decorType":"art_gallery"},{"id":"way-311689671","lat":25.062919,"lon":121.513284,"name":"台北大橋","decorType":"bridge"},{"id":"way-324899962","lat":25.067106,"lon":121.522139,"name":"未命名水邊","decorType":"waterside"},{"id":"way-324899971","lat":25.066374,"lon":121.521784,"name":"未命名水邊","decorType":"waterside"},{"id":"way-324899980","lat":25.067272,"lon":121.521127,"name":"未命名森林","decorType":"forest"},{"id":"way-324899981","lat":25.067907,"lon":121.520634,"name":"未命名森林","decorType":"forest"},{"id":"way-324899982","lat":25.067042,"lon":121.52208,"name":"未命名森林","decorType":"forest"},{"id":"way-333290667","lat":25.05799,"lon":121.513157,"name":"歸綏戲曲公園","decorType":"park"},{"id":"way-347985893","lat":25.064373,"lon":121.521976,"name":"撫順公園","decorType":"park"},{"id":"way-347985926","lat":25.065292,"lon":121.521392,"name":"集英公園","decorType":"park"},{"id":"way-347987006","lat":25.064312,"lon":121.519234,"name":"崇德宮","decorType":"shrine"},{"id":"way-379354217","lat":25.061582,"lon":121.521852,"name":"永靜公園","decorType":"park"},{"id":"way-396410891","lat":25.054817,"lon":121.515127,"name":"建祥藥局","decorType":"pharmacy"},{"id":"way-396410899","lat":25.054675,"lon":121.514751,"name":"飄香牛肉麵館","decorType":"restaurant"},{"id":"way-396410900","lat":25.054649,"lon":121.514747,"name":"舞光LED","decorType":"electronics"},{"id":"way-396410903","lat":25.054535,"lon":121.514741,"name":"好吃炒羊肉","decorType":"restaurant"},{"id":"way-400582349","lat":25.064862,"lon":121.518687,"name":"三德大飯店","decorType":"hotel"},