{"bbox":{"south":25.054338,"north":25.069944,"west":121.496094,"east":121.509125},"pois":[{"id":"node-1942197448","lat":25.056696,"lon":121.507286,"name":"大稻埕碼頭","decorType":"station"},{"id":"node-2498534021","lat":25.062934,"lon":121.500211,"name":"出口 (重新路一段)","decorType":"station"},{"id":"node-2569328565","lat":25.056168,"lon":121.508915,"name":"未命名郵局","decorType":"post_office"},{"id":"node-2713414697","lat":25.063617,"lon":121.501932,"name":"三重派出所(重新路)","decorType":"bus_stop"},{"id":"node-2713414698","lat":25.06368,"lon":121.501638,"name":"三重派出所(重新路)","decorType":"bus_stop"},{"id":"node-2713415574","lat":25.063014,"lon":121.500333,"name":"捷運台北橋站","decorType":"bus_stop"},{"id":"node-2713415575","lat":25.063186,"lon":121.500281,"name":"捷運台北橋站","decorType":"bus_stop"},{"id":"node-2713416313","lat":25.061948,"lon":121.496915,"name":"天台廣場","decorType":"bus_stop"},{"id":"node-2713416314","lat":25.062313,"lon":121.498389,"name":"天台廣場","decorType":"bus_stop"},{"id":"node-3188319810","lat":25.065721,"lon":121.496958,"name":"長元西街口","decorType":"bus_stop"},{"id":"node-3188319811","lat":25.065126,"lon":121.496914,"name":"長元西街口","decorType":"bus_stop"},{"id":"node-3188319812","lat":25.061149,"lon":121.498035,"name":"三重郵局","decorType":"bus_stop"},{"id":"node-3188319827","lat":25.059696,"lon":121.49835,"name":"光興國小","decorType":"bus_stop"},{"id":"node-3188319851","lat":25.057083,"lon":121.500071,"name":"天后宮","decorType":"bus_stop"},{"id":"node-3188323164","lat":25.057645,"lon":121.498805,"name":"正義南路底","decorType":"bus_stop"},{"id":"node-3188323165","lat":25.06281,"lon":121.497606,"name":"正義重新路口","decorType":"bus_stop"},{"id":"node-3188323166","lat":25.063365,"lon":121.497597,"name":"正義重新路口","decorType":"bus_stop"},{"id":"node-3188323178","lat":25.062441,"lon":121.502994,"name":"福德南路","decorType":"bus_stop"},{"id":"node-3188323192","lat":25.067029,"lon":121.496536,"name":"長壽西街口","decorType":"bus_stop"},{"id":"node-3188323193","lat":25.067079,"lon":121.496388,"name":"長壽西街口","decorType":"bus_stop"},{"id":"node-3419699341","lat":25.056729,"lon":121.507929,"name":"大稻埕碼頭","decorType":"bus_stop"},{"id":"node-3419699344","lat":25.056521,"lon":121.509033,"name":"民生西寧路口","decorType":"bus_stop"},{"id":"node-3720428324","lat":25.063447,"lon":121.497646,"name":"New Balance","decorType":"clothing"},{"id":"node-3720429026","lat":25.0643,"lon":121.497405,"name":"Skechers","decorType":"clothing"},{"id":"node-3720429027","lat":25.062839,"lon":121.497831,"name":"Giordano","decorType":"clothing"},{"id":"node-3720429028","lat":25.0634,"lon":121.497659,"name":"曼都髮型","decorType":"hair_salon"},{"id":"node-3720429029","lat":25.063618,"lon":121.497327,"name":"Nike","decorType":"clothing"},{"id":"node-3720429031","lat":25.062901,"lon":121.497535,"name":"能量小姐","decorType":"restaurant"},{"id":"node-3720429032","lat":25.063353,"lon":121.497673,"name":"So Nice","decorType":"clothing"},{"id":"node-3720429033","lat":25.063702,"lon":121.49757,"name":"MOMA","decorType":"clothing"},{"id":"node-3720429036","lat":25.06311,"lon":121.497481,"name":"Xiaomi","decorType":"electronics"},{"id":"node-3720429037","lat":25.069352,"lon":121.498023,"name":"三重國小","decorType":"bus_stop"},{"id":"node-3720429038","lat":25.069533,"lon":121.498177,"name":"三重國小","decorType":"bus_stop"},{"id":"node-3720429041","lat":25.063489,"lon":121.497364,"name":"五燈獎豬腳飯","decorType":"restaurant"},{"id":"node-3720429048","lat":25.069434,"lon":121.498427,"name":"全聯福利中心","decorType":"supermarket"},{"id":"node-3720429049","lat":25.064141,"lon":121.497158,"name":"大樹藥局","decorType":"pharmacy"},{"id":"node-3720429053","lat":25.062976,"lon":121.497791,"name":"小林髮郎","decorType":"hair_salon"},{"id":"node-3720429059","lat":25.063165,"lon":121.497739,"name":"日藥本鋪","decorType":"pharmacy"},{"id":"node-3720429062","lat":25.062882,"lon":121.497818,"name":"德克士脆皮炸雞","decorType":"burger"},{"id":"node-3720429073","lat":25.063967,"lon":121.497226,"name":"第九站精緻鍋品","decorType":"restaurant"},{"id":"node-3720429187","lat":25.064625,"lon":121.497321,"name":"寶雅","decorType":"pharmacy"},{"id":"node-3720429188","lat":25.064241,"lon":121.497421,"name":"義美食品","decorType":"supermarket"},{"id":"node-3720429190","lat":25.062991,"lon":121.497787,"name":"華歌爾","decorType":"clothing"},{"id":"node-3720429194","lat":25.063494,"lon":121.497632,"name":"阿瘦皮鞋","decorType":"clothing"},{"id":"node-3720429195","lat":25.062775,"lon":121.497574,"name":"7-Eleven","decorType":"convenience"},{"id":"node-3720429196","lat":25.06293,"lon":121.497806,"name":"麥當勞","decorType":"burger"},{"id":"node-3720429197","lat":25.063889,"lon":121.497521,"name":"黛安芬","decorType":"clothing"},{"id":"node-3720429198","lat":25.06417,"lon":121.497442,"name":"7-Eleven","decorType":"convenience"},{"id":"node-3720461300","lat":25.064566,"lon":121.502274,"name":"三重派出所 (福德北路)","decorType":"bus_stop"},{"id":"node-3720461301","lat":25.065424,"lon":121.502133,"name":"三重派出所 (福德北路)","decorType":"bus_stop"},{"id":"node-3720461310","lat":25.067959,"lon":121.499741,"name":"萊爾富","decorType":"convenience"},{"id":"node-3720461311","lat":25.068289,"lon":121.49952,"name":"三和長榮路口","decorType":"bus_stop"},{"id":"node-3720461312","lat":25.068443,"lon":121.499616,"name":"三和長榮路口","decorType":"bus_stop"},{"id":"node-3720461313","lat":25.066964,"lon":121.501253,"name":"長生街口","decorType":"bus_stop"},{"id":"node-3720461314","lat":25.067114,"lon":121.500818,"name":"長生街口","decorType":"bus_stop"},{"id":"node-3779252951","lat":25.063178,"lon":121.500551,"name":"台北橋","decorType":"station"},{"id":"node-3835257358","lat":25.062365,"lon":121.508854,"name":"李亭香餅店","decorType":"bakery"},{"id":"node-4127278389","lat":25.068983,"lon":121.499044,"name":"7-Eleven","decorType":"convenience"},{"id":"node-4243080390","lat":25.066698,"lon":121.501517,"name":"神鶴鐵板燒","decorType":"restaurant"},{"id":"node-4260027890","lat":25.063126,"lon":121.499688,"name":"Hey Bear Capsule Hotel","decorType":"hotel"},{"id":"node-4294351426","lat":25.065514,"lon":121.500478,"name":"全家便利商店","decorType":"convenience"},{"id":"node-4294351453","lat":25.065513,"lon":121.498924,"name":"茶湯會","decorType":"cafe"},{"id":"node-4294351455","lat":25.064723,"lon":121.499041,"name":"7-Eleven","decorType":"convenience"},{"id":"node-4325606023","lat":25.06863,"lon":121.49616,"name":"必勝客","decorType":"restaurant"},{"id":"node-4325606047","lat":25.067117,"lon":121.496318,"name":"7-Eleven","decorType":"convenience"},{"id":"node-4326924100","lat":25.069129,"lon":121.498998,"name":"三重介壽路郵局 (三重7支)","decorType":"post_office"},{"id":"node-4384739541","lat":25.066696,"lon":121.496765,"name":"全國電子","decorType":"electronics"},{"id":"node-4423130976","lat":25.067572,"lon":121.496521,"name":"摩斯漢堡","decorType":"burger"},{"id":"node-4423130977","lat":25.06764,"lon":121.496495,"name":"屈臣氏","decorType":"pharmacy"},{"id":"node-4423130978","lat":25.067703,"lon":121.496468,"name":"神戶牛排館","decorType":"restaurant"},{"id":"node-4436175212","lat":25.060401,"lon":121.498094,"name":"沃客商旅-正義館","decorType":"hotel"},{"id":"node-4436175213","lat":25.06035,"lon":121.497859,"name":"御品川麻辣串串鍋","decorType":"restaurant"},{"id":"node-4436175214","lat":25.060204,"lon":121.498146,"name":"7-Eleven","decorType":"convenience"},{"id":"node-4436209402","lat":25.057048,"lon":121.496552,"name":"萊爾富","decorType":"convenience"},{"id":"node-4436209403","lat":25.056285,"lon":121.49693,"name":"7-Eleven","decorType":"convenience"},{"id":"node-4452770293","lat":25.062959,"lon":121.499541,"name":"肯德基","decorType":"burger"},{"id":"node-4452998475","lat":25.061515,"lon":121.498138,"name":"三重正義郵局(三重1支)","decorType":"post_office"},{"id":"node-4453014110","lat":25.06322,"lon":121.500983,"name":"摩斯漢堡","decorType":"burger"},{"id":"node-4453014119","lat":25.063322,"lon":121.501296,"name":"85度C","decorType":"cafe"},{"id":"node-4453014120","lat":25.063648,"lon":121.501066,"name":"萊爾富","decorType":"convenience"},{"id":"node-4453014125","lat":25.061865,"lon":121.500103,"name":"荳荳早餐店","decorType":"restaurant"},{"id":"node-4707097891","lat":25.06259,"lon":121.509011,"name":"豐舍","decorType":"restaurant"},{"id":"node-4838087722","lat":25.058398,"lon":121.508858,"name":"電腦商行","decorType":"electronics"},{"id":"node-4838087726","lat":25.062169,"lon":121.509096,"name":"大稻埕花園旅店","decorType":"hotel"},{"id":"node-4880303578","lat":25.067685,"lon":121.498032,"name":"全家便利商店","decorType":"convenience"},{"id":"node-4880303583","lat":25.06964,"lon":121.498047,"name":"馬師傅修鞋站","decorType":"clothing"},{"id":"node-4897384542","lat":25.061619,"lon":121.497896,"name":"7-Eleven","decorType":"convenience"},{"id":"node-4897384543","lat":25.061851,"lon":121.497773,"name":"全家便利商店","decorType":"convenience"},{"id":"node-5296714743","lat":25.062364,"lon":121.500002,"name":"7-Eleven","decorType":"convenience"},{"id":"node-5570659591","lat":25.065875,"lon":121.498803,"name":"7-Eleven","decorType":"convenience"},{"id":"node-6024236723","lat":25.068349,"lon":121.499747,"name":"口福壽司","decorType":"restaurant"},{"id":"node-6024236724","lat":25.068715,"lon":121.499339,"name":"郭錢橋日式刷刷鍋","decorType":"restaurant"},{"id":"node-6024244349","lat":25.069768,"lon":121.497841,"name":"春米鐵板吐司","decorType":"restaurant"},{"id":"node-6024254205","lat":25.069804,"lon":121.497929,"name":"北港躼腳羊肉店","decorType":"restaurant"},{"id":"node-6024254207","lat":25.069053,"lon":121.498888,"name":"中島甜不辣","decorType":"restaurant"},{"id":"node-6024278385","lat":25.069303,"lon":121.49752,"name":"美廉社","decorType":"supermarket"},{"id":"node-6139877686","lat":25.068442,"lon":121.499311,"name":"路易莎咖啡","decorType":"cafe"},{"id":"node-6144633989","lat":25.057308,"lon":121.508865,"name":"威輪單車咖啡","decorType":"cafe"},{"id":"node-6188986704","lat":25.068822,"lon":121.50098,"name":"全家便利商店","decorType":"convenience"},{"id":"node-6188986705","lat":25.069415,"lon":121.500806,"name":"億親烘焙坊","decorType":"bakery"},{"id":"node-6188986706","lat":25.067874,"lon":121.50026,"name":"八方雲集","decorType":"burger"},{"id":"node-6188986707","lat":25.067368,"lon":121.501388,"name":"7-Eleven","decorType":"convenience"},{"id":"node-6188986708","lat":25.067833,"lon":121.500385,"name":"悅來涮涮鍋","decorType":"restaurant"},{"id":"node-6188986709","lat":25.067691,"lon":121.500649,"name":"三和旅舍","decorType":"hotel"},{"id":"node-6188989812","lat":25.067614,"lon":121.50022,"name":"NET","decorType":"clothing"},{"id":"node-6188989813","lat":25.066711,"lon":121.501198,"name":"7-Eleven","decorType":"convenience"},{"id":"node-6188989814","lat":25.065452,"lon":121.502179,"name":"7-Eleven","decorType":"convenience"},{"id":"node-6188996221","lat":25.065392,"lon":121.501962,"name":"金島甜不辣","decorType":"restaurant"},{"id":"node-6188996222","lat":25.065175,"lon":121.502018,"name":"桶一天下現滷滷味","decorType":"restaurant"},{"id":"node-6188996223","lat":25.06444,"lon":121.502474,"name":"蛋營養古早味蛋糕","decorType":"bakery"},{"id":"node-6188996224","lat":25.064683,"lon":121.502182,"name":"弘爺漢堡","decorType":"burger"},{"id":"node-6188996225","lat":25.065231,"lon":121.502236,"name":"Subway","decorType":"burger"},{"id":"node-6188996226","lat":25.06611,"lon":121.502029,"name":"真永和北平烤鴨","decorType":"restaurant"},{"id":"node-6384892892","lat":25.05561,"lon":121.509099,"name":"香手捻咖啡","decorType":"cafe"},{"id":"node-6720844013","lat":25.054793,"lon":121.508987,"name":"為什麼手工窯烤披薩","decorType":"restaurant"},{"id":"node-6720844036","lat":25.062129,"lon":121.509062,"name":"D.G.Cafe","decorType":"cafe"},{"id":"node-6779509366","lat":25.05611,"lon":121.500098,"name":"忠孝碼頭","decorType":"station"},{"id":"node-6894204663","lat":25.063569,"lon":121.502789,"name":"未命名郵局","decorType":"post_office"},{"id":"node-6894204669","lat":25.062072,"lon":121.500037,"name":"美廉社","decorType":"supermarket"},{"id":"node-6894204670","lat":25.062533,"lon":121.500112,"name":"綠堤Coffee","decorType":"cafe"},{"id":"node-6894204675","lat":25.062485,"lon":121.501231,"name":"美廉社","decorType":"supermarket"},{"id":"node-6894204678","lat":25.061143,"lon":121.501535,"name":"萊爾富","decorType":"convenience"},{"id":"node-6894204679","lat":25.061522,"lon":121.501526,"name":"鴨肉麵","decorType":"restaurant"},{"id":"node-6894204680","lat":25.061907,"lon":121.501312,"name":"興富發熱炒","decorType":"restaurant"},{"id":"node-7170215703","lat":25.063196,"lon":121.502893,"name":"呷尚寶","decorType":"burger"},{"id":"node-7170215704","lat":25.063059,"lon":121.502857,"name":"素越美食","decorType":"restaurant"},{"id":"node-7170215705","lat":25.06229,"lon":121.503087,"name":"奇萊早餐店","decorType":"restaurant"},{"id":"node-7170215706","lat":25.062467,"lon":121.502617,"name":"心妙素食自助餐)","decorType":"restaurant"},{"id":"node-7282086089","lat":25.064176,"lon":121.497524,"name":"朱記花枝羹","decorType":"restaurant"},{"id":"node-7365923858","lat":25.062601,"lon":121.498594,"name":"益安家電空調照明","decorType":"electronics"},{"id":"node-7365923862","lat":25.062493,"lon":121.498281,"name":"天仁茗茶","decorType":"cafe"},{"id":"node-7365923863","lat":25.062576,"lon":121.498514,"name":"宜品福州乾拌麵","decorType":"restaurant"},{"id":"node-7365923864","lat":25.062564,"lon":121.498476,"name":"三商巧福","decorType":"restaurant"},{"id":"node-7365923865","lat":25.062481,"lon":121.498236,"name":"樂釜極上鍋物","decorType":"restaurant"},{"id":"node-7365923866","lat":25.063601,"lon":121.49972,"name":"全家便利商店","decorType":"convenience"},{"id":"node-7365923867","lat":25.065894,"lon":121.498662,"name":"Lin剪燙染護造型沙龍","decorType":"hair_salon"},{"id":"node-7365923868","lat":25.066132,"lon":121.498715,"name":"亂剪髮型沙龍","decorType":"hair_salon"},{"id":"node-7365923869","lat":25.065669,"lon":121.498742,"name":"阿燕羊肉羹","decorType":"restaurant"},{"id":"node-7365923870","lat":25.06486,"lon":121.499132,"name":"素食滷味","decorType":"restaurant"},{"id":"node-7365923871","lat":25.064879,"lon":121.499127,"name":"佳弘電器行","decorType":"electronics"},{"id":"node-7365923872","lat":25.064722,"lon":121.499188,"name":"文化素羹麵","decorType":"restaurant"},{"id":"node-7365923874","lat":25.064625,"lon":121.499212,"name":"林記臭豆腐、大腸麵線","decorType":"restaurant"},{"id":"node-7365923875","lat":25.064661,"lon":121.499202,"name":"蔡家三絲丸蚵仔煎","decorType":"restaurant"},{"id":"node-7365923876","lat":25.067197,"lon":121.49824,"name":"曾記花枝羹","decorType":"restaurant"},{"id":"node-7365923878","lat":25.067119,"lon":121.498261,"name":"紅燈籠熱炒","decorType":"restaurant"},{"id":"node-7365923882","lat":25.066677,"lon":121.498533,"name":"大新糙米麩","decorType":"sweetshop"},{"id":"node-7365923884","lat":25.066584,"lon":121.498572,"name":"阜囍廣東粥","decorType":"restaurant"},{"id":"node-7365963985","lat":25.066413,"lon":121.498625,"name":"澳門氹仔燒臘","decorType":"restaurant"},{"id":"node-7365963986","lat":25.066454,"lon":121.498613,"name":"鼎記手工肉羹","decorType":"restaurant"},{"id":"node-7365963987","lat":25.06553,"lon":121.497462,"name":"蘇梅泰國小館","decorType":"restaurant"},{"id":"node-7365963988","lat":25.065575,"lon":121.497025,"name":"吉野家","decorType":"burger"},{"id":"node-7365963996","lat":25.065703,"lon":121.496708,"name":"聖美膚藥局","decorType":"pharmacy"},{"id":"node-7365963997","lat":25.065714,"lon":121.49699,"name":"FIVE PENCE","decorType":"clothing"},{"id":"node-7365964001","lat":25.066197,"lon":121.496573,"name":"大同3C","decorType":"electronics"},{"id":"node-7365964002","lat":25.065966,"lon":121.496635,"name":"星巴克","decorType":"cafe"},{"id":"node-7365964005","lat":25.066728,"lon":121.498518,"name":"壽司、甜不辣","decorType":"restaurant"},{"id":"node-7365964006","lat":25.066622,"lon":121.498549,"name":"二哥串烤","decorType":"restaurant"},{"id":"node-7365964007","lat":25.066673,"lon":121.498404,"name":"阿婆甜不辣","decorType":"restaurant"},{"id":"node-7365964010","lat":25.067355,"lon":121.498316,"name":"CoCo都可","decorType":"cafe"},{"id":"node-7365964011","lat":25.06738,"lon":121.49831,"name":"義軒刨冰","decorType":"cafe"},{"id":"node-7365964012","lat":25.067197,"lon":121.498361,"name":"世洲排骨飯","decorType":"restaurant"},{"id":"node-7365964017","lat":25.064027,"lon":121.497205,"name":"漢堡王","decorType":"burger"},{"id":"node-7365964018","lat":25.065997,"lon":121.498769,"name":"真耶穌教會三重教會","decorType":"shrine"},{"id":"node-7365964019","lat":25.066403,"lon":121.498501,"name":"萊爾富","decorType":"convenience"},{"id":"node-7365964020","lat":25.064446,"lon":121.499156,"name":"一嘴鍋燒麵","decorType":"restaurant"},{"id":"node-7365964021","lat":25.064462,"lon":121.499127,"name":"唯寧記麻辣鴨血豆腐","decorType":"restaurant"},{"id":"node-7365964025","lat":25.065582,"lon":121.498769,"name":"水煎包小籠包","decorType":"restaurant"},{"id":"node-7365964026","lat":25.066191,"lon":121.498565,"name":"清心福全","decorType":"cafe"},{"id":"node-7365964027","lat":25.066029,"lon":121.498616,"name":"手作羮，赤肉羮","decorType":"restaurant"},{"id":"node-7365964028","lat":25.066096,"lon":121.49871,"name":"兄妹豆花","decorType":"cafe"},{"id":"node-7365964029","lat":25.066192,"lon":121.498699,"name":"佳奇鐵板燒","decorType":"restaurant"},{"id":"node-7365964030","lat":25.066304,"lon":121.498548,"name":"万丹紅豆餅","decorType":"sweetshop"},{"id":"node-7365964031","lat":25.066287,"lon":121.498537,"name":"寶神日式涮涮鍋","decorType":"restaurant"},{"id":"node-7365964032","lat":25.066352,"lon":121.498516,"name":"豪美精緻自助餐","decorType":"restaurant"},{"id":"node-7365964033","lat":25.066514,"lon":121.498594,"name":"鐵板城平價鐵板燒便當","decorType":"restaurant"},{"id":"node-7365964034","lat":25.066842,"lon":121.498494,"name":"三顧茅廬麻辣滷味","decorType":"restaurant"},{"id":"node-7365964035","lat":25.067209,"lon":121.497641,"name":"三重埔基督長老教會","decorType":"shrine"},{"id":"node-7365964037","lat":25.066736,"lon":121.497009,"name":"佳瑪生活百貨","decorType":"pharmacy"},{"id":"node-7365964038","lat":25.065935,"lon":121.496937,"name":"1985窯烤披薩","decorType":"restaurant"},{"id":"node-7365964040","lat":25.065332,"lon":121.497091,"name":"瓦城泰國料理","decorType":"restaurant"},{"id":"node-7365964041","lat":25.06519,"lon":121.496859,"name":"正義豆漿店","decorType":"restaurant"},{"id":"node-7365964042","lat":25.065715,"lon":121.496749,"name":"正義北路","decorType":"bus_stop"},{"id":"node-7365964043","lat":25.065844,"lon":121.498676,"name":"中華飯包","decorType":"restaurant"},{"id":"node-7365964044","lat":25.065952,"lon":121.498644,"name":"三重知高飯","decorType":"restaurant"},{"id":"node-7365964045","lat":25.065794,"lon":121.498683,"name":"佳鄉牛排","decorType":"restaurant"},{"id":"node-7365964047","lat":25.065425,"lon":121.498956,"name":"香Q彰化肉圓大腸麵線香酥臭豆腐","decorType":"restaurant"},{"id":"node-7365964048","lat":25.064946,"lon":121.499103,"name":"金騰三重老牌油飯四神湯","decorType":"restaurant"},{"id":"node-7365964049","lat":25.066367,"lon":121.498643,"name":"50嵐","decorType":"cafe"},{"id":"node-7365964050","lat":25.066284,"lon":121.498669,"name":"小林健保藥局","decorType":"pharmacy"},{"id":"node-7365964051","lat":25.065596,"lon":121.498895,"name":"好品味牛排","decorType":"restaurant"},{"id":"node-7365964052","lat":25.065304,"lon":121.498992,"name":"信義公園豬血湯","decorType":"restaurant"},{"id":"node-7365964053","lat":25.065351,"lon":121.498979,"name":"土庫鴨肉富","decorType":"restaurant"},{"id":"node-7365964054","lat":25.065391,"lon":121.498964,"name":"店小二","decorType":"restaurant"},{"id":"node-7365964055","lat":25.065229,"lon":121.499019,"name":"享味清粥","decorType":"restaurant"},{"id":"node-7365964057","lat":25.065079,"lon":121.499066,"name":"妙音素食","decorType":"restaurant"},{"id":"node-7365964058","lat":25.065033,"lon":121.499079,"name":"滿佶養生食堂","decorType":"restaurant"},{"id":"node-7368540615","lat":25.066187,"lon":121.500268,"name":"萊爾富","decorType":"convenience"},{"id":"node-7368540623","lat":25.066531,"lon":121.498454,"name":"翟家家常紅燒牛肉麵","decorType":"restaurant"},{"id":"node-7368540627","lat":25.065335,"lon":121.501978,"name":"泉興五金行","decorType":"hardware"},{"id":"node-7368540628","lat":25.066452,"lon":121.501827,"name":"福安宮","decorType":"shrine"},{"id":"node-7368540682","lat":25.068763,"lon":121.4989,"name":"牛井","decorType":"restaurant"},{"id":"node-7368540683","lat":25.068254,"lon":121.499547,"name":"驊珍食品","decorType":"bakery"},{"id":"node-7368631788","lat":25.063412,"lon":121.501507,"name":"肉多多火鍋","decorType":"restaurant"},{"id":"node-7368631789","lat":25.06372,"lon":121.501649,"name":"傑昇通信","decorType":"electronics"},{"id":"node-7368631796","lat":25.063791,"lon":121.497551,"name":"La new","decorType":"clothing"},{"id":"node-7368631797","lat":25.063943,"lon":121.497509,"name":"三槍","decorType":"clothing"},{"id":"node-7368631798","lat":25.063586,"lon":121.497605,"name":"Roots","decorType":"clothing"},{"id":"node-7368631799","lat":25.06363,"lon":121.497592,"name":"MO-BO","decorType":"clothing"},{"id":"node-7368631802","lat":25.063055,"lon":121.497499,"name":"可不可熟成紅茶","decorType":"cafe"},{"id":"node-7368631807","lat":25.062776,"lon":121.499812,"name":"NET","decorType":"clothing"},{"id":"node-7368631808","lat":25.062393,"lon":121.497672,"name":"興豐通訊","decorType":"electronics"},{"id":"node-7368631809","lat":25.062431,"lon":121.497662,"name":"寧夏鄭記台南碗粿","decorType":"restaurant"},{"id":"node-7368631810","lat":25.062349,"lon":121.497681,"name":"里約歐義廚房","decorType":"restaurant"},{"id":"node-7368631812","lat":25.062257,"lon":121.497618,"name":"滋味多健康素食","decorType":"restaurant"},{"id":"node-7368631814","lat":25.061677,"lon":121.497798,"name":"全聯福利中心","decorType":"supermarket"},{"id":"node-7368631815","lat":25.061725,"lon":121.497792,"name":"康是美","decorType":"pharmacy"},{"id":"node-7368631816","lat":25.061954,"lon":121.498076,"name":"旺角石頭火鍋店","decorType":"restaurant"},{"id":"node-7368631821","lat":25.062207,"lon":121.498169,"name":"大賞平價鐵板燒","decorType":"restaurant"},{"id":"node-7368631823","lat":25.062238,"lon":121.498264,"name":"倉津鍋物","decorType":"restaurant"},{"id":"node-7368631824","lat":25.062254,"lon":121.498312,"name":"台灣大哥大","decorType":"electronics"},{"id":"node-7368631825","lat":25.062269,"lon":121.498356,"name":"Rosa羅撒蛋糕","decorType":"bakery"},{"id":"node-7368631826","lat":25.062281,"lon":121.498397,"name":"SCONA蘇格南皮鞋","decorType":"clothing"},{"id":"node-7368631828","lat":25.062469,"lon":121.498922,"name":"西維亞創意造型沙龍","decorType":"hair_salon"},{"id":"node-7368631829","lat":25.062742,"lon":121.498965,"name":"康是美","decorType":"pharmacy"},{"id":"node-7368631831","lat":25.062628,"lon":121.499356,"name":"麗的美容百貨","decorType":"pharmacy"},{"id":"node-7368631833","lat":25.064204,"lon":121.49937,"name":"普羅鐵板燒","decorType":"restaurant"},{"id":"node-7368631834","lat":25.063927,"lon":121.499364,"name":"圓泰式料理","decorType":"restaurant"},{"id":"node-7368631836","lat":25.063823,"lon":121.499424,"name":"御鼎極品豬腳","decorType":"restaurant"},{"id":"node-7368631837","lat":25.063779,"lon":121.499454,"name":"巨林美而美","decorType":"burger"},{"id":"node-7368631839","lat":25.063476,"lon":121.499762,"name":"祥毫五金行","decorType":"hardware"},{"id":"node-7368631840","lat":25.063533,"lon":121.499548,"name":"ONEHair時尚美髮造型","decorType":"hair_salon"},{"id":"node-7368631841","lat":25.063546,"lon":121.499723,"name":"加慕秀","decorType":"hair_salon"},{"id":"node-7368631842","lat":25.063262,"lon":121.499852,"name":"ONEHair時尚美髮造型","decorType":"hair_salon"},{"id":"node-7368631849","lat":25.06269,"lon":121.49953,"name":"路易莎咖啡LOUISA COFFEE","decorType":"cafe"},{"id":"node-7368631850","lat":25.062713,"lon":121.499596,"name":"二鬼麵舖","decorType":"restaurant"},{"id":"node-7368631853","lat":25.063391,"lon":121.50076,"name":"驊珍食品","decorType":"bakery"},{"id":"node-7368631854","lat":25.063411,"lon":121.500816,"name":"胖老爹美式炸雞","decorType":"burger"},{"id":"node-7368631855","lat":25.06343,"lon":121.500873,"name":"鴻泰健保藥局","decorType":"pharmacy"},{"id":"node-7368631859","lat":25.063176,"lon":121.50021,"name":"台灣大哥大","decorType":"electronics"},{"id":"node-7368631861","lat":25.063148,"lon":121.500122,"name":"臻曜藥局","decorType":"pharmacy"},{"id":"node-7368631863","lat":25.063205,"lon":121.499878,"name":"歐家莊","decorType":"restaurant"},{"id":"node-7368631864","lat":25.063897,"lon":121.49938,"name":"小火龍肉羹","decorType":"restaurant"},{"id":"node-7368631865","lat":25.063739,"lon":121.500226,"name":"慈惠宮","decorType":"shrine"},{"id":"node-7368631868","lat":25.064404,"lon":121.499041,"name":"上紅小火鍋","decorType":"restaurant"},{"id":"node-7368631869","lat":25.063853,"lon":121.499559,"name":"美而佳早餐店","decorType":"restaurant"},{"id":"node-7368631870","lat":25.063925,"lon":121.49952,"name":"泰品泰式料理","decorType":"restaurant"},{"id":"node-7368631871","lat":25.063729,"lon":121.499476,"name":"鶴大眾化日本料理","decorType":"restaurant"},{"id":"node-7368631872","lat":25.063512,"lon":121.499742,"name":"西町日本料理","decorType":"restaurant"},{"id":"node-7368631873","lat":25.063444,"lon":121.499577,"name":"精緻西點歐式麵包12元起","decorType":"bakery"},{"id":"node-7368631874","lat":25.063399,"lon":121.499592,"name":"Duke's Pizza","decorType":"restaurant"},{"id":"node-7368631875","lat":25.063357,"lon":121.499607,"name":"日式威廉","decorType":"hair_salon"},{"id":"node-7368631876","lat":25.063256,"lon":121.499634,"name":"重農超市","decorType":"supermarket"},{"id":"node-7368962857","lat":25.064305,"lon":121.496498,"name":"吉坊素食烘焙","decorType":"bakery"},{"id":"node-7368962861","lat":25.066622,"lon":121.498417,"name":"周式燒麻糬","decorType":"cafe"},{"id":"node-7368962862","lat":25.066761,"lon":121.498374,"name":"水餃、牛肉麵","decorType":"restaurant"},{"id":"node-7368962863","lat":25.066787,"lon":121.498367,"name":"排行榜無骨鹽酥雞","decorType":"restaurant"},{"id":"node-7368962865","lat":25.066823,"lon":121.498357,"name":"穗安藥房","decorType":"pharmacy"},{"id":"node-7368962868","lat":25.065042,"lon":121.498005,"name":"三重老牌甜不辣專賣店","decorType":"restaurant"},{"id":"node-7368962869","lat":25.064494,"lon":121.499119,"name":"北港生炒羊肉","decorType":"restaurant"},{"id":"node-7416497184","lat":25.067176,"lon":121.497942,"name":"7-Eleven","decorType":"convenience"},{"id":"node-7441633141","lat":25.060734,"lon":121.498336,"name":"福地涼麵","decorType":"restaurant"},{"id":"node-7441633142","lat":25.061861,"lon":121.498236,"name":"Koon coffee 㒭咖啡","decorType":"cafe"},{"id":"node-7746425817","lat":25.067936,"lon":121.499876,"name":"雙城美食 麻油雞","decorType":"restaurant"},{"id":"node-7746425818","lat":25.067403,"lon":121.500453,"name":"益昌豆漿","decorType":"restaurant"},{"id":"node-7746425819","lat":25.067274,"lon":121.50043,"name":"林傳統豆花","decorType":"restaurant"},{"id":"node-7746425820","lat":25.067309,"lon":121.500494,"name":"素食","decorType":"restaurant"},{"id":"node-7746425821","lat":25.066809,"lon":121.501416,"name":"大呼過癮","decorType":"restaurant"},{"id":"node-7746425822","lat":25.066496,"lon":121.501763,"name":"嘎嘎","decorType":"restaurant"},{"id":"node-7746425823","lat":25.06638,"lon":121.502026,"name":"101鵝肉海鮮","decorType":"restaurant"},{"id":"node-7746425826","lat":25.065021,"lon":121.502068,"name":"未命名餐廳","decorType":"restaurant"},{"id":"node-7746425827","lat":25.064871,"lon":121.502094,"name":"未命名餐廳","decorType":"restaurant"},{"id":"node-7749782420","lat":25.0629,"lon":121.509067,"name":"東方饌黔天下","decorType":"restaurant"},{"id":"node-7800500960","lat":25.062244,"lon":121.50874,"name":"無口小廚","decorType":"restaurant"},{"id":"node-7803246842","lat":25.062951,"lon":121.501066,"name":"美式早餐屋","decorType":"restaurant"},{"id":"node-7803246843","lat":25.062684,"lon":121.501173,"name":"三和麵店","decorType":"restaurant"},{"id":"node-7803246844","lat":25.06384,"lon":121.498975,"name":"和源町食堂","decorType":"restaurant"},{"id":"node-7803246845","lat":25.063029,"lon":121.499821,"name":"福州葱油餅","decorType":"restaurant"},{"id":"node-7820617678","lat":25.061171,"lon":121.497998,"name":"牛家莊原汁牛肉麵","decorType":"restaurant"},{"id":"node-7820702190","lat":25.066848,"lon":121.500078,"name":"小楊招牌脆腸","decorType":"restaurant"},{"id":"node-7820702197","lat":25.06031,"lon":121.498435,"name":"蘭陽鍋物","decorType":"restaurant"},{"id":"node-7820702202","lat":25.064953,"lon":121.501111,"name":"早安美芝城","decorType":"burger"},{"id":"node-7820702209","lat":25.067284,"lon":121.501097,"name":"松葉涮涮鍋壽喜鍋","decorType":"restaurant"},{"id":"node-7820702218","lat":25.067589,"lon":121.501685,"name":"Station 1993","decorType":"restaurant"},{"id":"node-7820702226","lat":25.061672,"lon":121.501546,"name":"哈姆蛋","decorType":"restaurant"},{"id":"node-7820702228","lat":25.066147,"lon":121.500249,"name":"双保明小籠湯包","decorType":"restaurant"},{"id":"node-7820702232","lat":25.060553,"lon":121.498392,"name":"得意圓滿火鍋","decorType":"restaurant"},{"id":"node-7820702236","lat":25.068589,"lon":121.502817,"name":"南洋炒泡麵","decorType":"restaurant"},{"id":"node-7820702240","lat":25.065142,"lon":121.500745,"name":"武大郎蔥仔餅","decorType":"restaurant"},{"id":"node-7820702255","lat":25.064408,"lon":121.500906,"name":"大阪燒","decorType":"restaurant"},{"id":"node-7820702264","lat":25.061215,"lon":121.498216,"name":"食客餓餓義大利麵料理","decorType":"restaurant"},{"id":"node-7820702268","lat":25.067574,"lon":121.502033,"name":"金展","decorType":"restaurant"},{"id":"node-7820702269","lat":25.059817,"lon":121.496849,"name":"皇家吉利堡","decorType":"restaurant"},{"id":"node-7820702279","lat":25.064587,"lon":121.500974,"name":"台北橋三和夜市蝦仁羹","decorType":"restaurant"},{"id":"node-7820702297","lat":25.066043,"lon":121.500465,"name":"阿文餛飩湯圓","decorType":"restaurant"},{"id":"node-7820702305","lat":25.065164,"lon":121.500409,"name":"江南里-素食芋頭粥、麵線","decorType":"restaurant"},{"id":"node-7820702307","lat":25.064972,"lon":121.500587,"name":"無雙炭烤玉米","decorType":"restaurant"},{"id":"node-7820702313","lat":25.066101,"lon":121.500533,"name":"上好大腸麵線","decorType":"restaurant"},{"id":"node-7820702315","lat":25.061077,"lon":121.498253,"name":"三重蛋餅大王","decorType":"restaurant"},{"id":"node-7820702316","lat":25.065942,"lon":121.50049,"name":"水果風炒冰","decorType":"restaurant"},{"id":"node-7820702317","lat":25.066255,"lon":121.500656,"name":"蚵四海小吃","decorType":"restaurant"},{"id":"node-7820702328","lat":25.061575,"lon":121.5,"name":"双魚居食屋","decorType":"restaurant"},{"id":"node-7820702329","lat":25.068974,"lon":121.502724,"name":"麥味登","decorType":"restaurant"},{"id":"node-7820702336","lat":25.065198,"lon":121.500612,"name":"菜市場豆花","decorType":"restaurant"},{"id":"node-7820702349","lat":25.060123,"lon":121.497844,"name":"樂窩雞蛋糕","decorType":"restaurant"},{"id":"node-7820702364","lat":25.06112,"lon":121.498023,"name":"懷念切仔麵","decorType":"restaurant"},{"id":"node-7820702372","lat":25.059736,"lon":121.496595,"name":"巨林美而美","decorType":"burger"},{"id":"node-7820702383","lat":25.066304,"lon":121.50025,"name":"吉市牛排","decorType":"restaurant"},{"id":"node-7820702385","lat":25.061269,"lon":121.50023,"name":"喵家帕尼尼","decorType":"restaurant"},{"id":"node-7820702386","lat":25.065965,"lon":121.50033,"name":"金英古早味蛋餅","decorType":"restaurant"},{"id":"node-7820702392","lat":25.061675,"lon":121.500064,"name":"大吳航乾拌麵雞肉飯","decorType":"restaurant"},{"id":"node-7820702401","lat":25.060112,"lon":121.497696,"name":"楓林便當","decorType":"restaurant"},{"id":"node-7820702402","lat":25.065201,"lon":121.500943,"name":"林家傳統壽司","decorType":"restaurant"},{"id":"node-7820702411","lat":25.059754,"lon":121.496765,"name":"美而美漢堡店","decorType":"restaurant"},{"id":"node-7820702412","lat":25.068679,"lon":121.502666,"name":"雅加達漢堡店","decorType":"restaurant"},{"id":"node-7820702413","lat":25.067839,"lon":121.502781,"name":"豐味香","decorType":"restaurant"},{"id":"node-7820702419","lat":25.065706,"lon":121.500522,"name":"四海泡泡冰","decorType":"restaurant"},{"id":"node-7820702420","lat":25.067701,"lon":121.502577,"name":"呷飽堡早餐店","decorType":"restaurant"},{"id":"node-7820702422","lat":25.061262,"lon":121.498209,"name":"三重清水排骨酥麵","decorType":"restaurant"},{"id":"node-7820702426","lat":25.066117,"lon":121.500747,"name":"川野關東煮麻辣燙","decorType":"restaurant"},{"id":"node-7820702440","lat":25.066239,"lon":121.500553,"name":"𩵚魠魚羹","decorType":"restaurant"},{"id":"node-7820702442","lat":25.066014,"lon":121.500206,"name":"豬肉餡餅 韭菜盒","decorType":"restaurant"},{"id":"node-7820702446","lat":25.061894,"lon":121.500985,"name":"逃逸線書室","decorType":"cafe"},{"id":"node-7820702448","lat":25.061675,"lon":121.500316,"name":"Yummy Burger","decorType":"restaurant"},{"id":"node-7820702450","lat":25.066094,"lon":121.500477,"name":"長元日本料理","decorType":"restaurant"},{"id":"node-7820702456","lat":25.059861,"lon":121.496292,"name":"吉祥素食","decorType":"restaurant"},{"id":"node-7820702458","lat":25.0616,"lon":121.500155,"name":"禾田屋","decorType":"bakery"},{"id":"node-7820702469","lat":25.066135,"lon":121.500658,"name":"古早味四十年老店","decorType":"restaurant"},{"id":"node-7820702470","lat":25.059876,"lon":121.496349,"name":"光興街早餐店","decorType":"restaurant"},{"id":"node-7820702476","lat":25.068878,"lon":121.502509,"name":"早 日子","decorType":"restaurant"},{"id":"node-7820702483","lat":25.066117,"lon":121.500596,"name":"台南鱔魚麵","decorType":"restaurant"},{"id":"node-7820702488","lat":25.064629,"lon":121.500727,"name":"拿督肉骨茶","decorType":"restaurant"},{"id":"node-7820702491","lat":25.05972,"lon":121.497308,"name":"阿田麵","decorType":"restaurant"},{"id":"node-7820702492","lat":25.064527,"lon":121.500797,"name":"東石鮮蚵","decorType":"restaurant"},{"id":"node-7820702493","lat":25.060831,"lon":121.498196,"name":"刈包，肉粽","decorType":"restaurant"},{"id":"node-7820702495","lat":25.061138,"lon":121.500196,"name":"土司兄弟","decorType":"restaurant"},{"id":"node-7820702499","lat":25.06628,"lon":121.500739,"name":"吉市牛排二店","decorType":"restaurant"},{"id":"node-7820702501","lat":25.06725,"lon":121.501217,"name":"北港阿宏番麥大王","decorType":"restaurant"},{"id":"node-7820702509","lat":25.061283,"lon":121.501619,"name":"東方美","decorType":"restaurant"},{"id":"node-7820702512","lat":25.065133,"lon":121.500785,"name":"金本丸","decorType":"restaurant"},{"id":"node-7820702515","lat":25.061264,"lon":121.500019,"name":"好滷味鳳爪滷味","decorType":"restaurant"},{"id":"node-7820725897","lat":25.062987,"lon":121.501156,"name":"古早味小吃店","decorType":"restaurant"},{"id":"node-7820725898","lat":25.06305,"lon":121.501194,"name":"阿卡拉專業炸雞","decorType":"restaurant"},{"id":"node-7820725899","lat":25.063214,"lon":121.501016,"name":"三重父女雞蛋糕","decorType":"restaurant"},{"id":"node-7820725901","lat":25.06431,"lon":121.496325,"name":"天亮了","decorType":"restaurant"},{"id":"node-7820725902","lat":25.064346,"lon":121.496835,"name":"畢斯特美味廚房","decorType":"restaurant"},{"id":"node-7820725903","lat":25.065946,"lon":121.497156,"name":"李記排骨麵","decorType":"restaurant"},{"id":"node-7820725905","lat":25.064645,"lon":121.497809,"name":"美之品滷味","decorType":"restaurant"},{"id":"node-7820725906","lat":25.064631,"lon":121.497729,"name":"鱻味食堂","decorType":"restaurant"},{"id":"node-7820725907","lat":25.064513,"lon":121.497726,"name":"大眼妹","decorType":"restaurant"},{"id":"node-7820725908","lat":25.064536,"lon":121.497858,"name":"小蘋果早餐店","decorType":"restaurant"},{"id":"node-7820725909","lat":25.064589,"lon":121.498345,"name":"王將鬆餅","decorType":"restaurant"},{"id":"node-7820725910","lat":25.064611,"lon":121.498485,"name":"信義鯊魚煙","decorType":"restaurant"},{"id":"node-7820725911","lat":25.064615,"lon":121.498515,"name":"美而美","decorType":"restaurant"},{"id":"node-7820725912","lat":25.064656,"lon":121.498772,"name":"麥軒活力站","decorType":"restaurant"},{"id":"node-7820725913","lat":25.064673,"lon":121.498864,"name":"米粉湯","decorType":"restaurant"},{"id":"node-7820725914","lat":25.064708,"lon":121.49899,"name":"三重佳興魚丸店","decorType":"restaurant"},{"id":"node-7820748101","lat":25.066741,"lon":121.50118,"name":"三重橋頭麵線","decorType":"restaurant"},{"id":"node-7820748102","lat":25.066556,"lon":121.501333,"name":"厚大雞排","decorType":"restaurant"},{"id":"node-7820748103","lat":25.065998,"lon":121.501772,"name":"和鳳越南小吃","decorType":"restaurant"},{"id":"node-7836888447","lat":25.060715,"lon":121.501398,"name":"早餐店","decorType":"restaurant"},{"id":"node-7836888448","lat":25.060673,"lon":121.501398,"name":"元氣早午餐輕食","decorType":"restaurant"},{"id":"node-8014002743","lat":25.054554,"lon":121.508919,"name":"牛家莊海產","decorType":"restaurant"},{"id":"node-8014002744","lat":25.054657,"lon":121.508934,"name":"7號鬆餅屋","decorType":"restaurant"},{"id":"node-8014002745","lat":25.0547,"lon":121.508346,"name":"在她家","decorType":"restaurant"},{"id":"node-8059101002","lat":25.06043,"lon":121.497994,"name":"慶城商旅","decorType":"hotel"},{"id":"node-8059101006","lat":25.065202,"lon":121.502479,"name":"名華大旅社","decorType":"hotel"},{"id":"node-8059101015","lat":25.064789,"lon":121.49728,"name":"名爵汽車旅館","decorType":"hotel"},{"id":"node-8059101021","lat":25.067675,"lon":121.500698,"name":"三和旅舍","decorType":"hotel"},{"id":"node-8118279926","lat":25.068798,"lon":121.502786,"name":"7-Eleven","decorType":"convenience"},{"id":"node-8385313293","lat":25.059942,"lon":121.498289,"name":"八方雲集","decorType":"burger"},{"id":"node-8385313499","lat":25.061824,"lon":121.496287,"name":"八方雲集","decorType":"burger"},{"id":"node-8385313703","lat":25.062653,"lon":121.500057,"name":"八方雲集","decorType":"burger"},{"id":"node-8775966126","lat":25.062214,"lon":121.498274,"name":"Ink Salon","decorType":"hair_salon"},{"id":"node-8775987511","lat":25.061816,"lon":121.497147,"name":"屈臣氏","decorType":"pharmacy"},{"id":"node-8775987514","lat":25.062037,"lon":121.497753,"name":"紅不讓3C","decorType":"electronics"},{"id":"node-8775987516","lat":25.062865,"lon":121.497546,"name":"龜記茗品","decorType":"cafe"},{"id":"node-8776014817","lat":25.062602,"lon":121.497624,"name":"鍋藏精緻鍋物","decorType":"restaurant"},{"id":"node-8776014818","lat":25.062516,"lon":121.49762,"name":"Birkenstock","decorType":"clothing"},{"id":"node-8776014819","lat":25.062654,"lon":121.497561,"name":"影響力豐盛教會","decorType":"shrine"},{"id":"node-8776487264","lat":25.06162,"lon":121.496543,"name":"燦坤3C","decorType":"electronics"},{"id":"node-8776487265","lat":25.06188,"lon":121.496489,"name":"三重牛乳大王","decorType":"sweetshop"},{"id":"node-8776487267","lat":25.062066,"lon":121.49709,"name":"DK","decorType":"clothing"},{"id":"node-8776487268","lat":25.062008,"lon":121.496929,"name":"廣澤通信","decorType":"electronics"},{"id":"node-8776487269","lat":25.06173,"lon":121.49693,"name":"大呼過癮","decorType":"restaurant"},{"id":"node-8776487270","lat":25.061714,"lon":121.496875,"name":"燒肉 Smile","decorType":"restaurant"},{"id":"node-8776487274","lat":25.061817,"lon":121.496173,"name":"美康健保藥局","decorType":"pharmacy"},{"id":"node-9025783917","lat":25.063441,"lon":121.501619,"name":"卡比歐咖啡豆專賣店","decorType":"cafe"},{"id":"node-9342491838","lat":25.061649,"lon":121.501199,"name":"蝦皮店到店","decorType":"convenience"},{"id":"node-9403349754","lat":25.063016,"lon":121.497543,"name":"正義重新路口","decorType":"bus_stop"},{"id":"node-9410333981","lat":25.067001,"lon":121.500889,"name":"三媽臭臭鍋","decorType":"restaurant"},{"id":"node-9410410164","lat":25.069221,"lon":121.498082,"name":"老咖啡館","decorType":"cafe"},{"id":"node-9410410165","lat":25.069255,"lon":121.498652,"name":"7-Eleven","decorType":"convenience"},{"id":"node-9410410182","lat":25.068612,"lon":121.499494,"name":"地標網通","decorType":"electronics"},{"id":"node-9410445941","lat":25.069653,"lon":121.497608,"name":"開源社","decorType":"restaurant"},{"id":"node-9425953170","lat":25.060973,"lon":121.498291,"name":"麥克麵線","decorType":"restaurant"},{"id":"node-9429893502","lat":25.063664,"lon":121.497268,"name":"莉米雅手工婚紗攝影工作室","decorType":"clothing"},{"id":"node-9429893503","lat":25.063384,"lon":121.498007,"name":"未命名美髮院","decorType":"hair_salon"},{"id":"node-9429893505","lat":25.064343,"lon":121.497396,"name":"金格食品","decorType":"bakery"},{"id":"node-9429893506","lat":25.064709,"lon":121.496968,"name":"鞋全家福","decorType":"clothing"},{"id":"node-9429893507","lat":25.064913,"lon":121.497256,"name":"咖啡葉","decorType":"cafe"},{"id":"node-9429893508","lat":25.066031,"lon":121.496935,"name":"萬波島嶼紅茶","decorType":"cafe"},{"id":"node-9429893509","lat":25.066741,"lon":121.496748,"name":"肯德基","decorType":"burger"},{"id":"node-9429915989","lat":25.061053,"lon":121.498033,"name":"真味燒臘家","decorType":"restaurant"},{"id":"node-9429915990","lat":25.061015,"lon":121.498042,"name":"A9 Salon","decorType":"hair_salon"},{"id":"node-9429915991","lat":25.060974,"lon":121.498048,"name":"清心福全","decorType":"cafe"},{"id":"node-9429916012","lat":25.061143,"lon":121.498004,"name":"哨子乾麵","decorType":"restaurant"},{"id":"node-9429930619","lat":25.061601,"lon":121.497855,"name":"日式威廉","decorType":"hair_salon"},{"id":"node-9429930621","lat":25.061576,"lon":121.497901,"name":"好呷拉麵","decorType":"restaurant"},{"id":"node-9429930622","lat":25.061615,"lon":121.497433,"name":"薇米商旅","decorType":"hotel"},{"id":"node-9429930623","lat":25.061694,"lon":121.497383,"name":"U2 電影館","decorType":"movie_theater"},{"id":"node-9429930624","lat":25.061714,"lon":121.497494,"name":"天臺影城","decorType":"movie_theater"},{"id":"node-9429930625","lat":25.061369,"lon":121.498175,"name":"Sonice Hair Salon","decorType":"hair_salon"},{"id":"node-9429930627","lat":25.061982,"lon":121.497818,"name":"WorHair","decorType":"hair_salon"},{"id":"node-9429930632","lat":25.061721,"lon":121.498146,"name":"早安美芝城","decorType":"burger"},{"id":"node-9429930633","lat":25.061808,"lon":121.498094,"name":"三口壽司","decorType":"restaurant"},{"id":"node-9429930634","lat":25.061844,"lon":121.498088,"name":"小妹的店","decorType":"restaurant"},{"id":"node-9429953419","lat":25.057323,"lon":121.498876,"name":"正昇殿","decorType":"shrine"},{"id":"node-9429953435","lat":25.057796,"lon":121.498723,"name":"7-Eleven","decorType":"convenience"},{"id":"node-9431405811","lat":25.068629,"lon":121.496114,"name":"三安里","decorType":"bus_stop"},{"id":"node-9431602742","lat":25.067741,"lon":121.496108,"name":"Mr. Apple 手機維修中心","decorType":"electronics"},{"id":"node-9431630971","lat":25.068531,"lon":121.496191,"name":"佑全三重正義藥局","decorType":"pharmacy"},{"id":"node-9431630997","lat":25.068675,"lon":121.496144,"name":"台鹽生技","decorType":"pharmacy"},{"id":"node-9432601397","lat":25.063452,"lon":121.502785,"name":"全家便利商店","decorType":"convenience"},{"id":"node-9432601402","lat":25.062672,"lon":121.502729,"name":"萊爾富","decorType":"convenience"},{"id":"node-9432601403","lat":25.062745,"lon":121.502982,"name":"7-Eleven","decorType":"convenience"},{"id":"node-9432601404","lat":25.062483,"lon":121.503059,"name":"Q Burger","decorType":"restaurant"},{"id":"node-9433973071","lat":25.060438,"lon":121.498143,"name":"名新美髮","decorType":"hair_salon"},{"id":"node-9433973074","lat":25.060674,"lon":121.498095,"name":"阮家廚坊","decorType":"restaurant"},{"id":"node-9433973075","lat":25.060811,"lon":121.498062,"name":"香園麻油雞","decorType":"restaurant"},{"id":"node-9433973076","lat":25.060846,"lon":121.498062,"name":"王記燒臘","decorType":"restaurant"},{"id":"node-9433973077","lat":25.060885,"lon":121.498055,"name":"咖哩1號倉","decorType":"restaurant"},{"id":"node-9433973078","lat":25.060918,"lon":121.498052,"name":"CoCo都可","decorType":"cafe"},{"id":"node-9434018909","lat":25.060255,"lon":121.498155,"name":"炸老大","decorType":"restaurant"},{"id":"node-9434060549","lat":25.060817,"lon":121.498319,"name":"美式投幣自助洗","decorType":"laundry"},{"id":"node-9434060576","lat":25.061143,"lon":121.498235,"name":"尚品香精緻早餐","decorType":"restaurant"},{"id":"node-9434060577","lat":25.061181,"lon":121.498223,"name":"博安藥局","decorType":"pharmacy"},{"id":"node-9434060578","lat":25.061304,"lon":121.498203,"name":"拉亞漢堡","decorType":"burger"},{"id":"node-9510824144","lat":25.06517,"lon":121.497104,"name":"長元西街口","decorType":"bus_stop"},{"id":"node-9516144635","lat":25.067183,"lon":121.496309,"name":"鬍鬚張","decorType":"restaurant"},{"id":"node-9522083174","lat":25.061854,"lon":121.496348,"name":"小林髮廊","decorType":"hair_salon"},{"id":"node-9522083176","lat":25.061835,"lon":121.496336,"name":"鍋老板百元頂級鍋物","decorType":"restaurant"},{"id":"node-9660073553","lat":25.064378,"lon":121.498798,"name":"蝦皮店到店","decorType":"convenience"},{"id":"node-9704943728","lat":25.066146,"lon":121.500244,"name":"大周蒙古烤肉","decorType":"restaurant"},{"id":"node-9867180253","lat":25.059711,"lon":121.4982,"name":"蝦皮店到店","decorType":"convenience"},{"id":"node-9952019340","lat":25.058601,"lon":121.499196,"name":"光興閱覽室","decorType":"library"},{"id":"node-9971792111","lat":25.061023,"lon":121.498287,"name":"派克脆皮雞排","decorType":"restaurant"},{"id":"node-10059413812","lat":25.05775,"lon":121.498537,"name":"Man man eat","decorType":"restaurant"},{"id":"node-10059532419","lat":25.059258,"lon":121.498472,"name":"Q Burger","decorType":"restaurant"},{"id":"node-10180951798","lat":25.064955,"lon":121.496932,"name":"麗嬰房","decorType":"clothing"},{"id":"node-10180951804","lat":25.065233,"lon":121.497136,"name":"一條通","decorType":"restaurant"},{"id":"node-10180951808","lat":25.065488,"lon":121.49705,"name":"詩威特國際美容","decorType":"cosmetics"},{"id":"node-10180951810","lat":25.065991,"lon":121.496611,"name":"TMMA 台北格鬥運動館","decorType":"stadium"},{"id":"node-11961008169","lat":25.062754,"lon":121.509062,"name":"無所洋食","decorType":"restaurant"},{"id":"node-12002347773","lat":25.064908,"lon":121.4973,"name":"瓦城","decorType":"restaurant"},{"id":"node-12638049515","lat":25.068571,"lon":121.497962,"name":"尻食堂中華料理","decorType":"restaurant"},{"id":"way-50893540","lat":25.063854,"lon":121.504649,"name":"台北大橋","decorType":"bridge"},{"id":"way-51392698","lat":25.063684,"lon":121.507219,"name":"台北大橋機慢車引道","decorType":"bridge"},{"id":"way-51392756","lat":25.063624,"lon":121.505751,"name":"台北大橋機慢車引道","decorType":"bridge"},{"id":"way-51911208","lat":25.05471,"lon":121.5076,"name":"環河快速道路","decorType":"bridge"},{"id":"way-99028523","lat":25.068421,"lon":121.503812,"name":"新北環河快速道路","decorType":"bridge"},{"id":"way-99028525","lat":25.068574,"lon":121.503895,"name":"新北環快","decorType":"bridge"},{"id":"way-99028528","lat":25.062912,"lon":121.503805,"name":"新北環河快速道路","decorType":"bridge"},{"id":"way-99028779","lat":25.063045,"lon":121.503931,"name":"新北環河快速道路","decorType":"bridge"},{"id":"way-99028783","lat":25.062638,"lon":121.503852,"name":"未命名橋樑","decorType":"bridge"},{"id":"way-137183114","lat":25.05943,"lon":121.5018,"name":"未命名橋樑","decorType":"bridge"},{"id":"way-144183706","lat":25.06415,"lon":121.503564,"name":"台北大橋機慢車引道","decorType":"bridge"},{"id":"way-215552060","lat":25.068488,"lon":121.497441,"name":"正義公園","decorType":"park"},{"id":"way-215552072","lat":25.06511,"lon":121.498519,"name":"信義公園","decorType":"park"},{"id":"way-215554734","lat":25.066072,"lon":121.503871,"name":"開元公園","decorType":"park"},{"id":"way-215557459","lat":25.059087,"lon":121.501064,"name":"同安公園","decorType":"park"},{"id":"way-215557460","lat":25.057298,"lon":121.499459,"name":"同安公園","decorType":"park"},{"id":"way-215557461","lat":25.058295,"lon":121.499702,"name":"光興公園","decorType":"park"},{"id":"way-311576787","lat":25.063791,"lon":121.506524,"name":"台北大橋機慢車引道","decorType":"bridge"},{"id":"way-311576788","lat":25.063932,"lon":121.504676,"name":"台北大橋","decorType":"bridge"},{"id":"way-311689673","lat":25.063492,"lon":121.507544,"name":"台北大橋","decorType":"bridge"},{"id":"way-388166940","lat":25.058079,"lon":121.500718,"name":"三重天后宮","decorType":"shrine"},{"id":"way-462935586","lat":25.057917,"lon":121.508713,"name":"忠和公園","decorType":"park"},{"id":"way-462935590","lat":25.056641,"lon":121.508324,"name":"大同16號廣場","decorType":"park"},{"id":"way-462935601","lat":25.057868,"lon":121.508194,"name":"天水宮","decorType":"shrine"},{"id":"way-491726111","lat":25.055129,"lon":121.508219,"name":"李春生紀念教會","decorType":"shrine"},{"id":"way-531361608","lat":25.065101,"lon":121.498502,"name":"未命名水邊","decorType":"waterside"},{"id":"way-531361611","lat":25.064904,"lon":121.498287,"name":"鎮安宮","decorType":"shrine"},{"id":"way-531364175","lat":25.064617,"lon":121.496539,"name":"未命名公園","decorType":"park"},{"id":"way-549100392","lat":25.066561,"lon":121.496395,"name":"麥當勞","decorType":"burger"},{"id":"way-642797648","lat":25.058019,"lon":121.499641,"name":"空軍三重一村眷村文化園區","decorType":"theme_park"},{"id":"way-642797651","lat":25.057635,"lon":121.49908,"name":"未命名公園","decorType":"park"},{"id":"way-647667499","lat":25.063193,"lon":121.508781,"name":"未命名橋樑","decorType":"bridge"},{"id":"way-650694077","lat":25.065191,"lon":121.504544,"name":"未命名橋樑","decorType":"bridge"},{"id":"way-650694078","lat":25.063713,"lon":121.505647,"name":"未命名橋樑","decorType":"bridge"},{"id":"way-696335383","lat":25.063969,"lon":121.505281,"name":"未命名橋樑","decorType":"bridge"},{"id":"way-696335384","lat":25.063436,"lon":121.507431,"name":"台北大橋機慢車引道","decorType":"bridge"},{"id":"way-708164149","lat":25.057623,"lon":121.507856,"name":"淡埕橋","decorType":"bridge"},{"id":"way-708164152","lat":25.057418,"lon":121.508135,"name":"淡水河河濱自行車道","decorType":"bridge"},{"id":"way-708164156","lat":25.055502,"lon":121.507434,"name":"大稻埕千歲宮","decorType":"shrine"},{"id":"way-736385633","lat":25.062651,"lon":121.501148,"name":"未命名公園","decorType":"park"},{"id":"way-766726294","lat":25.054797,"lon":121.496744,"name":"未命名公園","decorType":"park"},{"id":"way-769410488","lat":25.063683,"lon":121.506373,"name":"台北大橋","decorType":"bridge"},{"id":"way-772891702","lat":25.063544,"lon":121.50758,"name":"台北大橋","decorType":"bridge"},{"id":"way-870452536","lat":25.066636,"lon":121.50396,"name":"未命名神社","decorType":"shrine"},{"id":"way-888791837","lat":25.063651,"lon":121.508647,"name":"未命名橋樑","decorType":"bridge"},{"id":"way-889243264","lat":25.063633,"lon":121.506331,"name":"未命名橋樑","decorType":"bridge"},{"id":"way-889243265","lat":25.063967,"lon":121.503574,"name":"未命名橋樑","decorType":"bridge"},{"id":"way-889243266","lat":25.064221,"lon":121.503622,"name":"未命名橋樑","decorType":"bridge"},{"id":"way-889243273","lat":25.063428,"lon":121.509107,"name":"未命名橋樑","decorType":"bridge"},{"id":"way-889243276","lat":25.063165,"lon":121.509049,"name":"未命名橋樑","decorType":"bridge"},{"id":"way-889243279","lat":25.06381,"lon":121.506102,"name":"未命名橋樑","decorType":"bridge"},{"id":"way-889243281","lat":25.063493,"lon":121.508833,"name":"未命名橋樑","decorType":"bridge"},{"id":"way-890181862","lat":25.066704,"lon":121.504288,"name":"未命名橋樑","decorType":"bridge"},{"id":"way-890181863","lat":25.066725,"lon":121.504214,"name":"未命名橋樑","decorType":"bridge"},{"id":"way-890181865","lat":25.066714,"lon":121.504817,"name":"未命名橋樑","decorType":"bridge"},{"id":"way-890181866","lat":25.066624,"lon":121.504799,"name":"未命名橋樑","decorType":"bridge"},{"id":"way-890181867","lat":25.066708,"lon":121.504517,"name":"未命名橋樑","decorType":"bridge"},{"id":"way-890181873","lat":25.067267,"lon":121.505012,"name":"未命名橋樑","decorType":"bridge"},{"id":"way-890181883","lat":25.067855,"lon":121.505021,"name":"未命名橋樑","decorType":"bridge"},{"id":"way-890181884","lat":25.067842,"lon":121.505213,"name":"二重環狀自行車道","decorType":"bridge"},{"id":"way-890181886","lat":25.068266,"lon":121.505121,"name":"二重環狀自行車道","decorType":"bridge"},{"id":"way-890181889","lat":25.068156,"lon":121.504993,"name":"未命名橋樑","decorType":"bridge"},{"id":"way-893358865","lat":25.057076,"lon":121.499217,"name":"未命名橋樑","decorType":"bridge"},{"id":"way-893358866","lat":25.057076,"lon":121.49921,"name":"未命名橋樑","decorType":"bridge"},{"id":"way-893358868","lat":25.056183,"lon":121.500043,"name":"未命名橋樑","decorType":"bridge"},{"id":"way-893358872","lat":25.057205,"lon":121.500843,"name":"二重環狀自行車道","decorType":"bridge"},{"id":"way-893358874","lat":25.057087,"lon":121.500673,"name":"二重環狀自行車道","decorType":"bridge"},{"id":"way-893358876","lat":25.061184,"lon":121.503451,"name":"未命名橋樑","decorType":"bridge"},{"id":"way-893358877","lat":25.061207,"lon":121.50287,"name":"未命名橋樑","decorType":"bridge"},{"id":"way-893358878","lat":25.056739,"lon":121.499325,"name":"未命名橋樑","decorType":"bridge"},{"id":"way-893358886","lat":25.061211,"lon":121.503161,"name":"未命名橋樑","decorType":"bridge"},{"id":"way-893358890","lat":25.061338,"lon":121.503577,"name":"二重環狀自行車道","decorType":"bridge"},{"id":"way-909274072","lat":25.054813,"lon":121.496749,"name":"未命名公園","decorType":"park"},{"id":"way-909274076","lat":25.05457,"lon":121.496384,"name":"未命名橋樑","decorType":"bridge"},{"id":"way-909274077","lat":25.054567,"lon":121.496384,"name":"未命名橋樑","decorType":"bridge"},{"id":"way-909274079","lat":25.054348,"lon":121.496106,"name":"未命名橋樑","decorType":"bridge"},{"id":"way-909274080","lat":25.054348,"lon":121.496109,"name":"未命名橋樑","decorType":"bridge"},{"id":"way-1018813545","lat":25.059387,"lon":121.500688,"name":"未命名公園","decorType":"park"},{"id":"way-1022460760","lat":25.058926,"lon":121.498616,"name":"光興陸橋","decorType":"bridge"},{"id":"way-1209753706","lat":25.064167,"lon":121.504702,"name":"未命名橋樑","decorType":"bridge"},{"id":"way-1209753707","lat":25.06374,"lon":121.504711,"name":"未命名橋樑","decorType":"bridge"},{"id":"way-1228832811","lat":25.063105,"lon":121.500542,"name":"未命名公車站","decorType":"bus_stop"},{"id":"way-1239852606","lat":25.056853,"lon":121.507125,"name":"未命名橋樑","decorType":"bridge"},{"id":"way-1349002350","lat":25.06756,"lon":121.504723,"name":"未命名水邊","decorType":"waterside"}]}