{"bbox":{"south":25.069944,"north":25.08555,"west":121.509125,"east":121.522156},"pois":[{"id":"node-1705943198","lat":25.076595,"lon":121.51137,"name":"啟聰學校","decorType":"bus_stop"},{"id":"node-1715781374","lat":25.080022,"lon":121.511739,"name":"慈信宮","decorType":"shrine"},{"id":"node-1715782523","lat":25.079408,"lon":121.512166,"name":"福德宮","decorType":"shrine"},{"id":"node-1715789095","lat":25.082558,"lon":121.512117,"name":"麥當勞","decorType":"burger"},{"id":"node-1715807791","lat":25.080868,"lon":121.510498,"name":"中日超商","decorType":"convenience"},{"id":"node-1715808270","lat":25.07951,"lon":121.512408,"name":"未命名公園","decorType":"park"},{"id":"node-1723984173","lat":25.079632,"lon":121.510818,"name":"探索MOTEL","decorType":"hotel"},{"id":"node-1724022267","lat":25.078894,"lon":121.511321,"name":"未命名體育館","decorType":"stadium"},{"id":"node-1724025627","lat":25.082336,"lon":121.510806,"name":"葫蘆堵分館","decorType":"library"},{"id":"node-1986319599","lat":25.084575,"lon":121.52143,"name":"Subway","decorType":"burger"},{"id":"node-2391800639","lat":25.080468,"lon":121.520251,"name":"劍潭肉圓王","decorType":"restaurant"},{"id":"node-2391800640","lat":25.081909,"lon":121.517771,"name":"大樹下","decorType":"restaurant"},{"id":"node-2391800641","lat":25.079811,"lon":121.520038,"name":"勇伯米粉湯","decorType":"restaurant"},{"id":"node-2391800642","lat":25.080076,"lon":121.520312,"name":"混蛋老闆果汁店","decorType":"ramen"},{"id":"node-2440535412","lat":25.070237,"lon":121.519753,"name":"坂京鍋燒麵","decorType":"restaurant"},{"id":"node-2482625740","lat":25.073289,"lon":121.521429,"name":"圓山","decorType":"mountain"},{"id":"node-2517658838","lat":25.074267,"lon":121.519962,"name":"明倫高中","decorType":"bus_stop"},{"id":"node-2517658841","lat":25.070888,"lon":121.51834,"name":"庫倫街口","decorType":"bus_stop"},{"id":"node-2517658844","lat":25.07226,"lon":121.518881,"name":"庫倫街口","decorType":"bus_stop"},{"id":"node-2517658893","lat":25.073402,"lon":121.519175,"name":"明倫高中","decorType":"bus_stop"},{"id":"node-2631129023","lat":25.07189,"lon":121.513835,"name":"酒泉重慶路口","decorType":"bus_stop"},{"id":"node-2631129024","lat":25.073243,"lon":121.513671,"name":"酒泉重慶路口","decorType":"bus_stop"},{"id":"node-2631129025","lat":25.074427,"lon":121.514011,"name":"啟聰學校","decorType":"bus_stop"},{"id":"node-2631129026","lat":25.074918,"lon":121.514043,"name":"啟聰學校","decorType":"bus_stop"},{"id":"node-2700740437","lat":25.085515,"lon":121.50954,"name":"葫蘆寺","decorType":"bus_stop"},{"id":"node-2700740998","lat":25.083073,"lon":121.510103,"name":"葫蘆堵市場","decorType":"bus_stop"},{"id":"node-2700740999","lat":25.083229,"lon":121.510126,"name":"葫蘆堵市場","decorType":"bus_stop"},{"id":"node-2700742524","lat":25.080673,"lon":121.510779,"name":"海光新村","decorType":"bus_stop"},{"id":"node-2700742526","lat":25.081377,"lon":121.510417,"name":"海光新村","decorType":"bus_stop"},{"id":"node-2700742930","lat":25.079508,"lon":121.51104,"name":"社子消防分隊","decorType":"bus_stop"},{"id":"node-2700743214","lat":25.079383,"lon":121.511213,"name":"社子消防分隊","decorType":"bus_stop"},{"id":"node-2700745271","lat":25.076032,"lon":121.511817,"name":"污水處理廠","decorType":"bus_stop"},{"id":"node-2700745272","lat":25.075683,"lon":121.511918,"name":"污水處理廠","decorType":"bus_stop"},{"id":"node-2700746721","lat":25.071695,"lon":121.510938,"name":"鄰江里","decorType":"bus_stop"},{"id":"node-2700746722","lat":25.071317,"lon":121.510841,"name":"鄰江里","decorType":"bus_stop"},{"id":"node-2706300358","lat":25.084276,"lon":121.511591,"name":"葫東重慶路口","decorType":"bus_stop"},{"id":"node-2706300654","lat":25.08435,"lon":121.511961,"name":"葫東重慶路口","decorType":"bus_stop"},{"id":"node-2706302124","lat":25.081752,"lon":121.512524,"name":"士林簡易庭","decorType":"bus_stop"},{"id":"node-2706302125","lat":25.081578,"lon":121.513126,"name":"士林簡易庭","decorType":"bus_stop"},{"id":"node-2825596259","lat":25.075836,"lon":121.518777,"name":"明倫高中圖書館","decorType":"library"},{"id":"node-3029094854","lat":25.080011,"lon":121.509778,"name":"富光里","decorType":"bus_stop"},{"id":"node-3032876738","lat":25.072869,"lon":121.512091,"name":"樹人書院文昌祠","decorType":"shrine"},{"id":"node-3034546865","lat":25.07404,"lon":121.519871,"name":"未命名郵局","decorType":"post_office"},{"id":"node-3048826447","lat":25.082435,"lon":121.510381,"name":"社子郵局","decorType":"post_office"},{"id":"node-3188479003","lat":25.071957,"lon":121.515453,"name":"大龍峒保安宮","decorType":"bus_stop"},{"id":"node-3188479004","lat":25.072074,"lon":121.515574,"name":"大龍峒保安宮","decorType":"bus_stop"},{"id":"node-3188479008","lat":25.071848,"lon":121.517844,"name":"庫倫街","decorType":"bus_stop"},{"id":"node-3188479009","lat":25.072,"lon":121.517647,"name":"庫倫街","decorType":"bus_stop"},{"id":"node-3188479016","lat":25.072064,"lon":121.511357,"name":"老師里","decorType":"bus_stop"},{"id":"node-3188479017","lat":25.072165,"lon":121.511489,"name":"老師里","decorType":"bus_stop"},{"id":"node-3188479018","lat":25.072019,"lon":121.513326,"name":"酒泉街","decorType":"bus_stop"},{"id":"node-3188479019","lat":25.072131,"lon":121.513424,"name":"酒泉街","decorType":"bus_stop"},{"id":"node-3188479020","lat":25.071973,"lon":121.514362,"name":"酒泉重慶路口","decorType":"bus_stop"},{"id":"node-3188479021","lat":25.072107,"lon":121.514265,"name":"酒泉重慶路口","decorType":"bus_stop"},{"id":"node-3495094874","lat":25.071418,"lon":121.520136,"name":"圓山","decorType":"station"},{"id":"node-3699440333","lat":25.071585,"lon":121.52009,"name":"捷運圓山站出口2","decorType":"station"},{"id":"node-3699440334","lat":25.070913,"lon":121.52007,"name":"捷運圓山站出口1","decorType":"station"},{"id":"node-3794063254","lat":25.071798,"lon":121.518342,"name":"全家便利商店","decorType":"convenience"},{"id":"node-3794141095","lat":25.072301,"lon":121.51117,"name":"OK超商","decorType":"convenience"},{"id":"node-3794141117","lat":25.073105,"lon":121.511389,"name":"7-Eleven","decorType":"convenience"},{"id":"node-3835833943","lat":25.084461,"lon":121.51949,"name":"阿安小吃店","decorType":"restaurant"},{"id":"node-3835833944","lat":25.083065,"lon":121.519508,"name":"華齡街","decorType":"bus_stop"},{"id":"node-3835833946","lat":25.083321,"lon":121.521344,"name":"萊爾富","decorType":"convenience"},{"id":"node-3835834096","lat":25.084391,"lon":121.51931,"name":"佳棋麵包烘培坊","decorType":"bakery"},{"id":"node-3835834686","lat":25.085341,"lon":121.519418,"name":"百齡里","decorType":"bus_stop"},{"id":"node-3835834761","lat":25.085329,"lon":121.51933,"name":"百齡里","decorType":"bus_stop"},{"id":"node-3835834763","lat":25.081231,"lon":121.519107,"name":"劍潭浸信會","decorType":"shrine"},{"id":"node-3835834765","lat":25.07993,"lon":121.520739,"name":"明勝里","decorType":"bus_stop"},{"id":"node-3835834766","lat":25.081115,"lon":121.520871,"name":"OK超商","decorType":"convenience"},{"id":"node-3835835118","lat":25.083106,"lon":121.519383,"name":"7-Eleven","decorType":"convenience"},{"id":"node-3835835218","lat":25.084939,"lon":121.51946,"name":"牛小妹牛肉麵","decorType":"restaurant"},{"id":"node-3835835219","lat":25.083815,"lon":121.519306,"name":"臺灣味魯肉飯米粉湯","decorType":"restaurant"},{"id":"node-3835835220","lat":25.083482,"lon":121.519388,"name":"華齡街","decorType":"bus_stop"},{"id":"node-3835835234","lat":25.083358,"lon":121.519319,"name":"永和豆江","decorType":"restaurant"},{"id":"node-3835835239","lat":25.082804,"lon":121.519397,"name":"全家便利商店","decorType":"convenience"},{"id":"node-3835835263","lat":25.081205,"lon":121.521284,"name":"一粒麥子蛋糕坊","decorType":"bakery"},{"id":"node-3835835296","lat":25.084868,"lon":121.521471,"name":"全家便利商店","decorType":"convenience"},{"id":"node-3835835406","lat":25.081426,"lon":121.52103,"name":"通河街(承德)","decorType":"bus_stop"},{"id":"node-3835835478","lat":25.080397,"lon":121.522057,"name":"7-Eleven","decorType":"convenience"},{"id":"node-3835835479","lat":25.081004,"lon":121.520607,"name":"全家便利商店","decorType":"convenience"},{"id":"node-3835835557","lat":25.081854,"lon":121.520129,"name":"劍潭自助餐","decorType":"restaurant"},{"id":"node-3872384284","lat":25.070993,"lon":121.519957,"name":"圓山轉運站","decorType":"bus_stop"},{"id":"node-3872384285","lat":25.071267,"lon":121.519998,"name":"捷運圓山站(圓山轉運站)","decorType":"bus_stop"},{"id":"node-3872384286","lat":25.071513,"lon":121.520035,"name":"圓山轉運站","decorType":"bus_stop"},{"id":"node-3872384287","lat":25.071683,"lon":121.520055,"name":"圓山轉運站","decorType":"bus_stop"},{"id":"node-4125226080","lat":25.070983,"lon":121.51604,"name":"Underon 上下誌","decorType":"cafe"},{"id":"node-4175821991","lat":25.070365,"lon":121.511792,"name":"老麵店","decorType":"restaurant"},{"id":"node-4175986289","lat":25.072291,"lon":121.517252,"name":"梅滿美食","decorType":"restaurant"},{"id":"node-4293131789","lat":25.071703,"lon":121.515941,"name":"Street Food","decorType":"burger"},{"id":"node-4319632690","lat":25.080971,"lon":121.513486,"name":"真耶穌教會大同教會","decorType":"shrine"},{"id":"node-4329769545","lat":25.070712,"lon":121.51932,"name":"7-Eleven","decorType":"convenience"},{"id":"node-4452637493","lat":25.074473,"lon":121.514939,"name":"重慶豆漿","decorType":"restaurant"},{"id":"node-4524864073","lat":25.076169,"lon":121.517083,"name":"五府宮","decorType":"shrine"},{"id":"node-4524864166","lat":25.071902,"lon":121.515652,"name":"7-Eleven","decorType":"convenience"},{"id":"node-4524864167","lat":25.072787,"lon":121.513616,"name":"OK超商","decorType":"convenience"},{"id":"node-4524864168","lat":25.076268,"lon":121.513506,"name":"覺修宮","decorType":"shrine"},{"id":"node-4569769593","lat":25.072784,"lon":121.513987,"name":"10元紅豆餅","decorType":"sweetshop"},{"id":"node-4609603893","lat":25.083358,"lon":121.509953,"name":"豐橋火鍋","decorType":"restaurant"},{"id":"node-4719575091","lat":25.072036,"lon":121.518097,"name":"Vegetable foods","decorType":"convenience"},{"id":"node-4782150893","lat":25.084444,"lon":121.509988,"name":"全聯福利中心","decorType":"supermarket"},{"id":"node-4782154278","lat":25.084239,"lon":121.51005,"name":"7-Eleven","decorType":"convenience"},{"id":"node-4782155369","lat":25.082029,"lon":121.510507,"name":"7-Eleven","decorType":"convenience"},{"id":"node-4782156144","lat":25.085291,"lon":121.509514,"name":"7-Eleven","decorType":"convenience"},{"id":"node-4782157940","lat":25.082203,"lon":121.510474,"name":"萊爾富","decorType":"convenience"},{"id":"node-4782159342","lat":25.085545,"lon":121.509467,"name":"美而美延平旗艦店","decorType":"restaurant"},{"id":"node-4782160496","lat":25.085073,"lon":121.509606,"name":"君城本家","decorType":"bakery"},{"id":"node-4782161167","lat":25.085401,"lon":121.509799,"name":"燦坤3C","decorType":"electronics"},{"id":"node-4782161192","lat":25.085094,"lon":121.50986,"name":"屈臣氏","decorType":"pharmacy"},{"id":"node-4782164540","lat":25.083184,"lon":121.510251,"name":"永和豆奶","decorType":"restaurant"},{"id":"node-4782165953","lat":25.083493,"lon":121.510196,"name":"三賀小籠包","decorType":"restaurant"},{"id":"node-4782166943","lat":25.084312,"lon":121.509789,"name":"八方雲集","decorType":"burger"},{"id":"node-4782170031","lat":25.082369,"lon":121.510388,"name":"台灣第一香鹽酥雞","decorType":"restaurant"},{"id":"node-4783913419","lat":25.084647,"lon":121.509959,"name":"全國電子","decorType":"electronics"},{"id":"node-4783920817","lat":25.083994,"lon":121.509824,"name":"呷尚寶","decorType":"burger"},{"id":"node-4783920818","lat":25.084027,"lon":121.510082,"name":"麗嬰房","decorType":"clothing"},{"id":"node-4783920819","lat":25.083542,"lon":121.5099,"name":"草山食府","decorType":"restaurant"},{"id":"node-4784221774","lat":25.081988,"lon":121.510531,"name":"大同3C","decorType":"electronics"},{"id":"node-5110489257","lat":25.072154,"lon":121.514018,"name":"摩斯漢堡","decorType":"burger"},{"id":"node-5110489258","lat":25.073919,"lon":121.514062,"name":"7-Eleven","decorType":"convenience"},{"id":"node-5237995512","lat":25.081182,"lon":121.520202,"name":"家樂福超市","decorType":"convenience"},{"id":"node-5549341639","lat":25.072277,"lon":121.520435,"name":"圓山轉運站(玉門)","decorType":"bus_stop"},{"id":"node-5594811121","lat":25.083666,"lon":121.519499,"name":"春天藥妝","decorType":"pharmacy"},{"id":"node-5851985001","lat":25.070627,"lon":121.51605,"name":"全家便利商店","decorType":"convenience"},{"id":"node-5851985002","lat":25.070644,"lon":121.515812,"name":"佳禾藥局","decorType":"pharmacy"},{"id":"node-5851985003","lat":25.070637,"lon":121.51558,"name":"門諾會大同教會","decorType":"shrine"},{"id":"node-5949682791","lat":25.082572,"lon":121.517798,"name":"OK超商","decorType":"convenience"},{"id":"node-5949682792","lat":25.085162,"lon":121.517698,"name":"全家便利商店","decorType":"convenience"},{"id":"node-5949682793","lat":25.084309,"lon":121.517464,"name":"7-Eleven","decorType":"convenience"},{"id":"node-6033393085","lat":25.071742,"lon":121.515941,"name":"小鳳米粉湯","decorType":"restaurant"},{"id":"node-6033393086","lat":25.071849,"lon":121.514055,"name":"吉野家","decorType":"burger"},{"id":"node-6033402785","lat":25.071465,"lon":121.51403,"name":"50嵐","decorType":"cafe"},{"id":"node-6033407600","lat":25.071805,"lon":121.515978,"name":"八方雲集","decorType":"burger"},{"id":"node-6038382487","lat":25.071057,"lon":121.513973,"name":"PIZZA HOT 餐廳","decorType":"restaurant"},{"id":"node-6038796203","lat":25.07164,"lon":121.513521,"name":"7-Eleven","decorType":"convenience"},{"id":"node-6112447371","lat":25.083573,"lon":121.522039,"name":"紅蝴蝶","decorType":"clothing"},{"id":"node-6114012750","lat":25.070868,"lon":121.515941,"name":"未命名美髮院","decorType":"hair_salon"},{"id":"node-6116447890","lat":25.083541,"lon":121.52188,"name":"未命名服飾店","decorType":"clothing"},{"id":"node-6116447893","lat":25.083934,"lon":121.521711,"name":"Come to Hair Salon","decorType":"hair_salon"},{"id":"node-6116447904","lat":25.083296,"lon":121.521271,"name":"C&C童衣小舖","decorType":"clothing"},{"id":"node-6117500168","lat":25.083984,"lon":121.52129,"name":"美儀美容院","decorType":"cosmetics"},{"id":"node-6117500172","lat":25.08396,"lon":121.521395,"name":"上漾質髮時尚館","decorType":"hair_salon"},{"id":"node-6117523303","lat":25.084883,"lon":121.520067,"name":"拉亞漢堡","decorType":"burger"},{"id":"node-6117523305","lat":25.084819,"lon":121.520404,"name":"武聚宮","decorType":"shrine"},{"id":"node-6117536376","lat":25.084573,"lon":121.521851,"name":"Pasta Panda","decorType":"restaurant"},{"id":"node-6117536377","lat":25.084575,"lon":121.521965,"name":"盛康藥局","decorType":"pharmacy"},{"id":"node-6224202285","lat":25.071907,"lon":121.515825,"name":"milkhouses","decorType":"bakery"},{"id":"node-6305011007","lat":25.081,"lon":121.520832,"name":"日式拉麵","decorType":"restaurant"},{"id":"node-6325207087","lat":25.070537,"lon":121.518878,"name":"悟飯糰","decorType":"restaurant"},{"id":"node-6326925486","lat":25.070716,"lon":121.519012,"name":"路易莎","decorType":"cafe"},{"id":"node-6553170175","lat":25.07056,"lon":121.518701,"name":"大埔鐵板燒","decorType":"restaurant"},{"id":"node-7017538449","lat":25.070545,"lon":121.519058,"name":"深夜咖啡","decorType":"cafe"},{"id":"node-7194693215","lat":25.073989,"lon":121.513624,"name":"素素如意素食、點心","decorType":"restaurant"},{"id":"node-7194693221","lat":25.072048,"lon":121.510837,"name":"尚品香 早餐店","decorType":"restaurant"},{"id":"node-7194693228","lat":25.073029,"lon":121.514046,"name":"阿一排骨","decorType":"restaurant"},{"id":"node-7194693235","lat":25.07259,"lon":121.519184,"name":"利生素食","decorType":"restaurant"},{"id":"node-7194693240","lat":25.071452,"lon":121.50928,"name":"金牌正味薑母鴨","decorType":"restaurant"},{"id":"node-7194693246","lat":25.070678,"lon":121.518945,"name":"八方雲集","decorType":"burger"},{"id":"node-7194693252","lat":25.071899,"lon":121.515769,"name":"新口味鹽酥雞","decorType":"restaurant"},{"id":"node-7194693258","lat":25.075239,"lon":121.519455,"name":"拉亞漢堡","decorType":"burger"},{"id":"node-7194693270","lat":25.070558,"lon":121.519579,"name":"早安美芝城","decorType":"burger"},{"id":"node-7194693278","lat":25.073798,"lon":121.519331,"name":"韓國太極烤肉專賣店","decorType":"restaurant"},{"id":"node-7194706693","lat":25.074156,"lon":121.518938,"name":"吳記大腸蚵仔花枝麵線","decorType":"restaurant"},{"id":"node-7194706698","lat":25.072001,"lon":121.510961,"name":"油飯","decorType":"restaurant"},{"id":"node-7194706706","lat":25.071968,"lon":121.510981,"name":"傳統古早味油飯攤","decorType":"restaurant"},{"id":"node-7194706719","lat":25.07175,"lon":121.510311,"name":"菜菜朝食nanachoushoku","decorType":"restaurant"},{"id":"node-7194706725","lat":25.070576,"lon":121.519763,"name":"Comebuy","decorType":"cafe"},{"id":"node-7194706731","lat":25.071912,"lon":121.515712,"name":"米哥烘焙坊","decorType":"restaurant"},{"id":"node-7194706754","lat":25.070343,"lon":121.52196,"name":"英國生蠔海鮮小屋","decorType":"restaurant"},{"id":"node-7194706755","lat":25.073792,"lon":121.514055,"name":"永和豆漿","decorType":"restaurant"},{"id":"node-7194706763","lat":25.073312,"lon":121.518812,"name":"台開早餐店","decorType":"restaurant"},{"id":"node-7194706770","lat":25.074066,"lon":121.519169,"name":"巷口麵店","decorType":"restaurant"},{"id":"node-7194706775","lat":25.072136,"lon":121.51733,"name":"稻香伙食","decorType":"restaurant"},{"id":"node-7194706782","lat":25.071907,"lon":121.515523,"name":"金好呷好吃雞肉飯","decorType":"restaurant"},{"id":"node-7194706790","lat":25.072829,"lon":121.513979,"name":"益鼎讚紅豆餅","decorType":"restaurant"},{"id":"node-7194706798","lat":25.071712,"lon":121.514004,"name":"吉野家","decorType":"burger"},{"id":"node-7194706806","lat":25.070834,"lon":121.520006,"name":"Flash Coffee","decorType":"cafe"},{"id":"node-7194706812","lat":25.071884,"lon":121.514245,"name":"尚品香精緻早午餐-酒泉店","decorType":"restaurant"},{"id":"node-7194706829","lat":25.070548,"lon":121.518978,"name":"尚品香","decorType":"restaurant"},{"id":"node-7194706837","lat":25.073923,"lon":121.519377,"name":"806魯肉飯清粥","decorType":"restaurant"},{"id":"node-7194706843","lat":25.073053,"lon":121.514343,"name":"采吉軒紅豆專門店","decorType":"restaurant"},{"id":"node-7194706850","lat":25.074203,"lon":121.518595,"name":"Cheese 烘焙","decorType":"restaurant"},{"id":"node-7194706857","lat":25.072086,"lon":121.510992,"name":"黃家米苔目","decorType":"restaurant"},{"id":"node-7194706864","lat":25.071971,"lon":121.511912,"name":"里長伯碳烤","decorType":"restaurant"},{"id":"node-7194706871","lat":25.072836,"lon":121.514202,"name":"正一堂養生膳食坊","decorType":"restaurant"},{"id":"node-7194706887","lat":25.070707,"lon":121.519471,"name":"小廚房復合式早餐店","decorType":"restaurant"},{"id":"node-7194706893","lat":25.071917,"lon":121.516016,"name":"大龍胡椒餅蔥燒餅","decorType":"restaurant"},{"id":"node-7194706899","lat":25.071767,"lon":121.515793,"name":"老蔡水煎包","decorType":"restaurant"},{"id":"node-7194706910","lat":25.070569,"lon":121.519442,"name":"ASI南洋風味館","decorType":"restaurant"},{"id":"node-7194706917","lat":25.070462,"lon":121.519762,"name":"冰山五角","decorType":"restaurant"},{"id":"node-7194706918","lat":25.073863,"lon":121.514016,"name":"大龍街香菇肉粥","decorType":"restaurant"},{"id":"node-7194706925","lat":25.073692,"lon":121.514063,"name":"大龍峒肉羹-米粉湯","decorType":"restaurant"},{"id":"node-7194706933","lat":25.074162,"lon":121.519434,"name":"福記","decorType":"restaurant"},{"id":"node-7194706940","lat":25.074018,"lon":121.518978,"name":"鮮堡漢堡","decorType":"restaurant"},{"id":"node-7194706947","lat":25.071902,"lon":121.514112,"name":"40年老字號包餡雞蛋糕","decorType":"restaurant"},{"id":"node-7194706953","lat":25.073026,"lon":121.514544,"name":"小里子海鮮","decorType":"restaurant"},{"id":"node-7194706960","lat":25.072195,"lon":121.514599,"name":"孫東寶","decorType":"restaurant"},{"id":"node-7194706967","lat":25.071565,"lon":121.515764,"name":"5味臭臭鍋","decorType":"restaurant"},{"id":"node-7194706972","lat":25.071922,"lon":121.516063,"name":"第一土鵝肉","decorType":"restaurant"},{"id":"node-7194706977","lat":25.071866,"lon":121.514629,"name":"金和麵食館","decorType":"restaurant"},{"id":"node-7194706984","lat":25.075358,"lon":121.519208,"name":"江太壽司","decorType":"restaurant"},{"id":"node-7194706996","lat":25.070371,"lon":121.513934,"name":"丫田廚房","decorType":"restaurant"},{"id":"node-7194707003","lat":25.073428,"lon":121.517426,"name":"阿仁炒飯","decorType":"restaurant"},{"id":"node-7662035468","lat":25.074325,"lon":121.51368,"name":"啟聰學校","decorType":"bus_stop"},{"id":"node-7699511641","lat":25.071525,"lon":121.515012,"name":"裴記水餃","decorType":"restaurant"},{"id":"node-7727553472","lat":25.084635,"lon":121.511957,"name":"全家便利商店","decorType":"convenience"},{"id":"node-7749806938","lat":25.070677,"lon":121.515779,"name":"大牛牛排館","decorType":"restaurant"},{"id":"node-7749806941","lat":25.070876,"lon":121.515973,"name":"郭記大塊肉羹","decorType":"restaurant"},{"id":"node-7749806958","lat":25.070715,"lon":121.515831,"name":"大龍林家麵店","decorType":"restaurant"},{"id":"node-7749806969","lat":25.07034,"lon":121.518217,"name":"漁陶屋","decorType":"restaurant"},{"id":"node-7749806970","lat":25.070747,"lon":121.515829,"name":"萬世香小籠包豆漿店","decorType":"restaurant"},{"id":"node-7749806971","lat":25.070807,"lon":121.515847,"name":"拉亞漢堡","decorType":"burger"},{"id":"node-7749806978","lat":25.07038,"lon":121.513937,"name":"丫田廚房","decorType":"restaurant"},{"id":"node-7787034026","lat":25.070527,"lon":121.519771,"name":"大腸蚵仔麵線","decorType":"restaurant"},{"id":"node-7787034027","lat":25.070424,"lon":121.51976,"name":"日見食堂","decorType":"restaurant"},{"id":"node-7787034028","lat":25.070497,"lon":121.51977,"name":"圓山知高飯","decorType":"restaurant"},{"id":"node-7787034029","lat":25.070281,"lon":121.519758,"name":"阿寬鵝肉","decorType":"restaurant"},{"id":"node-7787034030","lat":25.070373,"lon":121.519758,"name":"Solo Pizza","decorType":"restaurant"},{"id":"node-7787034031","lat":25.070075,"lon":121.519461,"name":"語心扉餃子館","decorType":"restaurant"},{"id":"node-7787034032","lat":25.070195,"lon":121.519748,"name":"元氣早餐吧","decorType":"restaurant"},{"id":"node-7787034033","lat":25.071095,"lon":121.518216,"name":"Cakewalk 田步田菓子","decorType":"sweetshop"},{"id":"node-7795175790","lat":25.084569,"lon":121.521743,"name":"二郎食堂","decorType":"restaurant"},{"id":"node-7795175791","lat":25.084578,"lon":121.521543,"name":"丘比特小木屋","decorType":"restaurant"},{"id":"node-7795175792","lat":25.084838,"lon":121.521993,"name":"八方雲集","decorType":"burger"},{"id":"node-7795175803","lat":25.084494,"lon":121.521454,"name":"早餐店","decorType":"restaurant"},{"id":"node-7795175804","lat":25.083365,"lon":121.521524,"name":"活力園早餐坊","decorType":"restaurant"},{"id":"node-7795175805","lat":25.083279,"lon":121.521556,"name":"可口越南美食","decorType":"restaurant"},{"id":"node-7795175811","lat":25.082656,"lon":121.52039,"name":"一生懸命燒鳥居酒屋","decorType":"restaurant"},{"id":"node-7795175812","lat":25.082732,"lon":121.519767,"name":"富樂台式涮涮鍋","decorType":"restaurant"},{"id":"node-7795175813","lat":25.08261,"lon":121.519587,"name":"好慧吃","decorType":"restaurant"},{"id":"node-7795175814","lat":25.082689,"lon":121.51957,"name":"小歇","decorType":"restaurant"},{"id":"node-7795175815","lat":25.082833,"lon":121.519548,"name":"十美早餐","decorType":"restaurant"},{"id":"node-7795175816","lat":25.082962,"lon":121.519353,"name":"松竹梅壽司","decorType":"restaurant"},{"id":"node-7795175817","lat":25.0832,"lon":121.519315,"name":"鵝肉切仔麵","decorType":"restaurant"},{"id":"node-7795175818","lat":25.083254,"lon":121.519294,"name":"健康素食","decorType":"restaurant"},{"id":"node-7795175819","lat":25.083522,"lon":121.519491,"name":"賀村日式料理店","decorType":"restaurant"},{"id":"node-7795175820","lat":25.083371,"lon":121.51952,"name":"太子麵店","decorType":"restaurant"},{"id":"node-7795175821","lat":25.083578,"lon":121.519325,"name":"老品家牛肉麵","decorType":"restaurant"},{"id":"node-7795175822","lat":25.083586,"lon":121.519346,"name":"八方雲集","decorType":"burger"},{"id":"node-7795175823","lat":25.083762,"lon":121.519325,"name":"航晴蚵仔麵線","decorType":"restaurant"},{"id":"node-7795175824","lat":25.083871,"lon":121.519321,"name":"中壢新明牛肉麵","decorType":"restaurant"},{"id":"node-7795175825","lat":25.085082,"lon":121.518692,"name":"巷語手作平價料理","decorType":"restaurant"},{"id":"node-7795175826","lat":25.085107,"lon":121.518329,"name":"覓食","decorType":"restaurant"},{"id":"node-7795175827","lat":25.08515,"lon":121.518087,"name":"正宗嘉義火雞肉飯","decorType":"restaurant"},{"id":"node-7795175828","lat":25.084516,"lon":121.517492,"name":"闔家小吃","decorType":"restaurant"},{"id":"node-7795175829","lat":25.084453,"lon":121.51745,"name":"呷尚寶","decorType":"burger"},{"id":"node-7795175830","lat":25.084285,"lon":121.517454,"name":"旺旺","decorType":"restaurant"},{"id":"node-7795175831","lat":25.085011,"lon":121.517488,"name":"圓園傳統飲品","decorType":"restaurant"},{"id":"node-7795175832","lat":25.08501,"lon":121.517655,"name":"夏一跳","decorType":"restaurant"},{"id":"node-7795175833","lat":25.084862,"lon":121.517631,"name":"幾分熟厚切牛排館","decorType":"restaurant"},{"id":"node-7795175834","lat":25.084214,"lon":121.517489,"name":"福港阿郎鹽酥雞","decorType":"restaurant"},{"id":"node-7795175835","lat":25.084247,"lon":121.517615,"name":"新四海永和豆漿大王","decorType":"restaurant"},{"id":"node-7795175836","lat":25.084108,"lon":121.517519,"name":"麥軒","decorType":"restaurant"},{"id":"node-7795175837","lat":25.083931,"lon":121.517386,"name":"主題甜點","decorType":"restaurant"},{"id":"node-7795175838","lat":25.083986,"lon":121.517509,"name":"聖馬可咖啡餐飲","decorType":"restaurant"},{"id":"node-7795175839","lat":25.083588,"lon":121.517591,"name":"早餐優選","decorType":"restaurant"},{"id":"node-7795175840","lat":25.083326,"lon":121.517578,"name":"鮮堡漢堡","decorType":"restaurant"},{"id":"node-7795175841","lat":25.08315,"lon":121.517616,"name":"多愛家","decorType":"restaurant"},{"id":"node-7795175842","lat":25.082629,"lon":121.517559,"name":"來來小吃店","decorType":"restaurant"},{"id":"node-7795175843","lat":25.082725,"lon":121.517714,"name":"呷宝玉","decorType":"restaurant"},{"id":"node-7795175844","lat":25.082795,"lon":121.517877,"name":"順園鍋貼","decorType":"restaurant"},{"id":"node-7795175846","lat":25.082562,"lon":121.517962,"name":"好香九色炸雞","decorType":"restaurant"},{"id":"node-7795175847","lat":25.082565,"lon":121.518011,"name":"傳鄉北港焿","decorType":"restaurant"},{"id":"node-7795175848","lat":25.082498,"lon":121.518147,"name":"阿淑小吃","decorType":"restaurant"},{"id":"node-7795175849","lat":25.082326,"lon":121.51819,"name":"阿華麵羹店","decorType":"restaurant"},{"id":"node-7795175850","lat":25.081986,"lon":121.517891,"name":"一品小吃","decorType":"restaurant"},{"id":"node-7795175851","lat":25.082046,"lon":121.518116,"name":"清鶴素食","decorType":"restaurant"},{"id":"node-7795175852","lat":25.081746,"lon":121.519283,"name":"古早味小吃","decorType":"restaurant"},{"id":"node-7795175853","lat":25.081963,"lon":121.518835,"name":"番王甜不辣","decorType":"restaurant"},{"id":"node-7795175854","lat":25.082076,"lon":121.519764,"name":"脆皮臭豆腐","decorType":"restaurant"},{"id":"node-7795175855","lat":25.081944,"lon":121.519961,"name":"黑店","decorType":"restaurant"},{"id":"node-7795175856","lat":25.081899,"lon":121.520023,"name":"阿郎鹹酥雞","decorType":"restaurant"},{"id":"node-7795175858","lat":25.081708,"lon":121.520483,"name":"陽光飯糰廣東粥","decorType":"restaurant"},{"id":"node-7795175859","lat":25.081734,"lon":121.520411,"name":"于季手工水餃","decorType":"restaurant"},{"id":"node-7795175860","lat":25.081663,"lon":121.520577,"name":"劍潭榮宗麵線","decorType":"restaurant"},{"id":"node-7795175861","lat":25.081619,"lon":121.520721,"name":"涼麵","decorType":"restaurant"},{"id":"node-7795175862","lat":25.081573,"lon":121.520797,"name":"根來阿財鐵板燒","decorType":"restaurant"},{"id":"node-7795175863","lat":25.081518,"lon":121.520949,"name":"玫卿越南料理","decorType":"restaurant"},{"id":"node-7795175864","lat":25.081375,"lon":121.52129,"name":"燒臘飯","decorType":"restaurant"},{"id":"node-7795175865","lat":25.08132,"lon":121.521399,"name":"劍潭碳烤之家","decorType":"restaurant"},{"id":"node-7795175866","lat":25.081247,"lon":121.521582,"name":"金豐小館","decorType":"restaurant"},{"id":"node-7795175867","lat":25.081196,"lon":121.521678,"name":"楊伯伯牛肉麵","decorType":"restaurant"},{"id":"node-7795175868","lat":25.081143,"lon":121.521813,"name":"麻辣的誘惑","decorType":"restaurant"},{"id":"node-7795175869","lat":25.081114,"lon":121.521865,"name":"曾張車輪餅","decorType":"restaurant"},{"id":"node-7795175870","lat":25.081066,"lon":121.521977,"name":"香港忠記燒臘店","decorType":"restaurant"},{"id":"node-7795175871","lat":25.081014,"lon":121.5221,"name":"當紅炸子雞","decorType":"restaurant"},{"id":"node-7795175873","lat":25.080833,"lon":121.522029,"name":"尚好麵店","decorType":"restaurant"},{"id":"node-7795175874","lat":25.0809,"lon":121.521893,"name":"豪記專業牛肉麵","decorType":"restaurant"},{"id":"node-7795175875","lat":25.081023,"lon":121.521673,"name":"超好吃","decorType":"restaurant"},{"id":"node-7795175876","lat":25.081049,"lon":121.521559,"name":"得進大鼎便當","decorType":"restaurant"},{"id":"node-7795175877","lat":25.08115,"lon":121.521384,"name":"益源熱炒","decorType":"restaurant"},{"id":"node-7795175878","lat":25.081148,"lon":121.521053,"name":"瀧賀","decorType":"restaurant"},{"id":"node-7795175879","lat":25.081107,"lon":121.520026,"name":"初戀好食雞蛋糕","decorType":"restaurant"},{"id":"node-7795175880","lat":25.081,"lon":121.520223,"name":"錢亨和風鍋物","decorType":"restaurant"},{"id":"node-7795175881","lat":25.081052,"lon":121.520524,"name":"鍋董","decorType":"restaurant"},{"id":"node-7795175882","lat":25.081061,"lon":121.520746,"name":"豬排咖哩飯","decorType":"restaurant"},{"id":"node-7795175883","lat":25.080907,"lon":121.520991,"name":"咖輕鬆","decorType":"restaurant"},{"id":"node-7795175884","lat":25.081,"lon":121.521003,"name":"紅橘子","decorType":"restaurant"},{"id":"node-7795197885","lat":25.080742,"lon":121.52124,"name":"Qburger","decorType":"burger"},{"id":"node-7795197886","lat":25.080728,"lon":121.520959,"name":"宮內屋豚骨らーめん","decorType":"restaurant"},{"id":"node-7795197887","lat":25.080737,"lon":121.520575,"name":"安琪兒早餐屋","decorType":"restaurant"},{"id":"node-7795197888","lat":25.080705,"lon":121.520352,"name":"萊爾富","decorType":"convenience"},{"id":"node-8022108040","lat":25.079986,"lon":121.52036,"name":"明勝里","decorType":"bus_stop"},{"id":"node-8118095208","lat":25.083178,"lon":121.51187,"name":"7-Eleven","decorType":"convenience"},{"id":"node-8118206931","lat":25.072516,"lon":121.518584,"name":"7-Eleven","decorType":"convenience"},{"id":"node-8491874392","lat":25.072331,"lon":121.518481,"name":"火把教會","decorType":"shrine"},{"id":"node-8491874393","lat":25.072057,"lon":121.519182,"name":"すき家","decorType":"burger"},{"id":"node-8678284800","lat":25.083012,"lon":121.520122,"name":"心田蔬果坊","decorType":"supermarket"},{"id":"node-8935314342","lat":25.072267,"lon":121.519014,"name":"Subway","decorType":"burger"},{"id":"node-8935314343","lat":25.072092,"lon":121.518954,"name":"星巴克","decorType":"cafe"},{"id":"node-8935314344","lat":25.07032,"lon":121.519756,"name":"老地方牛肉麵","decorType":"restaurant"},{"id":"node-9081984393","lat":25.081302,"lon":121.521177,"name":"通河街(承德)","decorType":"bus_stop"},{"id":"node-9321252513","lat":25.080403,"lon":121.510959,"name":"蝦皮店到店","decorType":"convenience"},{"id":"node-9325992889","lat":25.084758,"lon":121.521836,"name":"21金火鍋","decorType":"restaurant"},{"id":"node-9342941596","lat":25.085201,"lon":121.517597,"name":"旺旺日式料理、鐵板燒","decorType":"restaurant"},{"id":"node-9345816145","lat":25.084346,"lon":121.519313,"name":"蝦皮店到店","decorType":"convenience"},{"id":"node-9377991063","lat":25.07151,"lon":121.514031,"name":"蝦皮店到店","decorType":"convenience"},{"id":"node-9497475695","lat":25.071908,"lon":121.51558,"name":"早安美芝城","decorType":"burger"},{"id":"node-9497475696","lat":25.072143,"lon":121.5152,"name":"家樂福超市","decorType":"supermarket"},{"id":"node-9497475697","lat":25.072151,"lon":121.51497,"name":"全國電子","decorType":"electronics"},{"id":"node-9630668948","lat":25.083197,"lon":121.521603,"name":"蝦皮店到店","decorType":"convenience"},{"id":"node-9710869949","lat":25.074457,"lon":121.514072,"name":"全家便利商店","decorType":"convenience"},{"id":"node-9894688562","lat":25.070709,"lon":121.519602,"name":"萊爾富","decorType":"convenience"},{"id":"node-9894949449","lat":25.070566,"lon":121.519531,"name":"烏弄原生茶飲","decorType":"cafe"},{"id":"node-9957626860","lat":25.070538,"lon":121.51884,"name":"BREMEN 不萊梅","decorType":"restaurant"},{"id":"node-10255126310","lat":25.071198,"lon":121.51584,"name":"Healthy Vegetarian","decorType":"restaurant"},{"id":"node-10538692915","lat":25.083731,"lon":121.517672,"name":"八方悅鍋物","decorType":"restaurant"},{"id":"node-10848437942","lat":25.073513,"lon":121.513982,"name":"重慶站","decorType":"bus_stop"},{"id":"node-11183243034","lat":25.073603,"lon":121.519029,"name":"未命名公園","decorType":"park"},{"id":"node-11911124799","lat":25.072679,"lon":121.519299,"name":"佛教正覺同修會","decorType":"shrine"},{"id":"node-12571025628","lat":25.074483,"lon":121.515193,"name":"小紅厝月經博物館","decorType":"art_gallery"},{"id":"way-24006864","lat":25.077813,"lon":121.521104,"name":"承德橋","decorType":"bridge"},{"id":"way-33072372","lat":25.077765,"lon":121.521224,"name":"承德橋","decorType":"bridge"},{"id":"way-49134095","lat":25.07737,"lon":121.51798,"name":"中山高速公路","decorType":"bridge"},{"id":"way-49164245","lat":25.075968,"lon":121.51845,"name":"汐止五股高架道路","decorType":"bridge"},{"id":"way-49164254","lat":25.077557,"lon":121.515592,"name":"台北交流道","decorType":"bridge"},{"id":"way-49164255","lat":25.077391,"lon":121.51662,"name":"台北交流道","decorType":"bridge"},{"id":"way-49164256","lat":25.079379,"lon":121.513791,"name":"台北交流道","decorType":"bridge"},{"id":"way-49164261","lat":25.07782,"lon":121.515626,"name":"中山高速公路","decorType":"bridge"},{"id":"way-49164262","lat":25.077289,"lon":121.51764,"name":"中山高速公路","decorType":"bridge"},{"id":"way-49164263","lat":25.077669,"lon":121.515608,"name":"中山高速公路","decorType":"bridge"},{"id":"way-49164264","lat":25.078047,"lon":121.513642,"name":"中山高速公路","decorType":"bridge"},{"id":"way-49164266","lat":25.077869,"lon":121.513933,"name":"中山高速公路","decorType":"bridge"},{"id":"way-49164267","lat":25.077743,"lon":121.513918,"name":"台北交流道","decorType":"bridge"},{"id":"way-49164268","lat":25.077906,"lon":121.515638,"name":"台北交流道","decorType":"bridge"},{"id":"way-49164271","lat":25.077353,"lon":121.512224,"name":"台北交流道","decorType":"bridge"},{"id":"way-50893477","lat":25.076282,"lon":121.514273,"name":"慶昌橋","decorType":"bridge"},{"id":"way-50893498","lat":25.078165,"lon":121.511963,"name":"中山高速公路","decorType":"bridge"},{"id":"way-50893500","lat":25.077695,"lon":121.51195,"name":"台北交流道","decorType":"bridge"},{"id":"way-50893502","lat":25.07896,"lon":121.512213,"name":"台北交流道","decorType":"bridge"},{"id":"way-50893503","lat":25.078984,"lon":121.512099,"name":"台北交流道","decorType":"bridge"},{"id":"way-50893506","lat":25.078025,"lon":121.511974,"name":"中山高速公路","decorType":"bridge"},{"id":"way-50893514","lat":25.076215,"lon":121.514268,"name":"慶昌橋","decorType":"bridge"},{"id":"way-60793441","lat":25.071616,"lon":121.521918,"name":"圓山公園","decorType":"park"},{"id":"way-88191527","lat":25.071399,"lon":121.520139,"name":"未命名公車站","decorType":"bus_stop"},{"id":"way-183802204","lat":25.072624,"lon":121.521106,"name":"臨濟宗護國禪寺","decorType":"shrine"},{"id":"way-187920919","lat":25.084553,"lon":121.521279,"name":"台北星美休閒飯店","decorType":"hotel"},{"id":"way-188005565","lat":25.080855,"lon":121.517631,"name":"未命名橋樑","decorType":"bridge"},{"id":"way-201280870","lat":25.074663,"lon":121.510473,"name":"迪化休閒運動公園","decorType":"park"},{"id":"way-242614245","lat":25.078526,"lon":121.511215,"name":"台北交流道","decorType":"bridge"},{"id":"way-277048242","lat":25.075278,"lon":121.520096,"name":"未命名橋樑","decorType":"bridge"},{"id":"way-277048244","lat":25.074954,"lon":121.520256,"name":"未命名橋樑","decorType":"bridge"},{"id":"way-277048246","lat":25.075575,"lon":121.52006,"name":"未命名橋樑","decorType":"bridge"},{"id":"way-277048251","lat":25.075049,"lon":121.519885,"name":"未命名橋樑","decorType":"bridge"},{"id":"way-281750415","lat":25.076162,"lon":121.518339,"name":"中庭花園","decorType":"park"},{"id":"way-293137963","lat":25.074902,"lon":121.52084,"name":"福壽宮","decorType":"shrine"},{"id":"way-307155340","lat":25.074272,"lon":121.513296,"name":"大同分館","decorType":"library"},{"id":"way-380243366","lat":25.081135,"lon":121.517473,"name":"劍潭天德宮","decorType":"shrine"},{"id":"way-383933931","lat":25.071339,"lon":121.52001,"name":"圓山轉運站","decorType":"station"},{"id":"way-383978087","lat":25.07903,"lon":121.516557,"name":"基隆河左岸自行車道","decorType":"bridge"},{"id":"way-444886281","lat":25.076617,"lon":121.515599,"name":"包公廟","decorType":"shrine"},{"id":"way-444996955","lat":25.075944,"lon":121.511599,"name":"臺北試演場","decorType":"art_gallery"},{"id":"way-444996978","lat":25.073836,"lon":121.510511,"name":"未命名橋樑","decorType":"bridge"},{"id":"way-444996989","lat":25.07238,"lon":121.510055,"name":"未命名森林","decorType":"forest"},{"id":"way-444996996","lat":25.074552,"lon":121.511524,"name":"未命名橋樑","decorType":"bridge"},{"id":"way-447485172","lat":25.078105,"lon":121.513908,"name":"台北交流道","decorType":"bridge"},{"id":"way-449040989","lat":25.085452,"lon":121.520918,"name":"未命名體育館","decorType":"stadium"},{"id":"way-456206430","lat":25.074382,"lon":121.52049,"name":"台北數位產業園區","decorType":"park"},{"id":"way-461765273","lat":25.076359,"lon":121.517702,"name":"中庭花園","decorType":"park"},{"id":"way-461767596","lat":25.073468,"lon":121.517136,"name":"景觀生態池","decorType":"park"},{"id":"way-461767598","lat":25.073835,"lon":121.516745,"name":"造型庭園","decorType":"park"},{"id":"way-501564522","lat":25.08084,"lon":121.517587,"name":"基隆河右岸自行車道","decorType":"bridge"},{"id":"way-501884476","lat":25.078989,"lon":121.516524,"name":"未命名橋樑","decorType":"bridge"},{"id":"way-501967663","lat":25.082166,"lon":121.518834,"name":"福華公園","decorType":"park"},{"id":"way-502011543","lat":25.081535,"lon":121.518483,"name":"未命名水邊","decorType":"waterside"},{"id":"way-541716939","lat":25.083667,"lon":121.521615,"name":"未命名公園","decorType":"park"},{"id":"way-549537073","lat":25.082389,"lon":121.511182,"name":"福順公園","decorType":"park"},{"id":"way-549537074","lat":25.079319,"lon":121.51233,"name":"未命名公園","decorType":"park"},{"id":"way-549537075","lat":25.077469,"lon":121.509885,"name":"未命名公園","decorType":"park"},{"id":"way-549537076","lat":25.077327,"lon":121.510036,"name":"未命名公園","decorType":"park"},{"id":"way-549537077","lat":25.076734,"lon":121.513232,"name":"未命名公園","decorType":"park"},{"id":"way-549537078","lat":25.074752,"lon":121.51556,"name":"未命名公園","decorType":"park"},{"id":"way-549537079","lat":25.071022,"lon":121.51791,"name":"至聖公園","decorType":"park"},{"id":"way-549537080","lat":25.07112,"lon":121.512003,"name":"未命名公園","decorType":"park"},{"id":"way-549537081","lat":25.070256,"lon":121.515579,"name":"大龍公園","decorType":"park"},{"id":"way-688067553","lat":25.085401,"lon":121.517854,"name":"廚房","decorType":"restaurant"},{"id":"way-691850220","lat":25.082317,"lon":121.521568,"name":"五港宮","decorType":"shrine"},{"id":"way-699007110","lat":25.072467,"lon":121.521901,"name":"台北圓山公園都市綠化環境教育中心","decorType":"art_gallery"},{"id":"way-723697461","lat":25.074296,"lon":121.516951,"name":"幼兒園遊戲中庭","decorType":"park"},{"id":"way-734354382","lat":25.076022,"lon":121.518768,"name":"生態池","decorType":"waterside"},{"id":"way-734354384","lat":25.075875,"lon":121.519303,"name":"未命名公園","decorType":"park"},{"id":"way-734354386","lat":25.07592,"lon":121.5191,"name":"未命名公園","decorType":"park"},{"id":"way-764307726","lat":25.073668,"lon":121.513564,"name":"馬可先生","decorType":"bakery"},{"id":"way-770953637","lat":25.077796,"lon":121.521169,"name":"承德橋","decorType":"bridge"},{"id":"way-772191746","lat":25.076256,"lon":121.513863,"name":"慶昌橋","decorType":"bridge"},{"id":"way-783222595","lat":25.077679,"lon":121.521158,"name":"未命名橋樑","decorType":"bridge"},{"id":"way-783222597","lat":25.077745,"lon":121.520902,"name":"未命名橋樑","decorType":"bridge"},{"id":"way-827758933","lat":25.076063,"lon":121.512355,"name":"靜思堂","decorType":"shrine"},{"id":"way-827759594","lat":25.085287,"lon":121.511747,"name":"葫蘆商旅","decorType":"hotel"},{"id":"way-855924391","lat":25.082921,"lon":121.520331,"name":"未命名公園","decorType":"park"},{"id":"way-857513613","lat":25.076874,"lon":121.519746,"name":"中山高速公路","decorType":"bridge"},{"id":"way-857513614","lat":25.077102,"lon":121.518407,"name":"台北交流道","decorType":"bridge"},{"id":"way-870444976","lat":25.074992,"lon":121.51084,"name":"未命名公園","decorType":"park"},{"id":"way-870444977","lat":25.075284,"lon":121.51098,"name":"未命名公園","decorType":"park"},{"id":"way-1081162018","lat":25.073625,"lon":121.521947,"name":"未命名水邊","decorType":"waterside"},{"id":"way-1099993445","lat":25.071045,"lon":121.521322,"name":"未命名公園","decorType":"park"},{"id":"way-1099993446","lat":25.070953,"lon":121.521357,"name":"未命名公園","decorType":"park"},{"id":"way-1156915916","lat":25.072286,"lon":121.515601,"name":"未命名水邊","decorType":"waterside"},{"id":"way-1372589304","lat":25.080025,"lon":121.519043,"name":"明勝公園","decorType":"park"},{"id":"way-1462829503","lat":25.072535,"lon":121.515582,"name":"未命名公園","decorType":"park"},{"id":"way-1465081240","lat":25.077042,"lon":121.515741,"name":"台北交流道","decorType":"bridge"}]}