{"bbox":{"south":25.06994375,"north":25.085549999999998,"west":121.62640624999999,"east":121.6394375},"pois":[{"id":"node-870621607","lat":25.0701831,"lon":121.6319112,"name":"未命名漢堡店","decorType":"burger"},{"id":"node-870621609","lat":25.0709795,"lon":121.6312968,"name":"家樂福超市","decorType":"supermarket"},{"id":"node-870621677","lat":25.0711294,"lon":121.6310515,"name":"金龍里","decorType":"bus_stop"},{"id":"node-871331295","lat":25.0715463,"lon":121.6308922,"name":"金龍湖商務旅館","decorType":"hotel"},{"id":"node-871333903","lat":25.0707956,"lon":121.6315406,"name":"未命名美髮院","decorType":"hair_salon"},{"id":"node-871606403","lat":25.0762239,"lon":121.6324973,"name":"全家便利商店","decorType":"convenience"},{"id":"node-871606406","lat":25.0761143,"lon":121.6323845,"name":"未命名美髮院","decorType":"hair_salon"},{"id":"node-871610962","lat":25.0716145,"lon":121.6308085,"name":"Organic Chateau","decorType":"restaurant"},{"id":"node-903726657","lat":25.0743871,"lon":121.6354246,"name":"土地公廟","decorType":"shrine"},{"id":"node-903974909","lat":25.0709608,"lon":121.6310012,"name":"喜多麵包","decorType":"bakery"},{"id":"node-903974910","lat":25.0709963,"lon":121.6314087,"name":"Holland Bakery","decorType":"bakery"},{"id":"node-904666929","lat":25.070504,"lon":121.6319641,"name":"未命名自主洗衣店&乾洗店","decorType":"laundry"},{"id":"node-904666946","lat":25.0702575,"lon":121.631152,"name":"未命名自主洗衣店&乾洗店","decorType":"laundry"},{"id":"node-926003346","lat":25.0703442,"lon":121.6312811,"name":"未命名美髮院","decorType":"hair_salon"},{"id":"node-926003348","lat":25.0703605,"lon":121.6310761,"name":"未命名美髮院","decorType":"hair_salon"},{"id":"node-2966261274","lat":25.0716741,"lon":121.6308517,"name":"無憂素食","decorType":"restaurant"},{"id":"node-3066691744","lat":25.0702414,"lon":121.6300061,"name":"興德素食","decorType":"restaurant"},{"id":"node-3810862515","lat":25.0804705,"lon":121.6382847,"name":"全家便利商店","decorType":"convenience"},{"id":"node-3810862516","lat":25.0783661,"lon":121.6389554,"name":"7-Eleven","decorType":"convenience"},{"id":"node-3811051242","lat":25.0733676,"lon":121.6383798,"name":"全家便利商店","decorType":"convenience"},{"id":"node-3888805253","lat":25.0709451,"lon":121.6300734,"name":"7-Eleven","decorType":"convenience"},{"id":"node-3888805254","lat":25.0708,"lon":121.630095,"name":"八方雲集","decorType":"burger"},{"id":"node-3888805255","lat":25.0704507,"lon":121.6295263,"name":"壹咖啡","decorType":"cafe"},{"id":"node-3888808390","lat":25.0704531,"lon":121.6291669,"name":"全家便利商店","decorType":"convenience"},{"id":"node-4436977854","lat":25.0728995,"lon":121.6301191,"name":"北峰寺","decorType":"bus_stop"},{"id":"node-4986484622","lat":25.0718227,"lon":121.6371694,"name":"濱湖大第","decorType":"bus_stop"},{"id":"node-4986484625","lat":25.0713997,"lon":121.6351166,"name":"金龍湖","decorType":"bus_stop"},{"id":"node-4986484631","lat":25.0714836,"lon":121.6345673,"name":"金龍湖","decorType":"bus_stop"},{"id":"node-4986484645","lat":25.0739071,"lon":121.639145,"name":"伯爵山莊一","decorType":"bus_stop"},{"id":"node-4986503389","lat":25.071899,"lon":121.6370688,"name":"濱湖大第","decorType":"bus_stop"},{"id":"node-4986503403","lat":25.0710822,"lon":121.6313218,"name":"金龍里","decorType":"bus_stop"},{"id":"node-5050633180","lat":25.0773716,"lon":121.6365125,"name":"學頭坡山","decorType":"mountain"},{"id":"node-5141091130","lat":25.0709604,"lon":121.630122,"name":"元樂日式料理","decorType":"restaurant"},{"id":"node-5141132809","lat":25.0708499,"lon":121.6303611,"name":"博昱明峰大藥局","decorType":"pharmacy"},{"id":"node-5141132811","lat":25.0708863,"lon":121.630607,"name":"丹比","decorType":"hair_salon"},{"id":"node-5141132812","lat":25.0708937,"lon":121.6306862,"name":"傻師傅湯包","decorType":"restaurant"},{"id":"node-5141132815","lat":25.0709545,"lon":121.6309297,"name":"八丼餚","decorType":"restaurant"},{"id":"node-5141133267","lat":25.0709325,"lon":121.6300334,"name":"欣樣時尚髮藝","decorType":"hair_salon"},{"id":"node-5141136123","lat":25.070735,"lon":121.6300455,"name":"愛宏早餐店","decorType":"restaurant"},{"id":"node-5141136609","lat":25.0706366,"lon":121.6298702,"name":"吳媽北港滷肉飯專賣店","decorType":"restaurant"},{"id":"node-5141154640","lat":25.0705499,"lon":121.6297211,"name":"順晟洗衣","decorType":"laundry"},{"id":"node-5141154641","lat":25.0704868,"lon":121.6296124,"name":"unique獨特髮藝","decorType":"hair_salon"},{"id":"node-5141154642","lat":25.0705827,"lon":121.6293526,"name":"10元壽司","decorType":"restaurant"},{"id":"node-5141154643","lat":25.0706003,"lon":121.6293922,"name":"鹽酥雞","decorType":"restaurant"},{"id":"node-5141154644","lat":25.0706663,"lon":121.6294986,"name":"黃家涼麵","decorType":"restaurant"},{"id":"node-5141154646","lat":25.0706929,"lon":121.6295522,"name":"醉濟公自助餐","decorType":"restaurant"},{"id":"node-5141154647","lat":25.0706772,"lon":121.629524,"name":"美玉美早餐店","decorType":"restaurant"},{"id":"node-5407726105","lat":25.0830863,"lon":121.6367957,"name":"博市社區(歡天館)","decorType":"bus_stop"},{"id":"node-5407726111","lat":25.081987,"lon":121.638764,"name":"伯爵街59巷口","decorType":"bus_stop"},{"id":"node-5407727123","lat":25.0809918,"lon":121.6382869,"name":"伯爵街52巷口","decorType":"bus_stop"},{"id":"node-5407727130","lat":25.0785472,"lon":121.6387185,"name":"伯爵街39巷口","decorType":"bus_stop"},{"id":"node-5407727146","lat":25.0809865,"lon":121.6384042,"name":"伯爵街52巷口","decorType":"bus_stop"},{"id":"node-5407727157","lat":25.0784282,"lon":121.6386503,"name":"伯爵街39巷口","decorType":"bus_stop"},{"id":"node-5407727164","lat":25.0794351,"lon":121.6379102,"name":"伯爵街47巷口","decorType":"bus_stop"},{"id":"node-5574266185","lat":25.0713771,"lon":121.6350358,"name":"7-Eleven","decorType":"convenience"},{"id":"node-8267416975","lat":25.0711463,"lon":121.6357896,"name":"拉亞漢堡","decorType":"burger"},{"id":"node-8432380507","lat":25.075525,"lon":121.637417,"name":"日月光社區","decorType":"bus_stop"},{"id":"node-8432400358","lat":25.074445,"lon":121.6368653,"name":"日月光社區D區","decorType":"bus_stop"},{"id":"node-8432400359","lat":25.075582,"lon":121.637412,"name":"日月光社區B區","decorType":"bus_stop"},{"id":"node-8432400360","lat":25.075614,"lon":121.6374395,"name":"日月光社區","decorType":"bus_stop"},{"id":"node-8432400648","lat":25.0705777,"lon":121.6293727,"name":"民族六街口","decorType":"bus_stop"},{"id":"node-8432401022","lat":25.07063,"lon":121.63589,"name":"明湖新村","decorType":"bus_stop"},{"id":"node-8489512227","lat":25.0756606,"lon":121.6391002,"name":"建業樓","decorType":"bus_stop"},{"id":"node-8489512228","lat":25.081945,"lon":121.6388705,"name":"伯爵街59巷口","decorType":"bus_stop"},{"id":"node-8489512229","lat":25.0793887,"lon":121.637816,"name":"伯爵街47巷口","decorType":"bus_stop"},{"id":"node-8489633764","lat":25.0728752,"lon":121.6302489,"name":"北峰寺","decorType":"bus_stop"},{"id":"node-8489633766","lat":25.0777211,"lon":121.6299272,"name":"水蓮山莊","decorType":"bus_stop"},{"id":"node-8497879009","lat":25.0705284,"lon":121.6356227,"name":"明湖新村","decorType":"bus_stop"},{"id":"node-9414479545","lat":25.0713843,"lon":121.6348457,"name":"蝦皮店到店","decorType":"convenience"},{"id":"node-10226273517","lat":25.0702099,"lon":121.6290054,"name":"Small Bao tzu","decorType":"restaurant"},{"id":"node-12171124415","lat":25.0852626,"lon":121.6330544,"name":"翠湖東南","decorType":"mountain"},{"id":"way-73532128","lat":25.0740049,"lon":121.6322357,"name":"金龍湖","decorType":"waterside"},{"id":"way-76697880","lat":25.0758875,"lon":121.6347291,"name":"未命名橋樑","decorType":"bridge"},{"id":"way-76961573","lat":25.0732853,"lon":121.6303612,"name":"湖前街110巷","decorType":"bridge"},{"id":"way-76962273","lat":25.0725554,"lon":121.6308681,"name":"未命名森林","decorType":"forest"},{"id":"way-78380759","lat":25.0699964,"lon":121.6283237,"name":"北峰公園","decorType":"park"},{"id":"way-78594912","lat":25.0717807,"lon":121.6331308,"name":"未命名水邊","decorType":"waterside"},{"id":"way-79368039","lat":25.0727353,"lon":121.6268088,"name":"未命名森林","decorType":"forest"},{"id":"way-79435023","lat":25.0765864,"lon":121.6341865,"name":"未命名水邊","decorType":"waterside"},{"id":"way-79618143","lat":25.0763047,"lon":121.6340737,"name":"未命名橋樑","decorType":"bridge"},{"id":"way-80394283","lat":25.0766948,"lon":121.634506,"name":"未命名森林","decorType":"forest"},{"id":"way-252237250","lat":25.0757804,"lon":121.6391196,"name":"未命名公園","decorType":"park"},{"id":"way-435330179","lat":25.0742989,"lon":121.6312765,"name":"北峰寺","decorType":"shrine"},{"id":"way-478758308","lat":25.0748743,"lon":121.6338229,"name":"北峰溪","decorType":"waterside"},{"id":"way-529186489","lat":25.071173,"lon":121.6309771,"name":"福狸燒鳥","decorType":"restaurant"},{"id":"way-542256920","lat":25.0761281,"lon":121.6324924,"name":"未命名公園","decorType":"park"},{"id":"way-542259338","lat":25.0757344,"lon":121.633211,"name":"未命名公園","decorType":"park"},{"id":"way-542405697","lat":25.0789848,"lon":121.6264226,"name":"游泳池","decorType":"stadium"},{"id":"way-582995066","lat":25.0707899,"lon":121.633424,"name":"北峰溪","decorType":"waterside"},{"id":"way-582995067","lat":25.0706644,"lon":121.6336359,"name":"北峰溪","decorType":"waterside"},{"id":"way-582995068","lat":25.0712823,"lon":121.6330243,"name":"北峰溪","decorType":"waterside"},{"id":"way-582995069","lat":25.0710269,"lon":121.6332021,"name":"北峰溪","decorType":"waterside"},{"id":"way-582995070","lat":25.0716876,"lon":121.6333091,"name":"北峰溪","decorType":"waterside"},{"id":"way-582996886","lat":25.0820741,"lon":121.6328989,"name":"未命名水邊","decorType":"waterside"},{"id":"way-649496883","lat":25.0833716,"lon":121.6362338,"name":"未命名水邊","decorType":"waterside"},{"id":"way-878624401","lat":25.0714125,"lon":121.6369379,"name":"北峰溪","decorType":"waterside"},{"id":"way-1443855395","lat":25.085049,"lon":121.6310397,"name":"北峰溪","decorType":"waterside"},{"id":"way-1443855396","lat":25.0819557,"lon":121.6322998,"name":"北峰溪","decorType":"waterside"},{"id":"way-1443855397","lat":25.0788979,"lon":121.633659,"name":"北峰溪","decorType":"waterside"},{"id":"way-1443855398","lat":25.0783325,"lon":121.6338652,"name":"北峰溪","decorType":"waterside"},{"id":"way-1443855399","lat":25.0777542,"lon":121.6339124,"name":"北峰溪","decorType":"waterside"},{"id":"way-1443855410","lat":25.0811639,"lon":121.6326269,"name":"未命名水邊","decorType":"waterside"},{"id":"way-1443855411","lat":25.0812107,"lon":121.6326583,"name":"未命名水邊","decorType":"waterside"}]}