{"bbox":{"south":25.069944,"north":25.08555,"west":121.600344,"east":121.613375},"pois":[{"id":"node-773904702","lat":25.078425,"lon":121.604093,"name":"白鷺鷥山","decorType":"mountain"},{"id":"node-773936449","lat":25.080442,"lon":121.613365,"name":"康樂山","decorType":"mountain"},{"id":"node-2077766641","lat":25.072301,"lon":121.605948,"name":"全聯福利中心","decorType":"supermarket"},{"id":"node-2077766688","lat":25.071941,"lon":121.606473,"name":"OK超商","decorType":"convenience"},{"id":"node-2077766689","lat":25.070129,"lon":121.611378,"name":"康是美","decorType":"pharmacy"},{"id":"node-2192021067","lat":25.074039,"lon":121.606038,"name":"摩斯漢堡","decorType":"burger"},{"id":"node-2523933233","lat":25.084821,"lon":121.600427,"name":"康是美","decorType":"pharmacy"},{"id":"node-2524896194","lat":25.07232,"lon":121.605515,"name":"7-Eleven","decorType":"convenience"},{"id":"node-2614723140","lat":25.084291,"lon":121.600644,"name":"大湖郵局","decorType":"post_office"},{"id":"node-2616248714","lat":25.084489,"lon":121.60037,"name":"大湖商店","decorType":"convenience"},{"id":"node-2642374352","lat":25.071086,"lon":121.610063,"name":"哈肯鋪","decorType":"bakery"},{"id":"node-2642374357","lat":25.072398,"lon":121.605284,"name":"東引快刀手","decorType":"restaurant"},{"id":"node-2922228461","lat":25.082889,"lon":121.604795,"name":"大湖公園","decorType":"bus_stop"},{"id":"node-2922228462","lat":25.083052,"lon":121.605068,"name":"大湖公園","decorType":"bus_stop"},{"id":"node-2922228465","lat":25.0743,"lon":121.606601,"name":"康寧社區","decorType":"bus_stop"},{"id":"node-2922228466","lat":25.074333,"lon":121.606374,"name":"康寧社區","decorType":"bus_stop"},{"id":"node-2922228467","lat":25.075399,"lon":121.607198,"name":"康寧醫院","decorType":"bus_stop"},{"id":"node-2922228468","lat":25.075954,"lon":121.607008,"name":"康寧醫院","decorType":"bus_stop"},{"id":"node-2922228471","lat":25.083636,"lon":121.60235,"name":"捷運大湖公園站","decorType":"bus_stop"},{"id":"node-2922228472","lat":25.083653,"lon":121.602779,"name":"捷運大湖公園站","decorType":"bus_stop"},{"id":"node-2922228473","lat":25.072558,"lon":121.607252,"name":"捷運葫洲站(康寧專校)","decorType":"bus_stop"},{"id":"node-2922228474","lat":25.072822,"lon":121.607172,"name":"捷運葫洲站(康寧專校)","decorType":"bus_stop"},{"id":"node-2922228477","lat":25.070006,"lon":121.611604,"name":"明湖國中","decorType":"bus_stop"},{"id":"node-2922228478","lat":25.07016,"lon":121.611717,"name":"明湖國中","decorType":"bus_stop"},{"id":"node-2922228479","lat":25.071644,"lon":121.609212,"name":"明湖國小(公共電視台)","decorType":"bus_stop"},{"id":"node-2922228480","lat":25.07186,"lon":121.609231,"name":"明湖國小(公共電視台)","decorType":"bus_stop"},{"id":"node-2922229226","lat":25.077831,"lon":121.606888,"name":"黃石公廟","decorType":"bus_stop"},{"id":"node-2922229227","lat":25.078151,"lon":121.607143,"name":"黃石公廟","decorType":"bus_stop"},{"id":"node-3188090766","lat":25.071608,"lon":121.604619,"name":"民權隧道","decorType":"bus_stop"},{"id":"node-3188090767","lat":25.072302,"lon":121.604853,"name":"民權隧道","decorType":"bus_stop"},{"id":"node-3232474067","lat":25.071977,"lon":121.606397,"name":"7-Eleven","decorType":"convenience"},{"id":"node-3232474107","lat":25.070218,"lon":121.60885,"name":"萊爾富","decorType":"convenience"},{"id":"node-3232486050","lat":25.070575,"lon":121.611553,"name":"佳德健保藥局","decorType":"pharmacy"},{"id":"node-3232491135","lat":25.072107,"lon":121.606032,"name":"竹林樓餐館","decorType":"restaurant"},{"id":"node-3232509978","lat":25.070749,"lon":121.611716,"name":"sampo聲寶","decorType":"electronics"},{"id":"node-3232509981","lat":25.071345,"lon":121.612329,"name":"7-Eleven","decorType":"convenience"},{"id":"node-3232509984","lat":25.070793,"lon":121.611806,"name":"宜昇藥局","decorType":"pharmacy"},{"id":"node-3232509985","lat":25.07195,"lon":121.611583,"name":"古早味麻油麵線","decorType":"restaurant"},{"id":"node-3232509986","lat":25.072641,"lon":121.610802,"name":"7-Eleven","decorType":"convenience"},{"id":"node-3232509989","lat":25.073464,"lon":121.611153,"name":"福德宮","decorType":"shrine"},{"id":"node-3232509990","lat":25.073787,"lon":121.611019,"name":"未命名公園","decorType":"park"},{"id":"node-3232509992","lat":25.073359,"lon":121.612707,"name":"竹蓮寺","decorType":"shrine"},{"id":"node-3232509993","lat":25.0717,"lon":121.612659,"name":"瑞麟美而美","decorType":"burger"},{"id":"node-3232510250","lat":25.071317,"lon":121.612407,"name":"早餐店","decorType":"restaurant"},{"id":"node-3232513035","lat":25.070174,"lon":121.608918,"name":"歐圖廚房","decorType":"restaurant"},{"id":"node-3232519761","lat":25.072009,"lon":121.606231,"name":"快樂早餐店","decorType":"restaurant"},{"id":"node-3232521174","lat":25.070502,"lon":121.612324,"name":"永和豆漿","decorType":"restaurant"},{"id":"node-3232522541","lat":25.072382,"lon":121.607526,"name":"すき家","decorType":"burger"},{"id":"node-3232522661","lat":25.07067,"lon":121.612273,"name":"拉亞漢堡","decorType":"burger"},{"id":"node-3232525308","lat":25.071665,"lon":121.606811,"name":"東湖教會","decorType":"shrine"},{"id":"node-3232527362","lat":25.071631,"lon":121.606872,"name":"基督教內湖靈糧堂","decorType":"shrine"},{"id":"node-3232527375","lat":25.07115,"lon":121.607775,"name":"永和豆漿","decorType":"restaurant"},{"id":"node-3232528590","lat":25.071746,"lon":121.607029,"name":"K&K Pasta","decorType":"restaurant"},{"id":"node-3232530054","lat":25.072314,"lon":121.605232,"name":"四川龍府","decorType":"restaurant"},{"id":"node-3232530217","lat":25.072146,"lon":121.607972,"name":"7-Eleven","decorType":"convenience"},{"id":"node-3232530861","lat":25.071771,"lon":121.607005,"name":"大久食堂","decorType":"restaurant"},{"id":"node-3232531955","lat":25.072217,"lon":121.607809,"name":"內湖康寧郵局","decorType":"post_office"},{"id":"node-3232532894","lat":25.071825,"lon":121.608795,"name":"50嵐","decorType":"cafe"},{"id":"node-3232538079","lat":25.071102,"lon":121.607825,"name":"早安美芝城","decorType":"burger"},{"id":"node-3232541698","lat":25.07177,"lon":121.605266,"name":"橘鄉廚房","decorType":"restaurant"},{"id":"node-3232542061","lat":25.070796,"lon":121.608101,"name":"Durance沙龍","decorType":"cosmetics"},{"id":"node-3232542069","lat":25.070932,"lon":121.608935,"name":"歐牛","decorType":"restaurant"},{"id":"node-3232565188","lat":25.072416,"lon":121.607444,"name":"爭鮮迴轉壽司康寧店","decorType":"restaurant"},{"id":"node-3232571362","lat":25.071427,"lon":121.610102,"name":"艾立","decorType":"bakery"},{"id":"node-3232573077","lat":25.070051,"lon":121.608766,"name":"萊爾富","decorType":"convenience"},{"id":"node-3232582361","lat":25.07144,"lon":121.61202,"name":"單槓","decorType":"park"},{"id":"node-3232582362","lat":25.07134,"lon":121.61202,"name":"盪鞦韆","decorType":"park"},{"id":"node-3232585061","lat":25.07228,"lon":121.605831,"name":"柏妮美髮","decorType":"hair_salon"},{"id":"node-3232608321","lat":25.071806,"lon":121.608955,"name":"心樂園","decorType":"cafe"},{"id":"node-3232608897","lat":25.073228,"lon":121.606542,"name":"路易莎咖啡","decorType":"cafe"},{"id":"node-3232608899","lat":25.072324,"lon":121.60848,"name":"7-Eleven","decorType":"convenience"},{"id":"node-3232609237","lat":25.071652,"lon":121.609072,"name":"慈航藥妝藥局","decorType":"pharmacy"},{"id":"node-3232614382","lat":25.071395,"lon":121.609607,"name":"基督教豐盛教會","decorType":"shrine"},{"id":"node-3501186376","lat":25.083761,"lon":121.602341,"name":"大湖公園","decorType":"station"},{"id":"node-3501186377","lat":25.072639,"lon":121.607363,"name":"葫洲","decorType":"station"},{"id":"node-3689381737","lat":25.072477,"lon":121.608159,"name":"出口1","decorType":"station"},{"id":"node-3689381738","lat":25.072409,"lon":121.607321,"name":"出口2","decorType":"station"},{"id":"node-3689390420","lat":25.083854,"lon":121.602658,"name":"出口1","decorType":"station"},{"id":"node-3689390421","lat":25.083262,"lon":121.602336,"name":"出口2","decorType":"station"},{"id":"node-3791346073","lat":25.075443,"lon":121.608792,"name":"7-Eleven","decorType":"convenience"},{"id":"node-4370054107","lat":25.073611,"lon":121.602334,"name":"衛勤訓練中心","decorType":"bus_stop"},{"id":"node-4370054108","lat":25.073817,"lon":121.602503,"name":"衛勤訓練中心","decorType":"bus_stop"},{"id":"node-4370054134","lat":25.077642,"lon":121.600351,"name":"紫雲里","decorType":"bus_stop"},{"id":"node-4370054136","lat":25.073601,"lon":121.604191,"name":"豐橋","decorType":"restaurant"},{"id":"node-4370054137","lat":25.073358,"lon":121.604746,"name":"金湖路口","decorType":"bus_stop"},{"id":"node-4370054138","lat":25.073554,"lon":121.604711,"name":"金湖路口","decorType":"bus_stop"},{"id":"node-4370094104","lat":25.072657,"lon":121.607806,"name":"佑全","decorType":"pharmacy"},{"id":"node-4396244189","lat":25.072952,"lon":121.606212,"name":"星巴克","decorType":"cafe"},{"id":"node-4524224190","lat":25.073296,"lon":121.604187,"name":"萊爾富","decorType":"convenience"},{"id":"node-4524229289","lat":25.072893,"lon":121.607319,"name":"三顧茅廬","decorType":"restaurant"},{"id":"node-4646613791","lat":25.083239,"lon":121.604155,"name":"Triple café","decorType":"restaurant"},{"id":"node-4677616077","lat":25.073284,"lon":121.611569,"name":"郵筒","decorType":"post_office"},{"id":"node-4679876809","lat":25.075635,"lon":121.612338,"name":"未命名公園","decorType":"park"},{"id":"node-4691856620","lat":25.072552,"lon":121.610705,"name":"弘爺漢堡","decorType":"burger"},{"id":"node-4691856621","lat":25.072521,"lon":121.610745,"name":"東來麵食館","decorType":"restaurant"},{"id":"node-4691864360","lat":25.069956,"lon":121.611957,"name":"Subway","decorType":"burger"},{"id":"node-4701164344","lat":25.072038,"lon":121.609034,"name":"六美自助餐","decorType":"restaurant"},{"id":"node-4702946588","lat":25.072254,"lon":121.609103,"name":"松濠涮涮鍋","decorType":"restaurant"},{"id":"node-4725809126","lat":25.071867,"lon":121.608714,"name":"八方雲集","decorType":"burger"},{"id":"node-4727067167","lat":25.072884,"lon":121.607379,"name":"髮林髮藝","decorType":"hair_salon"},{"id":"node-4727069877","lat":25.072838,"lon":121.60979,"name":"全多麥鮮作早餐","decorType":"restaurant"},{"id":"node-4727069878","lat":25.072759,"lon":121.609813,"name":"十年麵包","decorType":"bakery"},{"id":"node-4729030143","lat":25.07844,"lon":121.606231,"name":"老公祠","decorType":"shrine"},{"id":"node-4730159625","lat":25.078418,"lon":121.606256,"name":"福佑宮","decorType":"shrine"},{"id":"node-4732257209","lat":25.071442,"lon":121.609551,"name":"弁當店","decorType":"restaurant"},{"id":"node-4732257212","lat":25.071111,"lon":121.60966,"name":"雍記小館","decorType":"restaurant"},{"id":"node-4732257213","lat":25.071078,"lon":121.609452,"name":"篙腳麵","decorType":"restaurant"},{"id":"node-4733393889","lat":25.07213,"lon":121.610301,"name":"米荳尼早午餐","decorType":"restaurant"},{"id":"node-4733393890","lat":25.071574,"lon":121.609887,"name":"健康食彩超市","decorType":"supermarket"},{"id":"node-4735551416","lat":25.070969,"lon":121.609805,"name":"金洋菓子烘焙坊","decorType":"bakery"},{"id":"node-4735551417","lat":25.070949,"lon":121.609672,"name":"威華港式燒臘","decorType":"restaurant"},{"id":"node-4735785591","lat":25.075345,"lon":121.607786,"name":"Seeking café","decorType":"cafe"},{"id":"node-4736038678","lat":25.072916,"lon":121.606119,"name":"老上海麵館","decorType":"restaurant"},{"id":"node-4736038679","lat":25.072787,"lon":121.605607,"name":"梁社漢排骨","decorType":"restaurant"},{"id":"node-4736038680","lat":25.072775,"lon":121.605504,"name":"康是美","decorType":"pharmacy"},{"id":"node-4737705385","lat":25.074175,"lon":121.606103,"name":"溢香園","decorType":"restaurant"},{"id":"node-4737705387","lat":25.073835,"lon":121.605197,"name":"馳走屋","decorType":"restaurant"},{"id":"node-4738179768","lat":25.073601,"lon":121.605181,"name":"Ryan's 都會潛艇堡","decorType":"restaurant"},{"id":"node-4738179769","lat":25.073631,"lon":121.604869,"name":"仙履優質洗衣 金湖店","decorType":"laundry"},{"id":"node-4738179770","lat":25.073606,"lon":121.604971,"name":"九江味屋","decorType":"restaurant"},{"id":"node-4739219839","lat":25.072922,"lon":121.605227,"name":"樂雅樂","decorType":"restaurant"},{"id":"node-4739219858","lat":25.072608,"lon":121.60491,"name":"Jolly卓莉手工釀啤酒泰食餐廳","decorType":"restaurant"},{"id":"node-4739408538","lat":25.072724,"lon":121.604659,"name":"九元鐵板燒","decorType":"restaurant"},{"id":"node-4739408539","lat":25.075358,"lon":121.607345,"name":"未命名拉麵店","decorType":"ramen"},{"id":"node-4739408540","lat":25.0753,"lon":121.607336,"name":"曼都髮型 大湖店","decorType":"cosmetics"},{"id":"node-4739425345","lat":25.075427,"lon":121.607569,"name":"伊麗絲髮廊","decorType":"cosmetics"},{"id":"node-4739425346","lat":25.073643,"lon":121.604322,"name":"真極品牛肉麵店","decorType":"restaurant"},{"id":"node-4739470421","lat":25.082849,"lon":121.604123,"name":"饗趣31","decorType":"restaurant"},{"id":"node-4740874683","lat":25.073991,"lon":121.605878,"name":"川老爺麻辣鍋","decorType":"restaurant"},{"id":"node-4740874684","lat":25.074053,"lon":121.605816,"name":"ieat早午餐","decorType":"restaurant"},{"id":"node-4740874685","lat":25.074051,"lon":121.60567,"name":"博多拉麵","decorType":"restaurant"},{"id":"node-4744255903","lat":25.073319,"lon":121.604404,"name":"7-Eleven","decorType":"convenience"},{"id":"node-4744255904","lat":25.073319,"lon":121.604532,"name":"放學趣","decorType":"library"},{"id":"node-4756017486","lat":25.075595,"lon":121.608794,"name":"康寧生活會館","decorType":"hotel"},{"id":"node-4773885321","lat":25.074933,"lon":121.609877,"name":"未命名郵局","decorType":"post_office"},{"id":"node-4778140649","lat":25.076289,"lon":121.61243,"name":"未命名公園","decorType":"park"},{"id":"node-4784430731","lat":25.075862,"lon":121.610192,"name":"未命名圖書館／書店","decorType":"library"},{"id":"node-4787423643","lat":25.076197,"lon":121.609575,"name":"餐廳","decorType":"restaurant"},{"id":"node-4986591814","lat":25.073047,"lon":121.605217,"name":"SWISSSPA 內湖館","decorType":"cosmetics"},{"id":"node-4993931654","lat":25.070977,"lon":121.609724,"name":"花暖簾日本料理","decorType":"restaurant"},{"id":"node-5110349925","lat":25.084559,"lon":121.60143,"name":"濤濤","decorType":"laundry"},{"id":"node-5267309791","lat":25.073223,"lon":121.611761,"name":"淨宗書苑","decorType":"library"},{"id":"node-5340099218","lat":25.072831,"lon":121.605896,"name":"福利麵包","decorType":"bakery"},{"id":"node-6818013603","lat":25.07169,"lon":121.612196,"name":"未命名美髮院","decorType":"hair_salon"},{"id":"node-6843968627","lat":25.072079,"lon":121.607882,"name":"池上便當","decorType":"restaurant"},{"id":"node-7175344656","lat":25.074867,"lon":121.601282,"name":"薩爾溫滇緬泰食堂","decorType":"restaurant"},{"id":"node-7194706819","lat":25.075643,"lon":121.608813,"name":"饗來美食 LIKE FOOD","decorType":"restaurant"},{"id":"node-7194706904","lat":25.074908,"lon":121.601201,"name":"酆都串燒.料理","decorType":"restaurant"},{"id":"node-7194706978","lat":25.076146,"lon":121.607395,"name":"安提.司朵","decorType":"restaurant"},{"id":"node-7394537387","lat":25.072935,"lon":121.609962,"name":"99複合洗衣","decorType":"laundry"},{"id":"node-7394537388","lat":25.07292,"lon":121.609917,"name":"八九十手做","decorType":"cafe"},{"id":"node-7424389762","lat":25.070625,"lon":121.61232,"name":"嘉愷必","decorType":"cafe"},{"id":"node-7424389765","lat":25.070376,"lon":121.613033,"name":"未命名餐廳","decorType":"restaurant"},{"id":"node-7424389766","lat":25.070471,"lon":121.612954,"name":"上好便當快餐","decorType":"restaurant"},{"id":"node-7424389767","lat":25.070916,"lon":121.612741,"name":"美廉社","decorType":"supermarket"},{"id":"node-7424389771","lat":25.071243,"lon":121.612479,"name":"大膳廚美食坊","decorType":"restaurant"},{"id":"node-7440627780","lat":25.070639,"lon":121.612787,"name":"瀅涓美髮屋","decorType":"cosmetics"},{"id":"node-7502653591","lat":25.070844,"lon":121.608136,"name":"亞斯義大利麵","decorType":"restaurant"},{"id":"node-7509905064","lat":25.070499,"lon":121.612763,"name":"令和壽司","decorType":"restaurant"},{"id":"node-7509905065","lat":25.070407,"lon":121.612824,"name":"食我廚房義大利麵","decorType":"italian"},{"id":"node-7721898784","lat":25.084704,"lon":121.601269,"name":"安德睿 食代義廊","decorType":"restaurant"},{"id":"node-7765188495","lat":25.071458,"lon":121.610073,"name":"百馥水餃店","decorType":"restaurant"},{"id":"node-7765188502","lat":25.072652,"lon":121.610586,"name":"粉紅姊姊","decorType":"restaurant"},{"id":"node-7765188505","lat":25.072491,"lon":121.610411,"name":"家辣麻辣鴨血","decorType":"restaurant"},{"id":"node-7765497756","lat":25.073113,"lon":121.607344,"name":"東湖心時代","decorType":"restaurant"},{"id":"node-7986733311","lat":25.071036,"lon":121.609066,"name":"The Fun Breakfast","decorType":"restaurant"},{"id":"node-7986733312","lat":25.071046,"lon":121.609254,"name":"喫鍋","decorType":"restaurant"},{"id":"node-7986733313","lat":25.071048,"lon":121.609311,"name":"綠葉食堂","decorType":"restaurant"},{"id":"node-8012840141","lat":25.080343,"lon":121.603314,"name":"奇緣休閒中心","decorType":"restaurant"},{"id":"node-8110647242","lat":25.070182,"lon":121.612573,"name":"全家便利商店","decorType":"convenience"},{"id":"node-8420325607","lat":25.072939,"lon":121.606273,"name":"塔哩印度料理","decorType":"restaurant"},{"id":"node-8432400021","lat":25.084517,"lon":121.602057,"name":"大湖山莊","decorType":"bus_stop"},{"id":"node-8432400692","lat":25.077155,"lon":121.613303,"name":"康寧天闊站","decorType":"bus_stop"},{"id":"node-8509105198","lat":25.070334,"lon":121.612453,"name":"家鄉小吃","decorType":"restaurant"},{"id":"node-8518273538","lat":25.074497,"lon":121.609478,"name":"康寧護專","decorType":"bus_stop"},{"id":"node-8518273539","lat":25.074512,"lon":121.609299,"name":"康寧護專","decorType":"bus_stop"},{"id":"node-8992756281","lat":25.070008,"lon":121.612006,"name":"大戸屋","decorType":"restaurant"},{"id":"node-8996072644","lat":25.074616,"lon":121.606512,"name":"LaVie hair salon","decorType":"cosmetics"},{"id":"node-9244936940","lat":25.070336,"lon":121.612716,"name":"八方居","decorType":"restaurant"},{"id":"node-9314325923","lat":25.071619,"lon":121.61197,"name":"越南美食","decorType":"restaurant"},{"id":"node-9314325924","lat":25.071658,"lon":121.611924,"name":"向羚時尚造型","decorType":"cosmetics"},{"id":"node-9588074537","lat":25.071046,"lon":121.609177,"name":"蝦皮店到店","decorType":"convenience"},{"id":"node-10715882405","lat":25.073201,"lon":121.611745,"name":"未命名便利商店","decorType":"convenience"},{"id":"node-10801127424","lat":25.070518,"lon":121.611496,"name":"明湖上品牛肉麵","decorType":"restaurant"},{"id":"node-11257042190","lat":25.073325,"lon":121.606551,"name":"大湖璞旅","decorType":"hotel"},{"id":"node-11279244223","lat":25.07181,"lon":121.607449,"name":"咖哩.咖哩","decorType":"restaurant"},{"id":"node-11662038059","lat":25.070588,"lon":121.612352,"name":"麵屋昕家","decorType":"restaurant"},{"id":"node-11911674730","lat":25.072679,"lon":121.609837,"name":" 半夏生","decorType":"cafe"},{"id":"node-11941985075","lat":25.072822,"lon":121.606528,"name":"博多拉麵","decorType":"restaurant"},{"id":"node-11941985076","lat":25.072714,"lon":121.606727,"name":"屈臣氏","decorType":"pharmacy"},{"id":"node-12194423828","lat":25.072949,"lon":121.607451,"name":"米菲烘焙","decorType":"bakery"},{"id":"node-12355208701","lat":25.073666,"lon":121.605222,"name":"麵匡匡拉麵食堂","decorType":"restaurant"},{"id":"node-12355270401","lat":25.072345,"lon":121.607649,"name":"豆舖子","decorType":"restaurant"},{"id":"way-55038273","lat":25.080575,"lon":121.604725,"name":"大湖","decorType":"waterside"},{"id":"way-62149553","lat":25.08108,"lon":121.603514,"name":"錦帶橋","decorType":"bridge"},{"id":"way-189784276","lat":25.080985,"lon":121.604667,"name":"大湖公園","decorType":"park"},{"id":"way-190573757","lat":25.081969,"lon":121.604885,"name":"九曲橋","decorType":"bridge"},{"id":"way-190573758","lat":25.081602,"lon":121.603324,"name":"未命名橋樑","decorType":"bridge"},{"id":"way-190575231","lat":25.081863,"lon":121.604998,"name":"未命名橋樑","decorType":"bridge"},{"id":"way-197842438","lat":25.081982,"lon":121.602637,"name":"未命名橋樑","decorType":"bridge"},{"id":"way-245270223","lat":25.073449,"lon":121.608807,"name":"未命名水邊","decorType":"waterside"},{"id":"way-296797212","lat":25.074438,"lon":121.608853,"name":"康湖公園","decorType":"park"},{"id":"way-296797213","lat":25.072807,"lon":121.608642,"name":"開放空間","decorType":"park"},{"id":"way-301771092","lat":25.083133,"lon":121.601766,"name":"湖山六號公園","decorType":"park"},{"id":"way-317031295","lat":25.071782,"lon":121.61122,"name":"多功能遊樂區","decorType":"park"},{"id":"way-317033137","lat":25.073804,"lon":121.610875,"name":"東湖二號公園","decorType":"park"},{"id":"way-317033139","lat":25.075665,"lon":121.612069,"name":"東湖一號公園","decorType":"park"},{"id":"way-317036560","lat":25.071085,"lon":121.610411,"name":"天橋","decorType":"bridge"},{"id":"way-353894884","lat":25.080327,"lon":121.602805,"name":"波諾義大利料理","decorType":"restaurant"},{"id":"way-418576265","lat":25.076012,"lon":121.610025,"name":"康寧大學台北校區","decorType":"university"},{"id":"way-420479603","lat":25.083763,"lon":121.612795,"name":"未命名水邊","decorType":"waterside"},{"id":"way-420479604","lat":25.084024,"lon":121.613162,"name":"未命名水邊","decorType":"waterside"},{"id":"way-473917714","lat":25.074154,"lon":121.610567,"name":"東湖感恩堂","decorType":"shrine"},{"id":"way-475868778","lat":25.074646,"lon":121.610626,"name":"未命名公園","decorType":"park"},{"id":"way-475869368","lat":25.075654,"lon":121.611462,"name":"未命名公園","decorType":"park"},{"id":"way-479636712","lat":25.07314,"lon":121.607369,"name":"2018搞食堂","decorType":"ramen"},{"id":"way-479636713","lat":25.072981,"lon":121.606971,"name":"蒸霸王","decorType":"restaurant"},{"id":"way-479824369","lat":25.073255,"lon":121.606929,"name":"未命名森林","decorType":"forest"},{"id":"way-479824370","lat":25.073039,"lon":121.607106,"name":"未命名森林","decorType":"forest"},{"id":"way-479868472","lat":25.077375,"lon":121.606852,"name":"黃石公廟","decorType":"shrine"},{"id":"way-481145207","lat":25.072502,"lon":121.604717,"name":"未命名公園","decorType":"park"},{"id":"way-481479528","lat":25.074031,"lon":121.606975,"name":"未命名公園","decorType":"park"},{"id":"way-482807785","lat":25.07454,"lon":121.610076,"name":"未命名森林","decorType":"forest"},{"id":"way-482807786","lat":25.074452,"lon":121.609985,"name":"未命名森林","decorType":"forest"},{"id":"way-485669033","lat":25.075534,"lon":121.609551,"name":"行政大樓","decorType":"university"},{"id":"way-485669034","lat":25.075596,"lon":121.610153,"name":"第二教學大樓","decorType":"university"},{"id":"way-485669035","lat":25.076057,"lon":121.610217,"name":"第一教學大樓","decorType":"university"},{"id":"way-485669036","lat":25.076503,"lon":121.610507,"name":"野聲館","decorType":"university"},{"id":"way-488464757","lat":25.073568,"lon":121.612618,"name":"童心花園","decorType":"park"},{"id":"way-495024059","lat":25.082674,"lon":121.600721,"name":"湖山四號公園","decorType":"park"},{"id":"way-496456048","lat":25.074736,"lon":121.608634,"name":"未命名水邊","decorType":"waterside"},{"id":"way-773675402","lat":25.082625,"lon":121.605533,"name":"未命名水邊","decorType":"waterside"},{"id":"way-773675403","lat":25.082813,"lon":121.605555,"name":"未命名水邊","decorType":"waterside"},{"id":"way-831767198","lat":25.072941,"lon":121.607061,"name":"2018食堂","decorType":"ramen"},{"id":"way-832873497","lat":25.081431,"lon":121.608333,"name":"大湖橋","decorType":"bridge"},{"id":"way-877544952","lat":25.083774,"lon":121.602182,"name":"未命名公車站","decorType":"bus_stop"},{"id":"way-877544953","lat":25.083871,"lon":121.602256,"name":"未命名公車站","decorType":"bus_stop"},{"id":"way-877544954","lat":25.072696,"lon":121.607082,"name":"未命名公車站","decorType":"bus_stop"},{"id":"way-877544955","lat":25.072797,"lon":121.607132,"name":"未命名公車站","decorType":"bus_stop"},{"id":"way-978036411","lat":25.078286,"lon":121.604921,"name":"未命名山丘","decorType":"mountain"},{"id":"way-1320349479","lat":25.085341,"lon":121.607641,"name":"未命名水邊","decorType":"waterside"}]}