{"bbox":{"south":25.069944,"north":25.08555,"west":121.470031,"east":121.483062},"pois":[{"id":"node-1846492775","lat":25.081442,"lon":121.477799,"name":"海霸王","decorType":"restaurant"},{"id":"node-2723694053","lat":25.084973,"lon":121.481655,"name":"新北市立圖書館蘆洲集賢分館","decorType":"library"},{"id":"node-2984524119","lat":25.080337,"lon":121.4798,"name":"出口1 (徐匯中學)","decorType":"station"},{"id":"node-2984524120","lat":25.080373,"lon":121.480476,"name":"出口2 (永安北路二段)","decorType":"station"},{"id":"node-2984526838","lat":25.080298,"lon":121.480566,"name":"捷運徐匯中學站","decorType":"bus_stop"},{"id":"node-2984526839","lat":25.080921,"lon":121.478799,"name":"捷運徐匯中學站","decorType":"bus_stop"},{"id":"node-2984526840","lat":25.081049,"lon":121.479043,"name":"民和公寓","decorType":"bus_stop"},{"id":"node-2984526845","lat":25.081461,"lon":121.476605,"name":"溪墘","decorType":"bus_stop"},{"id":"node-2984526846","lat":25.081628,"lon":121.476753,"name":"溪墘","decorType":"bus_stop"},{"id":"node-2984526851","lat":25.084551,"lon":121.474282,"name":"蘆洲區公所","decorType":"bus_stop"},{"id":"node-2984526852","lat":25.085326,"lon":121.473692,"name":"捷運三民高中站","decorType":"bus_stop"},{"id":"node-2984526853","lat":25.083128,"lon":121.470325,"name":"蘆洲國小","decorType":"bus_stop"},{"id":"node-2984526854","lat":25.083187,"lon":121.470392,"name":"蘆洲國小","decorType":"bus_stop"},{"id":"node-2984526855","lat":25.081897,"lon":121.47324,"name":"蘆洲派出所","decorType":"bus_stop"},{"id":"node-2984526856","lat":25.082104,"lon":121.473613,"name":"蘆洲派出所","decorType":"bus_stop"},{"id":"node-2984526857","lat":25.081635,"lon":121.47221,"name":"蘆洲監理站","decorType":"bus_stop"},{"id":"node-2984526858","lat":25.081833,"lon":121.47159,"name":"蘆洲監理站 (中正路)","decorType":"bus_stop"},{"id":"node-2984526861","lat":25.082794,"lon":121.475724,"name":"鷺江國小(三民路)","decorType":"bus_stop"},{"id":"node-2984526862","lat":25.082906,"lon":121.47543,"name":"鷺江國小(三民路)","decorType":"bus_stop"},{"id":"node-2991819322","lat":25.078857,"lon":121.482913,"name":"幸福市場","decorType":"bus_stop"},{"id":"node-3071973733","lat":25.07432,"lon":121.47277,"name":"三重站","decorType":"bus_stop"},{"id":"node-3071973734","lat":25.071396,"lon":121.473715,"name":"仙公廟","decorType":"bus_stop"},{"id":"node-3071973735","lat":25.071521,"lon":121.47378,"name":"仙公廟","decorType":"bus_stop"},{"id":"node-3071973742","lat":25.074159,"lon":121.473413,"name":"首都客運二重站","decorType":"bus_stop"},{"id":"node-3350300488","lat":25.085149,"lon":121.479043,"name":"信義路","decorType":"bus_stop"},{"id":"node-3350300489","lat":25.082788,"lon":121.47964,"name":"信義路口","decorType":"bus_stop"},{"id":"node-3664807535","lat":25.07208,"lon":121.471291,"name":"穀保中學","decorType":"bus_stop"},{"id":"node-3664807536","lat":25.072075,"lon":121.470613,"name":"穀保家商","decorType":"bus_stop"},{"id":"node-3664807537","lat":25.071927,"lon":121.471099,"name":"全家便利商店","decorType":"convenience"},{"id":"node-3689351290","lat":25.079635,"lon":121.481129,"name":"徐匯中學","decorType":"bus_stop"},{"id":"node-3700823292","lat":25.070386,"lon":121.482759,"name":"力行路","decorType":"bus_stop"},{"id":"node-3700823297","lat":25.081588,"lon":121.471506,"name":"蘆洲監理站","decorType":"bus_stop"},{"id":"node-3700823299","lat":25.07486,"lon":121.481997,"name":"永福街口 (聖佑宮)","decorType":"bus_stop"},{"id":"node-3700823300","lat":25.075035,"lon":121.482295,"name":"永福街口 (聖佑宮)","decorType":"bus_stop"},{"id":"node-3700965676","lat":25.080594,"lon":121.473548,"name":"中山一路","decorType":"bus_stop"},{"id":"node-3700965677","lat":25.080833,"lon":121.473492,"name":"中山一路","decorType":"bus_stop"},{"id":"node-3700965681","lat":25.079392,"lon":121.471923,"name":"民生街口","decorType":"bus_stop"},{"id":"node-3700965682","lat":25.079857,"lon":121.472051,"name":"民生街口","decorType":"bus_stop"},{"id":"node-3700965683","lat":25.078954,"lon":121.471539,"name":"燦坤","decorType":"electronics"},{"id":"node-3700965687","lat":25.079205,"lon":121.471713,"name":"萊爾富","decorType":"convenience"},{"id":"node-3720429191","lat":25.071606,"lon":121.472494,"name":"貴族世家","decorType":"restaurant"},{"id":"node-3724617687","lat":25.084119,"lon":121.481268,"name":"尼加拉瓜公園","decorType":"bus_stop"},{"id":"node-3724617688","lat":25.084187,"lon":121.481027,"name":"尼加拉瓜公園","decorType":"bus_stop"},{"id":"node-3724617691","lat":25.08174,"lon":121.480282,"name":"捷運徐匯中學站 (集賢路)","decorType":"bus_stop"},{"id":"node-3724617692","lat":25.081896,"lon":121.47997,"name":"捷運徐匯中學站 (集賢路)","decorType":"bus_stop"},{"id":"node-3729254261","lat":25.071702,"lon":121.472043,"name":"萊爾富","decorType":"convenience"},{"id":"node-3729254262","lat":25.072308,"lon":121.470352,"name":"萊爾富","decorType":"convenience"},{"id":"node-3734714096","lat":25.085209,"lon":121.479031,"name":"全家便利商店","decorType":"convenience"},{"id":"node-3734714098","lat":25.085246,"lon":121.478438,"name":"大慶社區","decorType":"bus_stop"},{"id":"node-3734714099","lat":25.085459,"lon":121.478553,"name":"大慶社區","decorType":"bus_stop"},{"id":"node-3734717533","lat":25.083889,"lon":121.475647,"name":"鷺江國小 (民族路)","decorType":"bus_stop"},{"id":"node-3734717534","lat":25.0841,"lon":121.475878,"name":"鷺江國小 (民族路)","decorType":"bus_stop"},{"id":"node-3734769733","lat":25.079815,"lon":121.481274,"name":"徐匯中學","decorType":"bus_stop"},{"id":"node-3744188725","lat":25.081702,"lon":121.476814,"name":"未命名漢堡店","decorType":"burger"},{"id":"node-3812564388","lat":25.085505,"lon":121.473299,"name":"三民高中","decorType":"station"},{"id":"node-3812564400","lat":25.080336,"lon":121.480227,"name":"徐匯中學","decorType":"station"},{"id":"node-4267410989","lat":25.08099,"lon":121.478595,"name":"小時光咖啡","decorType":"cafe"},{"id":"node-4426037314","lat":25.070538,"lon":121.478967,"name":"全家便利商店","decorType":"convenience"},{"id":"node-4426037321","lat":25.07099,"lon":121.479093,"name":"7-Eleven","decorType":"convenience"},{"id":"node-4448603202","lat":25.077475,"lon":121.479336,"name":"萊爾富","decorType":"convenience"},{"id":"node-4451759565","lat":25.08543,"lon":121.472015,"name":"全家便利商店","decorType":"convenience"},{"id":"node-4451759566","lat":25.085183,"lon":121.472036,"name":"7-Eleven","decorType":"convenience"},{"id":"node-4891439031","lat":25.083439,"lon":121.478532,"name":"財團法人臺灣省臺北縣基督教徒蘆洲","decorType":"shrine"},{"id":"node-5280999822","lat":25.084351,"lon":121.4777,"name":"楊媽媽阿給小吃店","decorType":"restaurant"},{"id":"node-5280999824","lat":25.082175,"lon":121.476081,"name":"7-Eleven","decorType":"convenience"},{"id":"node-5761725153","lat":25.070011,"lon":121.476065,"name":"自助餐","decorType":"restaurant"},{"id":"node-5869760654","lat":25.07562,"lon":121.478168,"name":"永福慈惠堂","decorType":"shrine"},{"id":"node-5871618052","lat":25.079307,"lon":121.482365,"name":"肯德基","decorType":"burger"},{"id":"node-5871618053","lat":25.079117,"lon":121.481758,"name":"麥當勞","decorType":"burger"},{"id":"node-5871618054","lat":25.079053,"lon":121.482037,"name":"星巴克","decorType":"cafe"},{"id":"node-5871618061","lat":25.075096,"lon":121.479031,"name":"7-Eleven","decorType":"convenience"},{"id":"node-5871618062","lat":25.075015,"lon":121.4793,"name":"全家便利商店","decorType":"convenience"},{"id":"node-5891947711","lat":25.074503,"lon":121.475781,"name":"福德宮","decorType":"shrine"},{"id":"node-6013055985","lat":25.079691,"lon":121.480929,"name":"摩斯漢堡","decorType":"burger"},{"id":"node-6015827389","lat":25.085179,"lon":121.478877,"name":"中華鹽酥雞","decorType":"burger"},{"id":"node-6022843085","lat":25.083725,"lon":121.471346,"name":"甜蜜時光","decorType":"sweetshop"},{"id":"node-6039991586","lat":25.083691,"lon":121.481131,"name":"7-Eleven","decorType":"convenience"},{"id":"node-6202943440","lat":25.079459,"lon":121.481985,"name":"50嵐","decorType":"cafe"},{"id":"node-6202943441","lat":25.079351,"lon":121.48217,"name":"清心福全","decorType":"cafe"},{"id":"node-6202943442","lat":25.080648,"lon":121.481129,"name":"老先覺","decorType":"restaurant"},{"id":"node-6202943443","lat":25.080101,"lon":121.481428,"name":"小北百貨","decorType":"supermarket"},{"id":"node-6235446485","lat":25.085411,"lon":121.478964,"name":"少年","decorType":"restaurant"},{"id":"node-6586086969","lat":25.082935,"lon":121.471144,"name":"萊爾富","decorType":"convenience"},{"id":"node-6586089388","lat":25.083784,"lon":121.473955,"name":"7-Eleven","decorType":"convenience"},{"id":"node-6586089389","lat":25.083657,"lon":121.4734,"name":"全家便利商店","decorType":"convenience"},{"id":"node-6734330771","lat":25.082411,"lon":121.471272,"name":"天士藥局","decorType":"pharmacy"},{"id":"node-6734330772","lat":25.079975,"lon":121.481149,"name":"萊爾富","decorType":"convenience"},{"id":"node-6734330774","lat":25.082448,"lon":121.470966,"name":"弘記豆漿店","decorType":"restaurant"},{"id":"node-6832816562","lat":25.084465,"lon":121.471321,"name":"時間之旅","decorType":"cafe"},{"id":"node-6832816563","lat":25.085385,"lon":121.471898,"name":"佳味牛排","decorType":"restaurant"},{"id":"node-6832816569","lat":25.08546,"lon":121.472164,"name":"文德公","decorType":"shrine"},{"id":"node-7191364602","lat":25.085499,"lon":121.479055,"name":"7-Eleven","decorType":"convenience"},{"id":"node-7191364604","lat":25.085472,"lon":121.479004,"name":"一芳水果茶","decorType":"cafe"},{"id":"node-7191634530","lat":25.084985,"lon":121.477651,"name":"全聯福利中心","decorType":"supermarket"},{"id":"node-7192621279","lat":25.085259,"lon":121.478105,"name":"健康早餐","decorType":"restaurant"},{"id":"node-7192621280","lat":25.085444,"lon":121.47844,"name":"巨林美而美","decorType":"burger"},{"id":"node-7192621281","lat":25.08475,"lon":121.477603,"name":"全家便利商店","decorType":"convenience"},{"id":"node-7192621282","lat":25.083683,"lon":121.475471,"name":"頂好","decorType":"supermarket"},{"id":"node-7192629086","lat":25.085361,"lon":121.478293,"name":"大埕鐵板燒","decorType":"restaurant"},{"id":"node-7192629088","lat":25.084864,"lon":121.477839,"name":"杏昌藥局","decorType":"pharmacy"},{"id":"node-7192846570","lat":25.084244,"lon":121.475422,"name":"濟天宮","decorType":"shrine"},{"id":"node-7192846578","lat":25.084943,"lon":121.473634,"name":"中華郵政","decorType":"post_office"},{"id":"node-7192846584","lat":25.083946,"lon":121.474007,"name":"添丁切仔麵","decorType":"restaurant"},{"id":"node-7193346176","lat":25.085214,"lon":121.478525,"name":"小林髮廊","decorType":"hair_salon"},{"id":"node-7216110140","lat":25.080379,"lon":121.480578,"name":"樂雅樂","decorType":"restaurant"},{"id":"node-7279631010","lat":25.084829,"lon":121.477975,"name":"華粲藥局","decorType":"pharmacy"},{"id":"node-7279631011","lat":25.085288,"lon":121.479017,"name":"三鐵藥局","decorType":"pharmacy"},{"id":"node-7279631015","lat":25.08446,"lon":121.477021,"name":"隆生藥局","decorType":"pharmacy"},{"id":"node-7279631018","lat":25.081939,"lon":121.475688,"name":"松柏藥局","decorType":"pharmacy"},{"id":"node-7279631019","lat":25.08211,"lon":121.475685,"name":"全佑藥局","decorType":"pharmacy"},{"id":"node-7279631020","lat":25.082269,"lon":121.47395,"name":"百分百藥局","decorType":"pharmacy"},{"id":"node-7279631021","lat":25.082004,"lon":121.473879,"name":"幸安藥局","decorType":"pharmacy"},{"id":"node-7279631022","lat":25.081891,"lon":121.47337,"name":"大政藥局","decorType":"pharmacy"},{"id":"node-7279631023","lat":25.081943,"lon":121.471337,"name":"微笑杏鄰藥局","decorType":"pharmacy"},{"id":"node-7820617684","lat":25.076374,"lon":121.482903,"name":"湘滿雞肉飯","decorType":"restaurant"},{"id":"node-7820702187","lat":25.075994,"lon":121.478928,"name":"巧沛東方美","decorType":"restaurant"},{"id":"node-7820702189","lat":25.075164,"lon":121.482322,"name":"炸物商行","decorType":"restaurant"},{"id":"node-7820702198","lat":25.07554,"lon":121.482617,"name":"順榮熱炒海鮮店","decorType":"restaurant"},{"id":"node-7820702201","lat":25.075997,"lon":121.478698,"name":"八方雲集","decorType":"burger"},{"id":"node-7820702229","lat":25.076624,"lon":121.478969,"name":"雅成麵包坊","decorType":"restaurant"},{"id":"node-7820702258","lat":25.076652,"lon":121.479314,"name":"胖大叔義大利麵","decorType":"restaurant"},{"id":"node-7820702276","lat":25.075652,"lon":121.481906,"name":"春發宴席","decorType":"restaurant"},{"id":"node-7820702303","lat":25.075892,"lon":121.482727,"name":"吉祥牛肉麵","decorType":"restaurant"},{"id":"node-7820702384","lat":25.076169,"lon":121.480439,"name":"阿菊炭烤香腸","decorType":"restaurant"},{"id":"node-7820702408","lat":25.075462,"lon":121.482583,"name":"幸福麵館","decorType":"restaurant"},{"id":"node-7820702423","lat":25.076084,"lon":121.478855,"name":"小時候古早味米粉湯","decorType":"restaurant"},{"id":"node-7820702453","lat":25.076225,"lon":121.478651,"name":"真味廚之坊","decorType":"restaurant"},{"id":"node-7820702479","lat":25.075938,"lon":121.47896,"name":"弘爺漢堡","decorType":"burger"},{"id":"node-7820702502","lat":25.076196,"lon":121.482837,"name":"品香魯肉飯","decorType":"restaurant"},{"id":"node-7820702526","lat":25.075362,"lon":121.482092,"name":"ㄧ鴨肉富當歸鴨麵線","decorType":"restaurant"},{"id":"node-7820702529","lat":25.076117,"lon":121.481097,"name":"無名肉圓","decorType":"restaurant"},{"id":"node-7820702538","lat":25.076894,"lon":121.478888,"name":"美香齋藝術蛋糕坊","decorType":"restaurant"},{"id":"node-8029964087","lat":25.074424,"lon":121.482142,"name":"全家便利商店","decorType":"convenience"},{"id":"node-8059100986","lat":25.083183,"lon":121.48049,"name":"台北集賢商旅","decorType":"hotel"},{"id":"node-8059101001","lat":25.080429,"lon":121.480455,"name":"成旅晶贊飯店台北蘆洲","decorType":"hotel"},{"id":"node-8059101008","lat":25.082416,"lon":121.482333,"name":"薇薇精品旅館","decorType":"hotel"},{"id":"node-8059101014","lat":25.082056,"lon":121.480062,"name":"樂頤飯店","decorType":"hotel"},{"id":"node-8059101017","lat":25.082571,"lon":121.480634,"name":"嘉年華汽車旅館","decorType":"hotel"},{"id":"node-8118095212","lat":25.076377,"lon":121.482729,"name":"7-Eleven","decorType":"convenience"},{"id":"node-8118095213","lat":25.075435,"lon":121.481012,"name":"7-Eleven","decorType":"convenience"},{"id":"node-8118095214","lat":25.080352,"lon":121.480647,"name":"7-Eleven","decorType":"convenience"},{"id":"node-8118206917","lat":25.078972,"lon":121.482031,"name":"7-Eleven","decorType":"convenience"},{"id":"node-8118206920","lat":25.078793,"lon":121.474697,"name":"7-Eleven","decorType":"convenience"},{"id":"node-8118206955","lat":25.080507,"lon":121.470616,"name":"7-Eleven","decorType":"convenience"},{"id":"node-8118206956","lat":25.08075,"lon":121.473448,"name":"7-Eleven","decorType":"convenience"},{"id":"node-8118272798","lat":25.08523,"lon":121.481919,"name":"全家便利商店","decorType":"convenience"},{"id":"node-8118279930","lat":25.083617,"lon":121.479456,"name":"7-Eleven","decorType":"convenience"},{"id":"node-8385313283","lat":25.081374,"lon":121.471512,"name":"八方雲集","decorType":"burger"},{"id":"node-8385313558","lat":25.071964,"lon":121.470991,"name":"八方雲集","decorType":"burger"},{"id":"node-8385313717","lat":25.084273,"lon":121.480982,"name":"八方雲集","decorType":"burger"},{"id":"node-8432380488","lat":25.076708,"lon":121.475696,"name":"和成新村","decorType":"bus_stop"},{"id":"node-8432400077","lat":25.076521,"lon":121.481709,"name":"永福派出所","decorType":"bus_stop"},{"id":"node-8432400078","lat":25.074981,"lon":121.479331,"name":"永福街124號","decorType":"bus_stop"},{"id":"node-8432400281","lat":25.078688,"lon":121.474401,"name":"民生社區","decorType":"bus_stop"},{"id":"node-8432400304","lat":25.0775,"lon":121.47775,"name":"五年千歲","decorType":"bus_stop"},{"id":"node-8432400305","lat":25.074383,"lon":121.480667,"name":"下竹圍街34號","decorType":"bus_stop"},{"id":"node-8432400306","lat":25.077326,"lon":121.479392,"name":"永福國小","decorType":"bus_stop"},{"id":"node-8432400676","lat":25.072246,"lon":121.480272,"name":"介壽龍莊","decorType":"bus_stop"},{"id":"node-9342491847","lat":25.079896,"lon":121.472605,"name":"蝦皮店到店","decorType":"convenience"},{"id":"node-9342491848","lat":25.080461,"lon":121.473039,"name":"全聯福利中心","decorType":"supermarket"},{"id":"node-9342491851","lat":25.084495,"lon":121.477315,"name":"蝦皮店到店","decorType":"convenience"},{"id":"node-9443685918","lat":25.081101,"lon":121.480125,"name":"西堤牛排","decorType":"restaurant"},{"id":"node-9443935717","lat":25.085406,"lon":121.472802,"name":"捷運三民高中站 (復興路一)","decorType":"bus_stop"},{"id":"node-9494397352","lat":25.082806,"lon":121.481513,"name":"全聯福利中心","decorType":"supermarket"},{"id":"node-9494420852","lat":25.080739,"lon":121.479083,"name":"Luzhou Zhongshan Road Post Office","decorType":"post_office"},{"id":"node-9494467931","lat":25.08272,"lon":121.475999,"name":"霧247vape shop","decorType":"clothing"},{"id":"node-9494468793","lat":25.083131,"lon":121.477777,"name":"美廉社","decorType":"supermarket"},{"id":"node-9494489833","lat":25.083654,"lon":121.479233,"name":"Migo hair salon","decorType":"hair_salon"},{"id":"node-9494493061","lat":25.084222,"lon":121.479309,"name":"樂派菓舖","decorType":"bakery"},{"id":"node-9494506676","lat":25.085079,"lon":121.478275,"name":"JOETSU Hair Salon","decorType":"hair_salon"},{"id":"node-9672098466","lat":25.085395,"lon":121.479221,"name":"顏家豆干","decorType":"restaurant"},{"id":"node-9672098467","lat":25.085443,"lon":121.47957,"name":"欣姿盈成衣工作室","decorType":"clothing"},{"id":"node-9672098468","lat":25.085462,"lon":121.479634,"name":"吉美堡","decorType":"restaurant"},{"id":"node-9672098469","lat":25.085415,"lon":121.479492,"name":"愛莉莎髮妝造型","decorType":"hair_salon"},{"id":"node-9672098470","lat":25.085478,"lon":121.479769,"name":"客家小吃店","decorType":"restaurant"},{"id":"node-9672098471","lat":25.0855,"lon":121.479862,"name":"嘉美男士理髮","decorType":"hair_salon"},{"id":"node-9672098472","lat":25.085525,"lon":121.479953,"name":"新原點早餐","decorType":"restaurant"},{"id":"node-9951940568","lat":25.074656,"lon":121.478277,"name":"永豐閱覽室","decorType":"library"},{"id":"node-9951944452","lat":25.076824,"lon":121.480997,"name":"永福閱覽室","decorType":"library"},{"id":"node-9982674379","lat":25.071045,"lon":121.482532,"name":"三和豆漿王","decorType":"restaurant"},{"id":"node-10032150208","lat":25.07958,"lon":121.481115,"name":"伯承電腦","decorType":"electronics"},{"id":"node-10032266586","lat":25.079271,"lon":121.481668,"name":"全家便利商店","decorType":"convenience"},{"id":"node-10032266598","lat":25.079317,"lon":121.481524,"name":"bb.q Chicken","decorType":"restaurant"},{"id":"node-10032266606","lat":25.079385,"lon":121.482073,"name":"四海遊龍","decorType":"restaurant"},{"id":"node-10032296935","lat":25.079494,"lon":121.48136,"name":"徐匯中學","decorType":"bus_stop"},{"id":"node-10032296936","lat":25.079645,"lon":121.481641,"name":"鬍鬚張","decorType":"restaurant"},{"id":"node-10032296948","lat":25.079838,"lon":121.481315,"name":"黎明藥師藥局","decorType":"pharmacy"},{"id":"node-10032296949","lat":25.079873,"lon":121.481255,"name":"白巷子","decorType":"cafe"},{"id":"node-10032297012","lat":25.08017,"lon":121.481597,"name":"麵屋道樂","decorType":"restaurant"},{"id":"node-10032297013","lat":25.080194,"lon":121.481638,"name":"三媽臭臭鍋","decorType":"restaurant"},{"id":"node-10032297015","lat":25.080041,"lon":121.481322,"name":"尚井日式涮涮鍋","decorType":"restaurant"},{"id":"node-10032297017","lat":25.079842,"lon":121.480752,"name":"菠利塔烘培坊","decorType":"bakery"},{"id":"node-10032297018","lat":25.079872,"lon":121.480722,"name":"炸雞大師","decorType":"restaurant"},{"id":"node-10032297025","lat":25.079759,"lon":121.480879,"name":"正章木瓜牛奶 彰化肉圓伯","decorType":"restaurant"},{"id":"node-10034304031","lat":25.078774,"lon":121.482466,"name":"全聯福利中心","decorType":"supermarket"},{"id":"node-10034304032","lat":25.078889,"lon":121.482353,"name":"合康健保藥局","decorType":"pharmacy"},{"id":"node-10049294981","lat":25.079039,"lon":121.482764,"name":"梁社漢排骨","decorType":"restaurant"},{"id":"node-10049294982","lat":25.07905,"lon":121.482097,"name":"吉野家","decorType":"burger"},{"id":"node-10119972642","lat":25.082913,"lon":121.477409,"name":"全家 蘆洲恆德店","decorType":"convenience"},{"id":"node-10120012105","lat":25.082936,"lon":121.477442,"name":"好食House burger","decorType":"restaurant"},{"id":"node-10120012250","lat":25.082998,"lon":121.477188,"name":"呷尚寶","decorType":"burger"},{"id":"node-10120025022","lat":25.082884,"lon":121.477275,"name":"萊爾富","decorType":"convenience"},{"id":"node-11001027779","lat":25.083738,"lon":121.482802,"name":"美廉社","decorType":"supermarket"},{"id":"node-11917368997","lat":25.078647,"lon":121.474908,"name":"饎果","decorType":"bakery"},{"id":"node-11955579460","lat":25.074448,"lon":121.481404,"name":"巨林美而美","decorType":"restaurant"},{"id":"node-13031732898","lat":25.085064,"lon":121.478204,"name":"饗Soul健康餐盒","decorType":"restaurant"},{"id":"node-13413775702","lat":25.071106,"lon":121.474476,"name":"萊爾富","decorType":"convenience"},{"id":"node-13423767499","lat":25.08181,"lon":121.473279,"name":"萊爾富","decorType":"convenience"},{"id":"way-56723595","lat":25.075863,"lon":121.481282,"name":"汐止五股高架道路","decorType":"bridge"},{"id":"way-56723597","lat":25.075287,"lon":121.482517,"name":"汐止五股高架道路","decorType":"bridge"},{"id":"way-215457119","lat":25.081719,"lon":121.475241,"name":"未命名公園","decorType":"park"},{"id":"way-215471183","lat":25.084176,"lon":121.481498,"name":"尼加拉瓜公園","decorType":"park"},{"id":"way-215552087","lat":25.072476,"lon":121.475993,"name":"仙公公園","decorType":"park"},{"id":"way-215554736","lat":25.076773,"lon":121.481284,"name":"永福公園","decorType":"park"},{"id":"way-215554738","lat":25.074527,"lon":121.478614,"name":"永豐公園","decorType":"park"},{"id":"way-215554739","lat":25.081923,"lon":121.481984,"name":"永安兒童公園","decorType":"park"},{"id":"way-215625995","lat":25.079875,"lon":121.475878,"name":"溪墘公園","decorType":"park"},{"id":"way-259077218","lat":25.085151,"lon":121.474663,"name":"蘆洲公園","decorType":"park"},{"id":"way-259077222","lat":25.084094,"lon":121.473578,"name":"紫禁城博物館","decorType":"art_gallery"},{"id":"way-266848724","lat":25.083361,"lon":121.471299,"name":"蘆洲湧蓮寺","decorType":"shrine"},{"id":"way-266848725","lat":25.084091,"lon":121.471296,"name":"蘆洲保和宮","decorType":"shrine"},{"id":"way-368605673","lat":25.07374,"lon":121.471849,"name":"洲子尾溝","decorType":"waterside"},{"id":"way-445130010","lat":25.072118,"lon":121.474404,"name":"仙公廟","decorType":"shrine"},{"id":"way-445130025","lat":25.07079,"lon":121.473182,"name":"慈濟靜思堂","decorType":"shrine"},{"id":"way-516931144","lat":25.070914,"lon":121.480024,"name":"未命名水邊","decorType":"waterside"},{"id":"way-723697465","lat":25.077404,"lon":121.482697,"name":"未命名公園","decorType":"park"},{"id":"way-729335100","lat":25.083464,"lon":121.470688,"name":"蘆洲天主教堂","decorType":"shrine"},{"id":"way-770610811","lat":25.085202,"lon":121.474802,"name":"未命名公園","decorType":"park"},{"id":"way-770610812","lat":25.08518,"lon":121.475244,"name":"未命名公園","decorType":"park"},{"id":"way-770610813","lat":25.08525,"lon":121.475257,"name":"未命名公園","decorType":"park"},{"id":"way-770610815","lat":25.085102,"lon":121.47469,"name":"未命名公園","decorType":"park"},{"id":"way-975769423","lat":25.071566,"lon":121.476668,"name":"愛買","decorType":"supermarket"},{"id":"way-1095473740","lat":25.079867,"lon":121.480631,"name":"屈臣氏","decorType":"pharmacy"},{"id":"way-1228832797","lat":25.080514,"lon":121.479942,"name":"未命名公車站","decorType":"bus_stop"},{"id":"way-1292593231","lat":25.076313,"lon":121.472755,"name":"未命名森林","decorType":"forest"},{"id":"way-1465173759","lat":25.083984,"lon":121.47806,"name":"未命名公園","decorType":"park"}]}