{"bbox":{"south":25.06994375,"north":25.085549999999998,"west":121.47003124999999,"east":121.48306249999999},"pois":[{"id":"node-1846492775","lat":25.0814422,"lon":121.477799,"name":"海霸王","decorType":"restaurant"},{"id":"node-2723694053","lat":25.0849733,"lon":121.4816545,"name":"新北市立圖書館蘆洲集賢分館","decorType":"library"},{"id":"node-2984524119","lat":25.0803374,"lon":121.4798001,"name":"出口1 (徐匯中學)","decorType":"station"},{"id":"node-2984524120","lat":25.0803725,"lon":121.4804759,"name":"出口2 (永安北路二段)","decorType":"station"},{"id":"node-2984526838","lat":25.0802975,"lon":121.4805659,"name":"捷運徐匯中學站","decorType":"bus_stop"},{"id":"node-2984526839","lat":25.0809212,"lon":121.4787994,"name":"捷運徐匯中學站","decorType":"bus_stop"},{"id":"node-2984526840","lat":25.0810489,"lon":121.4790425,"name":"民和公寓","decorType":"bus_stop"},{"id":"node-2984526845","lat":25.0814613,"lon":121.4766053,"name":"溪墘","decorType":"bus_stop"},{"id":"node-2984526846","lat":25.0816284,"lon":121.4767528,"name":"溪墘","decorType":"bus_stop"},{"id":"node-2984526851","lat":25.0845508,"lon":121.4742823,"name":"蘆洲區公所","decorType":"bus_stop"},{"id":"node-2984526852","lat":25.0853263,"lon":121.473692,"name":"捷運三民高中站","decorType":"bus_stop"},{"id":"node-2984526853","lat":25.0831282,"lon":121.4703252,"name":"蘆洲國小","decorType":"bus_stop"},{"id":"node-2984526854","lat":25.0831871,"lon":121.4703917,"name":"蘆洲國小","decorType":"bus_stop"},{"id":"node-2984526855","lat":25.0818969,"lon":121.4732399,"name":"蘆洲派出所","decorType":"bus_stop"},{"id":"node-2984526856","lat":25.0821041,"lon":121.4736133,"name":"蘆洲派出所","decorType":"bus_stop"},{"id":"node-2984526857","lat":25.0816346,"lon":121.4722096,"name":"蘆洲監理站","decorType":"bus_stop"},{"id":"node-2984526858","lat":25.0818333,"lon":121.4715902,"name":"蘆洲監理站 (中正路)","decorType":"bus_stop"},{"id":"node-2984526861","lat":25.0827942,"lon":121.4757237,"name":"鷺江國小(三民路)","decorType":"bus_stop"},{"id":"node-2984526862","lat":25.0829061,"lon":121.4754298,"name":"鷺江國小(三民路)","decorType":"bus_stop"},{"id":"node-2991819322","lat":25.0788573,"lon":121.4829125,"name":"幸福市場","decorType":"bus_stop"},{"id":"node-3071973733","lat":25.0743198,"lon":121.4727696,"name":"三重站","decorType":"bus_stop"},{"id":"node-3071973734","lat":25.071396,"lon":121.4737145,"name":"仙公廟","decorType":"bus_stop"},{"id":"node-3071973735","lat":25.0715212,"lon":121.47378,"name":"仙公廟","decorType":"bus_stop"},{"id":"node-3071973742","lat":25.074159,"lon":121.4734129,"name":"首都客運二重站","decorType":"bus_stop"},{"id":"node-3350300488","lat":25.0851493,"lon":121.479043,"name":"信義路","decorType":"bus_stop"},{"id":"node-3350300489","lat":25.0827875,"lon":121.4796396,"name":"信義路口","decorType":"bus_stop"},{"id":"node-3664807535","lat":25.0720801,"lon":121.4712912,"name":"穀保中學","decorType":"bus_stop"},{"id":"node-3664807536","lat":25.0720747,"lon":121.4706128,"name":"穀保家商","decorType":"bus_stop"},{"id":"node-3664807537","lat":25.0719266,"lon":121.4710992,"name":"全家便利商店","decorType":"convenience"},{"id":"node-3689351290","lat":25.0796348,"lon":121.481129,"name":"徐匯中學","decorType":"bus_stop"},{"id":"node-3700823292","lat":25.0703864,"lon":121.4827593,"name":"力行路","decorType":"bus_stop"},{"id":"node-3700823297","lat":25.0815878,"lon":121.4715058,"name":"蘆洲監理站","decorType":"bus_stop"},{"id":"node-3700823299","lat":25.0748598,"lon":121.4819966,"name":"永福街口 (聖佑宮)","decorType":"bus_stop"},{"id":"node-3700823300","lat":25.0750346,"lon":121.4822952,"name":"永福街口 (聖佑宮)","decorType":"bus_stop"},{"id":"node-3700965676","lat":25.0805938,"lon":121.4735484,"name":"中山一路","decorType":"bus_stop"},{"id":"node-3700965677","lat":25.0808325,"lon":121.4734917,"name":"中山一路","decorType":"bus_stop"},{"id":"node-3700965681","lat":25.079392,"lon":121.4719228,"name":"民生街口","decorType":"bus_stop"},{"id":"node-3700965682","lat":25.0798567,"lon":121.4720514,"name":"民生街口","decorType":"bus_stop"},{"id":"node-3700965683","lat":25.0789539,"lon":121.4715385,"name":"燦坤","decorType":"electronics"},{"id":"node-3700965687","lat":25.0792053,"lon":121.4717126,"name":"萊爾富","decorType":"convenience"},{"id":"node-3720429191","lat":25.0716058,"lon":121.4724939,"name":"貴族世家","decorType":"restaurant"},{"id":"node-3724617687","lat":25.0841189,"lon":121.4812678,"name":"尼加拉瓜公園","decorType":"bus_stop"},{"id":"node-3724617688","lat":25.0841874,"lon":121.4810272,"name":"尼加拉瓜公園","decorType":"bus_stop"},{"id":"node-3724617691","lat":25.0817404,"lon":121.4802818,"name":"捷運徐匯中學站 (集賢路)","decorType":"bus_stop"},{"id":"node-3724617692","lat":25.081896,"lon":121.4799703,"name":"捷運徐匯中學站 (集賢路)","decorType":"bus_stop"},{"id":"node-3729254261","lat":25.0717015,"lon":121.4720433,"name":"萊爾富","decorType":"convenience"},{"id":"node-3729254262","lat":25.0723081,"lon":121.470352,"name":"萊爾富","decorType":"convenience"},{"id":"node-3734714096","lat":25.0852087,"lon":121.4790314,"name":"全家便利商店","decorType":"convenience"},{"id":"node-3734714098","lat":25.0852462,"lon":121.4784381,"name":"大慶社區","decorType":"bus_stop"},{"id":"node-3734714099","lat":25.0854588,"lon":121.4785534,"name":"大慶社區","decorType":"bus_stop"},{"id":"node-3734717533","lat":25.0838894,"lon":121.4756469,"name":"鷺江國小 (民族路)","decorType":"bus_stop"},{"id":"node-3734717534","lat":25.0841004,"lon":121.4758782,"name":"鷺江國小 (民族路)","decorType":"bus_stop"},{"id":"node-3734769733","lat":25.0798151,"lon":121.4812743,"name":"徐匯中學","decorType":"bus_stop"},{"id":"node-3744188725","lat":25.0817022,"lon":121.4768141,"name":"未命名漢堡店","decorType":"burger"},{"id":"node-3812564388","lat":25.0855048,"lon":121.4732993,"name":"三民高中","decorType":"station"},{"id":"node-3812564400","lat":25.0803359,"lon":121.4802265,"name":"徐匯中學","decorType":"station"},{"id":"node-4267410989","lat":25.0809904,"lon":121.478595,"name":"小時光咖啡","decorType":"cafe"},{"id":"node-4426037314","lat":25.0705381,"lon":121.4789666,"name":"全家便利商店","decorType":"convenience"},{"id":"node-4426037321","lat":25.07099,"lon":121.4790926,"name":"7-Eleven","decorType":"convenience"},{"id":"node-4448603202","lat":25.0774753,"lon":121.4793364,"name":"萊爾富","decorType":"convenience"},{"id":"node-4451759565","lat":25.0854301,"lon":121.4720146,"name":"全家便利商店","decorType":"convenience"},{"id":"node-4451759566","lat":25.0851825,"lon":121.4720355,"name":"7-Eleven","decorType":"convenience"},{"id":"node-4891439031","lat":25.0834394,"lon":121.4785318,"name":"財團法人臺灣省臺北縣基督教徒蘆洲","decorType":"shrine"},{"id":"node-5280999822","lat":25.084351,"lon":121.4777,"name":"楊媽媽阿給小吃店","decorType":"restaurant"},{"id":"node-5280999824","lat":25.0821752,"lon":121.4760808,"name":"7-Eleven","decorType":"convenience"},{"id":"node-5761725153","lat":25.0700111,"lon":121.4760647,"name":"自助餐","decorType":"restaurant"},{"id":"node-5869760654","lat":25.0756199,"lon":121.4781675,"name":"永福慈惠堂","decorType":"shrine"},{"id":"node-5871618052","lat":25.079307,"lon":121.4823653,"name":"肯德基","decorType":"burger"},{"id":"node-5871618053","lat":25.0791173,"lon":121.4817582,"name":"麥當勞","decorType":"burger"},{"id":"node-5871618054","lat":25.0790531,"lon":121.4820371,"name":"星巴克","decorType":"cafe"},{"id":"node-5871618061","lat":25.0750964,"lon":121.4790308,"name":"7-Eleven","decorType":"convenience"},{"id":"node-5871618062","lat":25.0750153,"lon":121.4792996,"name":"全家便利商店","decorType":"convenience"},{"id":"node-5891947711","lat":25.0745032,"lon":121.475781,"name":"福德宮","decorType":"shrine"},{"id":"node-6013055985","lat":25.079691,"lon":121.4809287,"name":"摩斯漢堡","decorType":"burger"},{"id":"node-6015827389","lat":25.0851791,"lon":121.4788772,"name":"中華鹽酥雞","decorType":"burger"},{"id":"node-6022843085","lat":25.083725,"lon":121.4713457,"name":"甜蜜時光","decorType":"sweetshop"},{"id":"node-6039991586","lat":25.0836907,"lon":121.4811306,"name":"7-Eleven","decorType":"convenience"},{"id":"node-6202943440","lat":25.0794586,"lon":121.4819847,"name":"50嵐","decorType":"cafe"},{"id":"node-6202943441","lat":25.0793509,"lon":121.4821704,"name":"清心福全","decorType":"cafe"},{"id":"node-6202943442","lat":25.0806483,"lon":121.4811292,"name":"老先覺","decorType":"restaurant"},{"id":"node-6202943443","lat":25.0801009,"lon":121.4814275,"name":"小北百貨","decorType":"supermarket"},{"id":"node-6235446485","lat":25.0854106,"lon":121.4789637,"name":"少年","decorType":"restaurant"},{"id":"node-6586086969","lat":25.0829348,"lon":121.4711438,"name":"萊爾富","decorType":"convenience"},{"id":"node-6586089388","lat":25.0837842,"lon":121.4739551,"name":"7-Eleven","decorType":"convenience"},{"id":"node-6586089389","lat":25.0836572,"lon":121.4734002,"name":"全家便利商店","decorType":"convenience"},{"id":"node-6734330771","lat":25.0824109,"lon":121.4712723,"name":"天士藥局","decorType":"pharmacy"},{"id":"node-6734330772","lat":25.0799753,"lon":121.4811494,"name":"萊爾富","decorType":"convenience"},{"id":"node-6734330774","lat":25.0824475,"lon":121.4709659,"name":"弘記豆漿店","decorType":"restaurant"},{"id":"node-6832816562","lat":25.0844645,"lon":121.4713213,"name":"時間之旅","decorType":"cafe"},{"id":"node-6832816563","lat":25.0853851,"lon":121.471898,"name":"佳味牛排","decorType":"restaurant"},{"id":"node-6832816569","lat":25.0854604,"lon":121.4721635,"name":"文德公","decorType":"shrine"},{"id":"node-7191364602","lat":25.0854992,"lon":121.4790547,"name":"7-Eleven","decorType":"convenience"},{"id":"node-7191364604","lat":25.0854721,"lon":121.4790035,"name":"一芳水果茶","decorType":"cafe"},{"id":"node-7191634530","lat":25.0849851,"lon":121.4776506,"name":"全聯福利中心","decorType":"supermarket"},{"id":"node-7192621279","lat":25.0852589,"lon":121.4781047,"name":"健康早餐","decorType":"restaurant"},{"id":"node-7192621280","lat":25.0854435,"lon":121.4784396,"name":"巨林美而美","decorType":"burger"},{"id":"node-7192621281","lat":25.0847496,"lon":121.4776034,"name":"全家便利商店","decorType":"convenience"},{"id":"node-7192621282","lat":25.0836832,"lon":121.475471,"name":"頂好","decorType":"supermarket"},{"id":"node-7192629086","lat":25.0853609,"lon":121.4782932,"name":"大埕鐵板燒","decorType":"restaurant"},{"id":"node-7192629088","lat":25.0848638,"lon":121.4778394,"name":"杏昌藥局","decorType":"pharmacy"},{"id":"node-7192846570","lat":25.0842441,"lon":121.4754221,"name":"濟天宮","decorType":"shrine"},{"id":"node-7192846578","lat":25.0849425,"lon":121.4736344,"name":"中華郵政","decorType":"post_office"},{"id":"node-7192846584","lat":25.0839462,"lon":121.4740071,"name":"添丁切仔麵","decorType":"restaurant"},{"id":"node-7193346176","lat":25.0852143,"lon":121.4785253,"name":"小林髮廊","decorType":"hair_salon"},{"id":"node-7216110140","lat":25.0803787,"lon":121.4805779,"name":"樂雅樂","decorType":"restaurant"},{"id":"node-7279631010","lat":25.0848294,"lon":121.4779753,"name":"華粲藥局","decorType":"pharmacy"},{"id":"node-7279631011","lat":25.0852878,"lon":121.4790167,"name":"三鐵藥局","decorType":"pharmacy"},{"id":"node-7279631015","lat":25.0844604,"lon":121.4770209,"name":"隆生藥局","decorType":"pharmacy"},{"id":"node-7279631018","lat":25.0819394,"lon":121.4756878,"name":"松柏藥局","decorType":"pharmacy"},{"id":"node-7279631019","lat":25.0821097,"lon":121.4756848,"name":"全佑藥局","decorType":"pharmacy"},{"id":"node-7279631020","lat":25.0822687,"lon":121.4739501,"name":"百分百藥局","decorType":"pharmacy"},{"id":"node-7279631021","lat":25.0820036,"lon":121.4738793,"name":"幸安藥局","decorType":"pharmacy"},{"id":"node-7279631022","lat":25.0818911,"lon":121.4733698,"name":"大政藥局","decorType":"pharmacy"},{"id":"node-7279631023","lat":25.0819432,"lon":121.4713371,"name":"微笑杏鄰藥局","decorType":"pharmacy"},{"id":"node-7820617684","lat":25.0763736,"lon":121.4829034,"name":"湘滿雞肉飯","decorType":"restaurant"},{"id":"node-7820702187","lat":25.0759943,"lon":121.4789275,"name":"巧沛東方美","decorType":"restaurant"},{"id":"node-7820702189","lat":25.0751636,"lon":121.4823218,"name":"炸物商行","decorType":"restaurant"},{"id":"node-7820702198","lat":25.0755397,"lon":121.4826167,"name":"順榮熱炒海鮮店","decorType":"restaurant"},{"id":"node-7820702201","lat":25.0759968,"lon":121.4786978,"name":"八方雲集","decorType":"burger"},{"id":"node-7820702229","lat":25.0766241,"lon":121.4789685,"name":"雅成麵包坊","decorType":"restaurant"},{"id":"node-7820702258","lat":25.076652,"lon":121.4793138,"name":"胖大叔義大利麵","decorType":"restaurant"},{"id":"node-7820702276","lat":25.075652,"lon":121.4819059,"name":"春發宴席","decorType":"restaurant"},{"id":"node-7820702303","lat":25.075892,"lon":121.4827267,"name":"吉祥牛肉麵","decorType":"restaurant"},{"id":"node-7820702384","lat":25.0761689,"lon":121.4804394,"name":"阿菊炭烤香腸","decorType":"restaurant"},{"id":"node-7820702408","lat":25.0754619,"lon":121.4825825,"name":"幸福麵館","decorType":"restaurant"},{"id":"node-7820702423","lat":25.0760842,"lon":121.4788551,"name":"小時候古早味米粉湯","decorType":"restaurant"},{"id":"node-7820702453","lat":25.0762245,"lon":121.4786513,"name":"真味廚之坊","decorType":"restaurant"},{"id":"node-7820702479","lat":25.0759384,"lon":121.4789597,"name":"弘爺漢堡","decorType":"burger"},{"id":"node-7820702502","lat":25.0761962,"lon":121.4828372,"name":"品香魯肉飯","decorType":"restaurant"},{"id":"node-7820702526","lat":25.0753623,"lon":121.4820923,"name":"ㄧ鴨肉富當歸鴨麵線","decorType":"restaurant"},{"id":"node-7820702529","lat":25.0761173,"lon":121.4810972,"name":"無名肉圓","decorType":"restaurant"},{"id":"node-7820702538","lat":25.0768944,"lon":121.478888,"name":"美香齋藝術蛋糕坊","decorType":"restaurant"},{"id":"node-8029964087","lat":25.0744242,"lon":121.4821418,"name":"全家便利商店","decorType":"convenience"},{"id":"node-8059100986","lat":25.0831829,"lon":121.4804904,"name":"台北集賢商旅","decorType":"hotel"},{"id":"node-8059101001","lat":25.080429,"lon":121.480455,"name":"成旅晶贊飯店台北蘆洲","decorType":"hotel"},{"id":"node-8059101008","lat":25.082416,"lon":121.482333,"name":"薇薇精品旅館","decorType":"hotel"},{"id":"node-8059101014","lat":25.0820559,"lon":121.4800619,"name":"樂頤飯店","decorType":"hotel"},{"id":"node-8059101017","lat":25.082571,"lon":121.480634,"name":"嘉年華汽車旅館","decorType":"hotel"},{"id":"node-8118095212","lat":25.0763773,"lon":121.4827287,"name":"7-Eleven","decorType":"convenience"},{"id":"node-8118095213","lat":25.0754347,"lon":121.4810121,"name":"7-Eleven","decorType":"convenience"},{"id":"node-8118095214","lat":25.0803517,"lon":121.4806473,"name":"7-Eleven","decorType":"convenience"},{"id":"node-8118206917","lat":25.0789718,"lon":121.4820313,"name":"7-Eleven","decorType":"convenience"},{"id":"node-8118206920","lat":25.0787927,"lon":121.4746968,"name":"7-Eleven","decorType":"convenience"},{"id":"node-8118206955","lat":25.0805072,"lon":121.4706159,"name":"7-Eleven","decorType":"convenience"},{"id":"node-8118206956","lat":25.0807501,"lon":121.4734483,"name":"7-Eleven","decorType":"convenience"},{"id":"node-8118272798","lat":25.0852297,"lon":121.4819187,"name":"全家便利商店","decorType":"convenience"},{"id":"node-8118279930","lat":25.0836167,"lon":121.4794564,"name":"7-Eleven","decorType":"convenience"},{"id":"node-8385313283","lat":25.0813737,"lon":121.4715116,"name":"八方雲集","decorType":"burger"},{"id":"node-8385313558","lat":25.0719637,"lon":121.4709906,"name":"八方雲集","decorType":"burger"},{"id":"node-8385313717","lat":25.0842727,"lon":121.4809816,"name":"八方雲集","decorType":"burger"},{"id":"node-8432380488","lat":25.0767077,"lon":121.475696,"name":"和成新村","decorType":"bus_stop"},{"id":"node-8432400077","lat":25.076521,"lon":121.481709,"name":"永福派出所","decorType":"bus_stop"},{"id":"node-8432400078","lat":25.074981,"lon":121.479331,"name":"永福街124號","decorType":"bus_stop"},{"id":"node-8432400281","lat":25.078688,"lon":121.4744009,"name":"民生社區","decorType":"bus_stop"},{"id":"node-8432400304","lat":25.0775,"lon":121.47775,"name":"五年千歲","decorType":"bus_stop"},{"id":"node-8432400305","lat":25.074383,"lon":121.4806667,"name":"下竹圍街34號","decorType":"bus_stop"},{"id":"node-8432400306","lat":25.077326,"lon":121.479392,"name":"永福國小","decorType":"bus_stop"},{"id":"node-8432400676","lat":25.072246,"lon":121.480272,"name":"介壽龍莊","decorType":"bus_stop"},{"id":"node-9342491847","lat":25.0798958,"lon":121.4726051,"name":"蝦皮店到店","decorType":"convenience"},{"id":"node-9342491848","lat":25.0804606,"lon":121.4730387,"name":"全聯福利中心","decorType":"supermarket"},{"id":"node-9342491851","lat":25.084495,"lon":121.4773151,"name":"蝦皮店到店","decorType":"convenience"},{"id":"node-9443685918","lat":25.0811011,"lon":121.480125,"name":"西堤牛排","decorType":"restaurant"},{"id":"node-9443935717","lat":25.0854058,"lon":121.4728019,"name":"捷運三民高中站 (復興路一)","decorType":"bus_stop"},{"id":"node-9494397352","lat":25.0828062,"lon":121.4815126,"name":"全聯福利中心","decorType":"supermarket"},{"id":"node-9494420852","lat":25.0807385,"lon":121.4790828,"name":"Luzhou Zhongshan Road Post Office","decorType":"post_office"},{"id":"node-9494467931","lat":25.0827199,"lon":121.4759987,"name":"霧247vape shop","decorType":"clothing"},{"id":"node-9494468793","lat":25.0831314,"lon":121.477777,"name":"美廉社","decorType":"supermarket"},{"id":"node-9494489833","lat":25.083654,"lon":121.4792332,"name":"Migo hair salon","decorType":"hair_salon"},{"id":"node-9494493061","lat":25.0842215,"lon":121.4793092,"name":"樂派菓舖","decorType":"bakery"},{"id":"node-9494506676","lat":25.0850787,"lon":121.4782754,"name":"JOETSU Hair Salon","decorType":"hair_salon"},{"id":"node-9672098466","lat":25.0853947,"lon":121.4792206,"name":"顏家豆干","decorType":"restaurant"},{"id":"node-9672098467","lat":25.0854427,"lon":121.4795699,"name":"欣姿盈成衣工作室","decorType":"clothing"},{"id":"node-9672098468","lat":25.0854616,"lon":121.4796335,"name":"吉美堡","decorType":"restaurant"},{"id":"node-9672098469","lat":25.085415,"lon":121.4794922,"name":"愛莉莎髮妝造型","decorType":"hair_salon"},{"id":"node-9672098470","lat":25.0854781,"lon":121.479769,"name":"客家小吃店","decorType":"restaurant"},{"id":"node-9672098471","lat":25.0855004,"lon":121.4798618,"name":"嘉美男士理髮","decorType":"hair_salon"},{"id":"node-9672098472","lat":25.0855253,"lon":121.4799525,"name":"新原點早餐","decorType":"restaurant"},{"id":"node-9951940568","lat":25.074656,"lon":121.4782769,"name":"永豐閱覽室","decorType":"library"},{"id":"node-9951944452","lat":25.0768243,"lon":121.4809974,"name":"永福閱覽室","decorType":"library"},{"id":"node-9982674379","lat":25.0710446,"lon":121.4825322,"name":"三和豆漿王","decorType":"restaurant"},{"id":"node-10032150208","lat":25.0795804,"lon":121.4811154,"name":"伯承電腦","decorType":"electronics"},{"id":"node-10032266586","lat":25.0792706,"lon":121.4816679,"name":"全家便利商店","decorType":"convenience"},{"id":"node-10032266598","lat":25.0793168,"lon":121.4815244,"name":"bb.q Chicken","decorType":"restaurant"},{"id":"node-10032266606","lat":25.0793848,"lon":121.4820729,"name":"四海遊龍","decorType":"restaurant"},{"id":"node-10032296935","lat":25.0794935,"lon":121.4813595,"name":"徐匯中學","decorType":"bus_stop"},{"id":"node-10032296936","lat":25.0796448,"lon":121.4816411,"name":"鬍鬚張","decorType":"restaurant"},{"id":"node-10032296948","lat":25.0798379,"lon":121.4813152,"name":"黎明藥師藥局","decorType":"pharmacy"},{"id":"node-10032296949","lat":25.0798731,"lon":121.4812548,"name":"白巷子","decorType":"cafe"},{"id":"node-10032297012","lat":25.0801695,"lon":121.4815968,"name":"麵屋道樂","decorType":"restaurant"},{"id":"node-10032297013","lat":25.0801938,"lon":121.4816384,"name":"三媽臭臭鍋","decorType":"restaurant"},{"id":"node-10032297015","lat":25.0800413,"lon":121.4813219,"name":"尚井日式涮涮鍋","decorType":"restaurant"},{"id":"node-10032297017","lat":25.0798421,"lon":121.4807519,"name":"菠利塔烘培坊","decorType":"bakery"},{"id":"node-10032297018","lat":25.0798719,"lon":121.4807224,"name":"炸雞大師","decorType":"restaurant"},{"id":"node-10032297025","lat":25.0797589,"lon":121.4808793,"name":"正章木瓜牛奶 彰化肉圓伯","decorType":"restaurant"},{"id":"node-10034304031","lat":25.0787738,"lon":121.4824659,"name":"全聯福利中心","decorType":"supermarket"},{"id":"node-10034304032","lat":25.0788892,"lon":121.4823532,"name":"合康健保藥局","decorType":"pharmacy"},{"id":"node-10049294981","lat":25.0790386,"lon":121.4827636,"name":"梁社漢排骨","decorType":"restaurant"},{"id":"node-10049294982","lat":25.0790502,"lon":121.4820971,"name":"吉野家","decorType":"burger"},{"id":"node-10119972642","lat":25.0829133,"lon":121.4774092,"name":"全家 蘆洲恆德店","decorType":"convenience"},{"id":"node-10120012105","lat":25.0829362,"lon":121.4774418,"name":"好食House burger","decorType":"restaurant"},{"id":"node-10120012250","lat":25.0829976,"lon":121.4771875,"name":"呷尚寶","decorType":"burger"},{"id":"node-10120025022","lat":25.082884,"lon":121.4772745,"name":"萊爾富","decorType":"convenience"},{"id":"node-11001027779","lat":25.0837383,"lon":121.4828016,"name":"美廉社","decorType":"supermarket"},{"id":"node-11917368997","lat":25.078647,"lon":121.4749078,"name":"饎果","decorType":"bakery"},{"id":"node-11955579460","lat":25.074448,"lon":121.4814042,"name":"巨林美而美","decorType":"restaurant"},{"id":"node-13031732898","lat":25.0850636,"lon":121.4782036,"name":"饗Soul健康餐盒","decorType":"restaurant"},{"id":"node-13413775702","lat":25.0711055,"lon":121.4744763,"name":"萊爾富","decorType":"convenience"},{"id":"node-13423767499","lat":25.0818095,"lon":121.4732789,"name":"萊爾富","decorType":"convenience"},{"id":"way-56723595","lat":25.0758632,"lon":121.4812817,"name":"汐止五股高架道路","decorType":"bridge"},{"id":"way-56723597","lat":25.0752865,"lon":121.4825169,"name":"汐止五股高架道路","decorType":"bridge"},{"id":"way-215457119","lat":25.081719,"lon":121.4752405,"name":"未命名公園","decorType":"park"},{"id":"way-215471183","lat":25.0841756,"lon":121.4814976,"name":"尼加拉瓜公園","decorType":"park"},{"id":"way-215552087","lat":25.0724756,"lon":121.4759926,"name":"仙公公園","decorType":"park"},{"id":"way-215554736","lat":25.0767726,"lon":121.4812836,"name":"永福公園","decorType":"park"},{"id":"way-215554738","lat":25.074527,"lon":121.4786136,"name":"永豐公園","decorType":"park"},{"id":"way-215554739","lat":25.0819225,"lon":121.4819836,"name":"永安兒童公園","decorType":"park"},{"id":"way-215625995","lat":25.0798751,"lon":121.4758777,"name":"溪墘公園","decorType":"park"},{"id":"way-259077218","lat":25.0851508,"lon":121.4746629,"name":"蘆洲公園","decorType":"park"},{"id":"way-259077222","lat":25.0840942,"lon":121.4735776,"name":"紫禁城博物館","decorType":"art_gallery"},{"id":"way-266848724","lat":25.0833614,"lon":121.4712988,"name":"蘆洲湧蓮寺","decorType":"shrine"},{"id":"way-266848725","lat":25.0840914,"lon":121.4712957,"name":"蘆洲保和宮","decorType":"shrine"},{"id":"way-368605673","lat":25.0737398,"lon":121.4718493,"name":"洲子尾溝","decorType":"waterside"},{"id":"way-445130010","lat":25.0721184,"lon":121.4744039,"name":"仙公廟","decorType":"shrine"},{"id":"way-445130025","lat":25.0707896,"lon":121.473182,"name":"慈濟靜思堂","decorType":"shrine"},{"id":"way-516931144","lat":25.070914,"lon":121.4800235,"name":"未命名水邊","decorType":"waterside"},{"id":"way-723697465","lat":25.0774037,"lon":121.4826966,"name":"未命名公園","decorType":"park"},{"id":"way-729335100","lat":25.0834641,"lon":121.4706883,"name":"蘆洲天主教堂","decorType":"shrine"},{"id":"way-770610811","lat":25.0852019,"lon":121.4748022,"name":"未命名公園","decorType":"park"},{"id":"way-770610812","lat":25.0851804,"lon":121.4752443,"name":"未命名公園","decorType":"park"},{"id":"way-770610813","lat":25.0852501,"lon":121.4752568,"name":"未命名公園","decorType":"park"},{"id":"way-770610815","lat":25.0851016,"lon":121.4746895,"name":"未命名公園","decorType":"park"},{"id":"way-975769423","lat":25.0715657,"lon":121.476668,"name":"愛買","decorType":"supermarket"},{"id":"way-1095473740","lat":25.0798672,"lon":121.4806306,"name":"屈臣氏","decorType":"pharmacy"},{"id":"way-1228832797","lat":25.0805141,"lon":121.4799423,"name":"未命名公車站","decorType":"bus_stop"},{"id":"way-1292593231","lat":25.0763125,"lon":121.4727545,"name":"未命名森林","decorType":"forest"},{"id":"way-1465173759","lat":25.0839835,"lon":121.47806,"name":"未命名公園","decorType":"park"}]}