{"bbox":{"south":25.069944,"north":25.08555,"west":121.626406,"east":121.639438},"pois":[{"id":"node-870621607","lat":25.070183,"lon":121.631911,"name":"未命名漢堡店","decorType":"burger"},{"id":"node-870621609","lat":25.07098,"lon":121.631297,"name":"家樂福超市","decorType":"supermarket"},{"id":"node-870621677","lat":25.071129,"lon":121.631052,"name":"金龍里","decorType":"bus_stop"},{"id":"node-871331295","lat":25.071546,"lon":121.630892,"name":"金龍湖商務旅館","decorType":"hotel"},{"id":"node-871333903","lat":25.070796,"lon":121.631541,"name":"未命名美髮院","decorType":"hair_salon"},{"id":"node-871606403","lat":25.076224,"lon":121.632497,"name":"全家便利商店","decorType":"convenience"},{"id":"node-871606406","lat":25.076114,"lon":121.632385,"name":"未命名美髮院","decorType":"hair_salon"},{"id":"node-871610962","lat":25.071615,"lon":121.630809,"name":"Organic Chateau","decorType":"restaurant"},{"id":"node-903726657","lat":25.074387,"lon":121.635425,"name":"土地公廟","decorType":"shrine"},{"id":"node-903974909","lat":25.070961,"lon":121.631001,"name":"喜多麵包","decorType":"bakery"},{"id":"node-903974910","lat":25.070996,"lon":121.631409,"name":"Holland Bakery","decorType":"bakery"},{"id":"node-904666929","lat":25.070504,"lon":121.631964,"name":"未命名自主洗衣店&乾洗店","decorType":"laundry"},{"id":"node-904666946","lat":25.070258,"lon":121.631152,"name":"未命名自主洗衣店&乾洗店","decorType":"laundry"},{"id":"node-926003346","lat":25.070344,"lon":121.631281,"name":"未命名美髮院","decorType":"hair_salon"},{"id":"node-926003348","lat":25.070361,"lon":121.631076,"name":"未命名美髮院","decorType":"hair_salon"},{"id":"node-2966261274","lat":25.071674,"lon":121.630852,"name":"無憂素食","decorType":"restaurant"},{"id":"node-3066691744","lat":25.070241,"lon":121.630006,"name":"興德素食","decorType":"restaurant"},{"id":"node-3810862515","lat":25.080471,"lon":121.638285,"name":"全家便利商店","decorType":"convenience"},{"id":"node-3810862516","lat":25.078366,"lon":121.638955,"name":"7-Eleven","decorType":"convenience"},{"id":"node-3811051242","lat":25.073368,"lon":121.63838,"name":"全家便利商店","decorType":"convenience"},{"id":"node-3888805253","lat":25.070945,"lon":121.630073,"name":"7-Eleven","decorType":"convenience"},{"id":"node-3888805254","lat":25.0708,"lon":121.630095,"name":"八方雲集","decorType":"burger"},{"id":"node-3888805255","lat":25.070451,"lon":121.629526,"name":"壹咖啡","decorType":"cafe"},{"id":"node-3888808390","lat":25.070453,"lon":121.629167,"name":"全家便利商店","decorType":"convenience"},{"id":"node-4436977854","lat":25.0729,"lon":121.630119,"name":"北峰寺","decorType":"bus_stop"},{"id":"node-4986484622","lat":25.071823,"lon":121.637169,"name":"濱湖大第","decorType":"bus_stop"},{"id":"node-4986484625","lat":25.0714,"lon":121.635117,"name":"金龍湖","decorType":"bus_stop"},{"id":"node-4986484631","lat":25.071484,"lon":121.634567,"name":"金龍湖","decorType":"bus_stop"},{"id":"node-4986484645","lat":25.073907,"lon":121.639145,"name":"伯爵山莊一","decorType":"bus_stop"},{"id":"node-4986503389","lat":25.071899,"lon":121.637069,"name":"濱湖大第","decorType":"bus_stop"},{"id":"node-4986503403","lat":25.071082,"lon":121.631322,"name":"金龍里","decorType":"bus_stop"},{"id":"node-5050633180","lat":25.077372,"lon":121.636513,"name":"學頭坡山","decorType":"mountain"},{"id":"node-5141091130","lat":25.07096,"lon":121.630122,"name":"元樂日式料理","decorType":"restaurant"},{"id":"node-5141132809","lat":25.07085,"lon":121.630361,"name":"博昱明峰大藥局","decorType":"pharmacy"},{"id":"node-5141132811","lat":25.070886,"lon":121.630607,"name":"丹比","decorType":"hair_salon"},{"id":"node-5141132812","lat":25.070894,"lon":121.630686,"name":"傻師傅湯包","decorType":"restaurant"},{"id":"node-5141132815","lat":25.070955,"lon":121.63093,"name":"八丼餚","decorType":"restaurant"},{"id":"node-5141133267","lat":25.070933,"lon":121.630033,"name":"欣樣時尚髮藝","decorType":"hair_salon"},{"id":"node-5141136123","lat":25.070735,"lon":121.630046,"name":"愛宏早餐店","decorType":"restaurant"},{"id":"node-5141136609","lat":25.070637,"lon":121.62987,"name":"吳媽北港滷肉飯專賣店","decorType":"restaurant"},{"id":"node-5141154640","lat":25.07055,"lon":121.629721,"name":"順晟洗衣","decorType":"laundry"},{"id":"node-5141154641","lat":25.070487,"lon":121.629612,"name":"unique獨特髮藝","decorType":"hair_salon"},{"id":"node-5141154642","lat":25.070583,"lon":121.629353,"name":"10元壽司","decorType":"restaurant"},{"id":"node-5141154643","lat":25.0706,"lon":121.629392,"name":"鹽酥雞","decorType":"restaurant"},{"id":"node-5141154644","lat":25.070666,"lon":121.629499,"name":"黃家涼麵","decorType":"restaurant"},{"id":"node-5141154646","lat":25.070693,"lon":121.629552,"name":"醉濟公自助餐","decorType":"restaurant"},{"id":"node-5141154647","lat":25.070677,"lon":121.629524,"name":"美玉美早餐店","decorType":"restaurant"},{"id":"node-5407726105","lat":25.083086,"lon":121.636796,"name":"博市社區(歡天館)","decorType":"bus_stop"},{"id":"node-5407726111","lat":25.081987,"lon":121.638764,"name":"伯爵街59巷口","decorType":"bus_stop"},{"id":"node-5407727123","lat":25.080992,"lon":121.638287,"name":"伯爵街52巷口","decorType":"bus_stop"},{"id":"node-5407727130","lat":25.078547,"lon":121.638719,"name":"伯爵街39巷口","decorType":"bus_stop"},{"id":"node-5407727146","lat":25.080987,"lon":121.638404,"name":"伯爵街52巷口","decorType":"bus_stop"},{"id":"node-5407727157","lat":25.078428,"lon":121.63865,"name":"伯爵街39巷口","decorType":"bus_stop"},{"id":"node-5407727164","lat":25.079435,"lon":121.63791,"name":"伯爵街47巷口","decorType":"bus_stop"},{"id":"node-5574266185","lat":25.071377,"lon":121.635036,"name":"7-Eleven","decorType":"convenience"},{"id":"node-8267416975","lat":25.071146,"lon":121.63579,"name":"拉亞漢堡","decorType":"burger"},{"id":"node-8432380507","lat":25.075525,"lon":121.637417,"name":"日月光社區","decorType":"bus_stop"},{"id":"node-8432400358","lat":25.074445,"lon":121.636865,"name":"日月光社區D區","decorType":"bus_stop"},{"id":"node-8432400359","lat":25.075582,"lon":121.637412,"name":"日月光社區B區","decorType":"bus_stop"},{"id":"node-8432400360","lat":25.075614,"lon":121.63744,"name":"日月光社區","decorType":"bus_stop"},{"id":"node-8432400648","lat":25.070578,"lon":121.629373,"name":"民族六街口","decorType":"bus_stop"},{"id":"node-8432401022","lat":25.07063,"lon":121.63589,"name":"明湖新村","decorType":"bus_stop"},{"id":"node-8489512227","lat":25.075661,"lon":121.6391,"name":"建業樓","decorType":"bus_stop"},{"id":"node-8489512228","lat":25.081945,"lon":121.638871,"name":"伯爵街59巷口","decorType":"bus_stop"},{"id":"node-8489512229","lat":25.079389,"lon":121.637816,"name":"伯爵街47巷口","decorType":"bus_stop"},{"id":"node-8489633764","lat":25.072875,"lon":121.630249,"name":"北峰寺","decorType":"bus_stop"},{"id":"node-8489633766","lat":25.077721,"lon":121.629927,"name":"水蓮山莊","decorType":"bus_stop"},{"id":"node-8497879009","lat":25.070528,"lon":121.635623,"name":"明湖新村","decorType":"bus_stop"},{"id":"node-9414479545","lat":25.071384,"lon":121.634846,"name":"蝦皮店到店","decorType":"convenience"},{"id":"node-10226273517","lat":25.07021,"lon":121.629005,"name":"Small Bao tzu","decorType":"restaurant"},{"id":"node-12171124415","lat":25.085263,"lon":121.633054,"name":"翠湖東南","decorType":"mountain"},{"id":"way-73532128","lat":25.074005,"lon":121.632236,"name":"金龍湖","decorType":"waterside"},{"id":"way-76697880","lat":25.075888,"lon":121.634729,"name":"未命名橋樑","decorType":"bridge"},{"id":"way-76961573","lat":25.073285,"lon":121.630361,"name":"湖前街110巷","decorType":"bridge"},{"id":"way-76962273","lat":25.072555,"lon":121.630868,"name":"未命名森林","decorType":"forest"},{"id":"way-78380759","lat":25.069996,"lon":121.628324,"name":"北峰公園","decorType":"park"},{"id":"way-78594912","lat":25.071781,"lon":121.633131,"name":"未命名水邊","decorType":"waterside"},{"id":"way-79368039","lat":25.072735,"lon":121.626809,"name":"未命名森林","decorType":"forest"},{"id":"way-79435023","lat":25.076586,"lon":121.634187,"name":"未命名水邊","decorType":"waterside"},{"id":"way-79618143","lat":25.076305,"lon":121.634074,"name":"未命名橋樑","decorType":"bridge"},{"id":"way-80394283","lat":25.076695,"lon":121.634506,"name":"未命名森林","decorType":"forest"},{"id":"way-252237250","lat":25.07578,"lon":121.63912,"name":"未命名公園","decorType":"park"},{"id":"way-435330179","lat":25.074299,"lon":121.631277,"name":"北峰寺","decorType":"shrine"},{"id":"way-478758308","lat":25.074874,"lon":121.633823,"name":"北峰溪","decorType":"waterside"},{"id":"way-529186489","lat":25.071173,"lon":121.630977,"name":"福狸燒鳥","decorType":"restaurant"},{"id":"way-542256920","lat":25.076128,"lon":121.632492,"name":"未命名公園","decorType":"park"},{"id":"way-542259338","lat":25.075734,"lon":121.633211,"name":"未命名公園","decorType":"park"},{"id":"way-542405697","lat":25.078985,"lon":121.626423,"name":"游泳池","decorType":"stadium"},{"id":"way-582995066","lat":25.07079,"lon":121.633424,"name":"北峰溪","decorType":"waterside"},{"id":"way-582995067","lat":25.070664,"lon":121.633636,"name":"北峰溪","decorType":"waterside"},{"id":"way-582995068","lat":25.071282,"lon":121.633024,"name":"北峰溪","decorType":"waterside"},{"id":"way-582995069","lat":25.071027,"lon":121.633202,"name":"北峰溪","decorType":"waterside"},{"id":"way-582995070","lat":25.071688,"lon":121.633309,"name":"北峰溪","decorType":"waterside"},{"id":"way-582996886","lat":25.082074,"lon":121.632899,"name":"未命名水邊","decorType":"waterside"},{"id":"way-649496883","lat":25.083372,"lon":121.636234,"name":"未命名水邊","decorType":"waterside"},{"id":"way-878624401","lat":25.071413,"lon":121.636938,"name":"北峰溪","decorType":"waterside"},{"id":"way-1443855395","lat":25.085049,"lon":121.63104,"name":"北峰溪","decorType":"waterside"},{"id":"way-1443855396","lat":25.081956,"lon":121.6323,"name":"北峰溪","decorType":"waterside"},{"id":"way-1443855397","lat":25.078898,"lon":121.633659,"name":"北峰溪","decorType":"waterside"},{"id":"way-1443855398","lat":25.078333,"lon":121.633865,"name":"北峰溪","decorType":"waterside"},{"id":"way-1443855399","lat":25.077754,"lon":121.633912,"name":"北峰溪","decorType":"waterside"},{"id":"way-1443855410","lat":25.081164,"lon":121.632627,"name":"未命名水邊","decorType":"waterside"},{"id":"way-1443855411","lat":25.081211,"lon":121.632658,"name":"未命名水邊","decorType":"waterside"}]}