{"bbox":{"south":25.06994375,"north":25.085549999999998,"west":121.60034375,"east":121.61337499999999},"pois":[{"id":"node-773904702","lat":25.0784251,"lon":121.6040929,"name":"白鷺鷥山","decorType":"mountain"},{"id":"node-773936449","lat":25.0804421,"lon":121.613365,"name":"康樂山","decorType":"mountain"},{"id":"node-2077766641","lat":25.0723007,"lon":121.6059481,"name":"全聯福利中心","decorType":"supermarket"},{"id":"node-2077766688","lat":25.0719413,"lon":121.6064731,"name":"OK超商","decorType":"convenience"},{"id":"node-2077766689","lat":25.0701293,"lon":121.6113777,"name":"康是美","decorType":"pharmacy"},{"id":"node-2192021067","lat":25.0740385,"lon":121.6060379,"name":"摩斯漢堡","decorType":"burger"},{"id":"node-2523933233","lat":25.084821,"lon":121.600427,"name":"康是美","decorType":"pharmacy"},{"id":"node-2524896194","lat":25.0723196,"lon":121.6055146,"name":"7-Eleven","decorType":"convenience"},{"id":"node-2614723140","lat":25.0842911,"lon":121.6006436,"name":"大湖郵局","decorType":"post_office"},{"id":"node-2616248714","lat":25.084489,"lon":121.60037,"name":"大湖商店","decorType":"convenience"},{"id":"node-2642374352","lat":25.0710861,"lon":121.6100627,"name":"哈肯鋪","decorType":"bakery"},{"id":"node-2642374357","lat":25.0723976,"lon":121.6052835,"name":"東引快刀手","decorType":"restaurant"},{"id":"node-2922228461","lat":25.0828887,"lon":121.6047946,"name":"大湖公園","decorType":"bus_stop"},{"id":"node-2922228462","lat":25.0830516,"lon":121.6050679,"name":"大湖公園","decorType":"bus_stop"},{"id":"node-2922228465","lat":25.0742998,"lon":121.6066012,"name":"康寧社區","decorType":"bus_stop"},{"id":"node-2922228466","lat":25.0743328,"lon":121.6063735,"name":"康寧社區","decorType":"bus_stop"},{"id":"node-2922228467","lat":25.0753986,"lon":121.6071982,"name":"康寧醫院","decorType":"bus_stop"},{"id":"node-2922228468","lat":25.0759542,"lon":121.6070078,"name":"康寧醫院","decorType":"bus_stop"},{"id":"node-2922228471","lat":25.0836358,"lon":121.6023502,"name":"捷運大湖公園站","decorType":"bus_stop"},{"id":"node-2922228472","lat":25.0836525,"lon":121.6027787,"name":"捷運大湖公園站","decorType":"bus_stop"},{"id":"node-2922228473","lat":25.0725583,"lon":121.6072518,"name":"捷運葫洲站(康寧專校)","decorType":"bus_stop"},{"id":"node-2922228474","lat":25.0728222,"lon":121.6071719,"name":"捷運葫洲站(康寧專校)","decorType":"bus_stop"},{"id":"node-2922228477","lat":25.0700061,"lon":121.6116042,"name":"明湖國中","decorType":"bus_stop"},{"id":"node-2922228478","lat":25.0701598,"lon":121.611717,"name":"明湖國中","decorType":"bus_stop"},{"id":"node-2922228479","lat":25.0716436,"lon":121.6092117,"name":"明湖國小(公共電視台)","decorType":"bus_stop"},{"id":"node-2922228480","lat":25.0718598,"lon":121.6092305,"name":"明湖國小(公共電視台)","decorType":"bus_stop"},{"id":"node-2922229226","lat":25.0778312,"lon":121.6068876,"name":"黃石公廟","decorType":"bus_stop"},{"id":"node-2922229227","lat":25.0781509,"lon":121.6071426,"name":"黃石公廟","decorType":"bus_stop"},{"id":"node-3188090766","lat":25.0716084,"lon":121.6046192,"name":"民權隧道","decorType":"bus_stop"},{"id":"node-3188090767","lat":25.0723022,"lon":121.6048526,"name":"民權隧道","decorType":"bus_stop"},{"id":"node-3232474067","lat":25.0719772,"lon":121.6063973,"name":"7-Eleven","decorType":"convenience"},{"id":"node-3232474107","lat":25.0702183,"lon":121.6088503,"name":"萊爾富","decorType":"convenience"},{"id":"node-3232486050","lat":25.0705753,"lon":121.6115528,"name":"佳德健保藥局","decorType":"pharmacy"},{"id":"node-3232491135","lat":25.0721065,"lon":121.6060324,"name":"竹林樓餐館","decorType":"restaurant"},{"id":"node-3232509978","lat":25.0707487,"lon":121.6117159,"name":"sampo聲寶","decorType":"electronics"},{"id":"node-3232509981","lat":25.0713451,"lon":121.6123287,"name":"7-Eleven","decorType":"convenience"},{"id":"node-3232509984","lat":25.0707931,"lon":121.6118061,"name":"宜昇藥局","decorType":"pharmacy"},{"id":"node-3232509985","lat":25.0719501,"lon":121.6115825,"name":"古早味麻油麵線","decorType":"restaurant"},{"id":"node-3232509986","lat":25.0726407,"lon":121.6108023,"name":"7-Eleven","decorType":"convenience"},{"id":"node-3232509989","lat":25.0734639,"lon":121.611153,"name":"福德宮","decorType":"shrine"},{"id":"node-3232509990","lat":25.0737869,"lon":121.611019,"name":"未命名公園","decorType":"park"},{"id":"node-3232509992","lat":25.0733587,"lon":121.612707,"name":"竹蓮寺","decorType":"shrine"},{"id":"node-3232509993","lat":25.0717002,"lon":121.6126588,"name":"瑞麟美而美","decorType":"burger"},{"id":"node-3232510250","lat":25.0713165,"lon":121.6124067,"name":"早餐店","decorType":"restaurant"},{"id":"node-3232513035","lat":25.0701738,"lon":121.608918,"name":"歐圖廚房","decorType":"restaurant"},{"id":"node-3232519761","lat":25.0720093,"lon":121.6062313,"name":"快樂早餐店","decorType":"restaurant"},{"id":"node-3232521174","lat":25.0705017,"lon":121.6123236,"name":"永和豆漿","decorType":"restaurant"},{"id":"node-3232522541","lat":25.0723823,"lon":121.6075259,"name":"すき家","decorType":"burger"},{"id":"node-3232522661","lat":25.0706695,"lon":121.6122727,"name":"拉亞漢堡","decorType":"burger"},{"id":"node-3232525308","lat":25.0716645,"lon":121.6068114,"name":"東湖教會","decorType":"shrine"},{"id":"node-3232527362","lat":25.0716314,"lon":121.6068718,"name":"基督教內湖靈糧堂","decorType":"shrine"},{"id":"node-3232527375","lat":25.0711497,"lon":121.6077754,"name":"永和豆漿","decorType":"restaurant"},{"id":"node-3232528590","lat":25.0717462,"lon":121.6070288,"name":"K&K Pasta","decorType":"restaurant"},{"id":"node-3232530054","lat":25.0723139,"lon":121.6052322,"name":"四川龍府","decorType":"restaurant"},{"id":"node-3232530217","lat":25.0721463,"lon":121.6079721,"name":"7-Eleven","decorType":"convenience"},{"id":"node-3232530861","lat":25.0717714,"lon":121.6070054,"name":"大久食堂","decorType":"restaurant"},{"id":"node-3232531955","lat":25.0722171,"lon":121.6078088,"name":"內湖康寧郵局","decorType":"post_office"},{"id":"node-3232532894","lat":25.0718252,"lon":121.6087946,"name":"50嵐","decorType":"cafe"},{"id":"node-3232538079","lat":25.0711019,"lon":121.6078245,"name":"早安美芝城","decorType":"burger"},{"id":"node-3232541698","lat":25.0717697,"lon":121.6052656,"name":"橘鄉廚房","decorType":"restaurant"},{"id":"node-3232542061","lat":25.0707964,"lon":121.6081011,"name":"Durance沙龍","decorType":"cosmetics"},{"id":"node-3232542069","lat":25.0709316,"lon":121.6089349,"name":"歐牛","decorType":"restaurant"},{"id":"node-3232565188","lat":25.0724161,"lon":121.607444,"name":"爭鮮迴轉壽司康寧店","decorType":"restaurant"},{"id":"node-3232571362","lat":25.0714268,"lon":121.6101021,"name":"艾立","decorType":"bakery"},{"id":"node-3232573077","lat":25.0700505,"lon":121.6087662,"name":"萊爾富","decorType":"convenience"},{"id":"node-3232582361","lat":25.0714399,"lon":121.6120203,"name":"單槓","decorType":"park"},{"id":"node-3232582362","lat":25.0713402,"lon":121.6120203,"name":"盪鞦韆","decorType":"park"},{"id":"node-3232585061","lat":25.0722802,"lon":121.605831,"name":"柏妮美髮","decorType":"hair_salon"},{"id":"node-3232608321","lat":25.0718058,"lon":121.6089553,"name":"心樂園","decorType":"cafe"},{"id":"node-3232608897","lat":25.0732277,"lon":121.6065416,"name":"路易莎咖啡","decorType":"cafe"},{"id":"node-3232608899","lat":25.0723239,"lon":121.6084801,"name":"7-Eleven","decorType":"convenience"},{"id":"node-3232609237","lat":25.0716517,"lon":121.6090724,"name":"慈航藥妝藥局","decorType":"pharmacy"},{"id":"node-3232614382","lat":25.071395,"lon":121.6096068,"name":"基督教豐盛教會","decorType":"shrine"},{"id":"node-3501186376","lat":25.0837613,"lon":121.602341,"name":"大湖公園","decorType":"station"},{"id":"node-3501186377","lat":25.0726385,"lon":121.6073633,"name":"葫洲","decorType":"station"},{"id":"node-3689381737","lat":25.0724768,"lon":121.6081591,"name":"出口1","decorType":"station"},{"id":"node-3689381738","lat":25.0724086,"lon":121.607321,"name":"出口2","decorType":"station"},{"id":"node-3689390420","lat":25.0838544,"lon":121.6026582,"name":"出口1","decorType":"station"},{"id":"node-3689390421","lat":25.0832621,"lon":121.6023357,"name":"出口2","decorType":"station"},{"id":"node-3791346073","lat":25.0754428,"lon":121.6087918,"name":"7-Eleven","decorType":"convenience"},{"id":"node-4370054107","lat":25.0736105,"lon":121.6023336,"name":"衛勤訓練中心","decorType":"bus_stop"},{"id":"node-4370054108","lat":25.073817,"lon":121.6025026,"name":"衛勤訓練中心","decorType":"bus_stop"},{"id":"node-4370054134","lat":25.0776424,"lon":121.6003511,"name":"紫雲里","decorType":"bus_stop"},{"id":"node-4370054136","lat":25.0736007,"lon":121.604191,"name":"豐橋","decorType":"restaurant"},{"id":"node-4370054137","lat":25.0733578,"lon":121.6047463,"name":"金湖路口","decorType":"bus_stop"},{"id":"node-4370054138","lat":25.0735535,"lon":121.6047106,"name":"金湖路口","decorType":"bus_stop"},{"id":"node-4370094104","lat":25.0726567,"lon":121.6078056,"name":"佑全","decorType":"pharmacy"},{"id":"node-4396244189","lat":25.0729515,"lon":121.6062124,"name":"星巴克","decorType":"cafe"},{"id":"node-4524224190","lat":25.0732962,"lon":121.6041871,"name":"萊爾富","decorType":"convenience"},{"id":"node-4524229289","lat":25.0728929,"lon":121.6073189,"name":"三顧茅廬","decorType":"restaurant"},{"id":"node-4646613791","lat":25.0832389,"lon":121.6041547,"name":"Triple café","decorType":"restaurant"},{"id":"node-4677616077","lat":25.0732841,"lon":121.6115686,"name":"郵筒","decorType":"post_office"},{"id":"node-4679876809","lat":25.0756348,"lon":121.6123384,"name":"未命名公園","decorType":"park"},{"id":"node-4691856620","lat":25.0725518,"lon":121.6107052,"name":"弘爺漢堡","decorType":"burger"},{"id":"node-4691856621","lat":25.0725214,"lon":121.6107453,"name":"東來麵食館","decorType":"restaurant"},{"id":"node-4691864360","lat":25.0699555,"lon":121.6119567,"name":"Subway","decorType":"burger"},{"id":"node-4701164344","lat":25.0720383,"lon":121.6090342,"name":"六美自助餐","decorType":"restaurant"},{"id":"node-4702946588","lat":25.0722538,"lon":121.6091029,"name":"松濠涮涮鍋","decorType":"restaurant"},{"id":"node-4725809126","lat":25.0718673,"lon":121.6087143,"name":"八方雲集","decorType":"burger"},{"id":"node-4727067167","lat":25.0728844,"lon":121.6073793,"name":"髮林髮藝","decorType":"hair_salon"},{"id":"node-4727069877","lat":25.0728375,"lon":121.6097899,"name":"全多麥鮮作早餐","decorType":"restaurant"},{"id":"node-4727069878","lat":25.0727591,"lon":121.6098134,"name":"十年麵包","decorType":"bakery"},{"id":"node-4729030143","lat":25.0784397,"lon":121.606231,"name":"老公祠","decorType":"shrine"},{"id":"node-4730159625","lat":25.0784178,"lon":121.6062559,"name":"福佑宮","decorType":"shrine"},{"id":"node-4732257209","lat":25.0714419,"lon":121.6095507,"name":"弁當店","decorType":"restaurant"},{"id":"node-4732257212","lat":25.0711113,"lon":121.6096601,"name":"雍記小館","decorType":"restaurant"},{"id":"node-4732257213","lat":25.0710777,"lon":121.6094518,"name":"篙腳麵","decorType":"restaurant"},{"id":"node-4733393889","lat":25.0721298,"lon":121.6103013,"name":"米荳尼早午餐","decorType":"restaurant"},{"id":"node-4733393890","lat":25.0715735,"lon":121.6098871,"name":"健康食彩超市","decorType":"supermarket"},{"id":"node-4735551416","lat":25.0709688,"lon":121.6098051,"name":"金洋菓子烘焙坊","decorType":"bakery"},{"id":"node-4735551417","lat":25.0709491,"lon":121.6096716,"name":"威華港式燒臘","decorType":"restaurant"},{"id":"node-4735785591","lat":25.0753452,"lon":121.6077856,"name":"Seeking café","decorType":"cafe"},{"id":"node-4736038678","lat":25.0729161,"lon":121.6061187,"name":"老上海麵館","decorType":"restaurant"},{"id":"node-4736038679","lat":25.0727865,"lon":121.6056065,"name":"梁社漢排骨","decorType":"restaurant"},{"id":"node-4736038680","lat":25.0727754,"lon":121.6055042,"name":"康是美","decorType":"pharmacy"},{"id":"node-4737705385","lat":25.0741752,"lon":121.6061027,"name":"溢香園","decorType":"restaurant"},{"id":"node-4737705387","lat":25.0738354,"lon":121.6051973,"name":"馳走屋","decorType":"restaurant"},{"id":"node-4738179768","lat":25.0736006,"lon":121.6051812,"name":"Ryan's 都會潛艇堡","decorType":"restaurant"},{"id":"node-4738179769","lat":25.0736307,"lon":121.604869,"name":"仙履優質洗衣 金湖店","decorType":"laundry"},{"id":"node-4738179770","lat":25.0736059,"lon":121.6049714,"name":"九江味屋","decorType":"restaurant"},{"id":"node-4739219839","lat":25.0729218,"lon":121.6052271,"name":"樂雅樂","decorType":"restaurant"},{"id":"node-4739219858","lat":25.0726076,"lon":121.6049095,"name":"Jolly卓莉手工釀啤酒泰食餐廳","decorType":"restaurant"},{"id":"node-4739408538","lat":25.0727236,"lon":121.6046588,"name":"九元鐵板燒","decorType":"restaurant"},{"id":"node-4739408539","lat":25.0753578,"lon":121.6073448,"name":"未命名拉麵店","decorType":"ramen"},{"id":"node-4739408540","lat":25.0752996,"lon":121.6073361,"name":"曼都髮型 大湖店","decorType":"cosmetics"},{"id":"node-4739425345","lat":25.0754271,"lon":121.6075689,"name":"伊麗絲髮廊","decorType":"cosmetics"},{"id":"node-4739425346","lat":25.0736426,"lon":121.6043224,"name":"真極品牛肉麵店","decorType":"restaurant"},{"id":"node-4739470421","lat":25.0828494,"lon":121.6041234,"name":"饗趣31","decorType":"restaurant"},{"id":"node-4740874683","lat":25.0739914,"lon":121.6058782,"name":"川老爺麻辣鍋","decorType":"restaurant"},{"id":"node-4740874684","lat":25.0740534,"lon":121.6058157,"name":"ieat早午餐","decorType":"restaurant"},{"id":"node-4740874685","lat":25.0740507,"lon":121.6056698,"name":"博多拉麵","decorType":"restaurant"},{"id":"node-4744255903","lat":25.0733189,"lon":121.6044042,"name":"7-Eleven","decorType":"convenience"},{"id":"node-4744255904","lat":25.0733189,"lon":121.6045316,"name":"放學趣","decorType":"library"},{"id":"node-4756017486","lat":25.0755951,"lon":121.6087941,"name":"康寧生活會館","decorType":"hotel"},{"id":"node-4773885321","lat":25.0749332,"lon":121.6098771,"name":"未命名郵局","decorType":"post_office"},{"id":"node-4778140649","lat":25.076289,"lon":121.6124297,"name":"未命名公園","decorType":"park"},{"id":"node-4784430731","lat":25.0758624,"lon":121.6101922,"name":"未命名圖書館／書店","decorType":"library"},{"id":"node-4787423643","lat":25.0761973,"lon":121.609575,"name":"餐廳","decorType":"restaurant"},{"id":"node-4986591814","lat":25.0730473,"lon":121.6052173,"name":"SWISSSPA 內湖館","decorType":"cosmetics"},{"id":"node-4993931654","lat":25.0709768,"lon":121.6097244,"name":"花暖簾日本料理","decorType":"restaurant"},{"id":"node-5110349925","lat":25.0845588,"lon":121.6014298,"name":"濤濤","decorType":"laundry"},{"id":"node-5267309791","lat":25.0732234,"lon":121.6117607,"name":"淨宗書苑","decorType":"library"},{"id":"node-5340099218","lat":25.0728312,"lon":121.6058958,"name":"福利麵包","decorType":"bakery"},{"id":"node-6818013603","lat":25.0716897,"lon":121.6121963,"name":"未命名美髮院","decorType":"hair_salon"},{"id":"node-6843968627","lat":25.0720794,"lon":121.6078819,"name":"池上便當","decorType":"restaurant"},{"id":"node-7175344656","lat":25.0748668,"lon":121.6012819,"name":"薩爾溫滇緬泰食堂","decorType":"restaurant"},{"id":"node-7194706819","lat":25.0756426,"lon":121.6088128,"name":"饗來美食 LIKE FOOD","decorType":"restaurant"},{"id":"node-7194706904","lat":25.0749081,"lon":121.6012011,"name":"酆都串燒.料理","decorType":"restaurant"},{"id":"node-7194706978","lat":25.0761462,"lon":121.6073954,"name":"安提.司朵","decorType":"restaurant"},{"id":"node-7394537387","lat":25.072935,"lon":121.6099622,"name":"99複合洗衣","decorType":"laundry"},{"id":"node-7394537388","lat":25.0729204,"lon":121.6099172,"name":"八九十手做","decorType":"cafe"},{"id":"node-7424389762","lat":25.0706246,"lon":121.6123201,"name":"嘉愷必","decorType":"cafe"},{"id":"node-7424389765","lat":25.0703758,"lon":121.6130334,"name":"未命名餐廳","decorType":"restaurant"},{"id":"node-7424389766","lat":25.0704708,"lon":121.6129536,"name":"上好便當快餐","decorType":"restaurant"},{"id":"node-7424389767","lat":25.0709164,"lon":121.6127408,"name":"美廉社","decorType":"supermarket"},{"id":"node-7424389771","lat":25.0712429,"lon":121.6124791,"name":"大膳廚美食坊","decorType":"restaurant"},{"id":"node-7440627780","lat":25.0706389,"lon":121.6127874,"name":"瀅涓美髮屋","decorType":"cosmetics"},{"id":"node-7502653591","lat":25.0708443,"lon":121.6081364,"name":"亞斯義大利麵","decorType":"restaurant"},{"id":"node-7509905064","lat":25.0704985,"lon":121.6127627,"name":"令和壽司","decorType":"restaurant"},{"id":"node-7509905065","lat":25.0704073,"lon":121.6128239,"name":"食我廚房義大利麵","decorType":"italian"},{"id":"node-7721898784","lat":25.0847037,"lon":121.6012689,"name":"安德睿 食代義廊","decorType":"restaurant"},{"id":"node-7765188495","lat":25.071458,"lon":121.6100727,"name":"百馥水餃店","decorType":"restaurant"},{"id":"node-7765188502","lat":25.0726515,"lon":121.6105855,"name":"粉紅姊姊","decorType":"restaurant"},{"id":"node-7765188505","lat":25.0724907,"lon":121.6104114,"name":"家辣麻辣鴨血","decorType":"restaurant"},{"id":"node-7765497756","lat":25.0731131,"lon":121.6073437,"name":"東湖心時代","decorType":"restaurant"},{"id":"node-7986733311","lat":25.0710362,"lon":121.6090658,"name":"The Fun Breakfast","decorType":"restaurant"},{"id":"node-7986733312","lat":25.0710461,"lon":121.6092536,"name":"喫鍋","decorType":"restaurant"},{"id":"node-7986733313","lat":25.0710475,"lon":121.609311,"name":"綠葉食堂","decorType":"restaurant"},{"id":"node-8012840141","lat":25.080343,"lon":121.6033143,"name":"奇緣休閒中心","decorType":"restaurant"},{"id":"node-8110647242","lat":25.0701822,"lon":121.6125727,"name":"全家便利商店","decorType":"convenience"},{"id":"node-8420325607","lat":25.0729386,"lon":121.6062729,"name":"塔哩印度料理","decorType":"restaurant"},{"id":"node-8432400021","lat":25.084517,"lon":121.602057,"name":"大湖山莊","decorType":"bus_stop"},{"id":"node-8432400692","lat":25.077155,"lon":121.6133028,"name":"康寧天闊站","decorType":"bus_stop"},{"id":"node-8509105198","lat":25.0703339,"lon":121.6124534,"name":"家鄉小吃","decorType":"restaurant"},{"id":"node-8518273538","lat":25.0744969,"lon":121.6094775,"name":"康寧護專","decorType":"bus_stop"},{"id":"node-8518273539","lat":25.0745115,"lon":121.6092985,"name":"康寧護專","decorType":"bus_stop"},{"id":"node-8992756281","lat":25.0700082,"lon":121.612006,"name":"大戸屋","decorType":"restaurant"},{"id":"node-8996072644","lat":25.0746159,"lon":121.6065124,"name":"LaVie hair salon","decorType":"cosmetics"},{"id":"node-9244936940","lat":25.0703357,"lon":121.6127164,"name":"八方居","decorType":"restaurant"},{"id":"node-9314325923","lat":25.0716188,"lon":121.6119702,"name":"越南美食","decorType":"restaurant"},{"id":"node-9314325924","lat":25.0716583,"lon":121.6119237,"name":"向羚時尚造型","decorType":"cosmetics"},{"id":"node-9588074537","lat":25.0710458,"lon":121.6091773,"name":"蝦皮店到店","decorType":"convenience"},{"id":"node-10715882405","lat":25.0732007,"lon":121.6117448,"name":"未命名便利商店","decorType":"convenience"},{"id":"node-10801127424","lat":25.0705181,"lon":121.6114957,"name":"明湖上品牛肉麵","decorType":"restaurant"},{"id":"node-11257042190","lat":25.0733254,"lon":121.6065509,"name":"大湖璞旅","decorType":"hotel"},{"id":"node-11279244223","lat":25.0718098,"lon":121.607449,"name":"咖哩.咖哩","decorType":"restaurant"},{"id":"node-11662038059","lat":25.0705875,"lon":121.6123516,"name":"麵屋昕家","decorType":"restaurant"},{"id":"node-11911674730","lat":25.0726786,"lon":121.6098369,"name":" 半夏生","decorType":"cafe"},{"id":"node-11941985075","lat":25.0728217,"lon":121.6065275,"name":"博多拉麵","decorType":"restaurant"},{"id":"node-11941985076","lat":25.0727138,"lon":121.606727,"name":"屈臣氏","decorType":"pharmacy"},{"id":"node-12194423828","lat":25.0729486,"lon":121.6074513,"name":"米菲烘焙","decorType":"bakery"},{"id":"node-12355208701","lat":25.0736659,"lon":121.6052218,"name":"麵匡匡拉麵食堂","decorType":"restaurant"},{"id":"node-12355270401","lat":25.0723453,"lon":121.6076493,"name":"豆舖子","decorType":"restaurant"},{"id":"way-55038273","lat":25.0805754,"lon":121.6047245,"name":"大湖","decorType":"waterside"},{"id":"way-62149553","lat":25.0810804,"lon":121.6035142,"name":"錦帶橋","decorType":"bridge"},{"id":"way-189784276","lat":25.080985,"lon":121.6046665,"name":"大湖公園","decorType":"park"},{"id":"way-190573757","lat":25.0819692,"lon":121.6048852,"name":"九曲橋","decorType":"bridge"},{"id":"way-190573758","lat":25.0816021,"lon":121.6033244,"name":"未命名橋樑","decorType":"bridge"},{"id":"way-190575231","lat":25.081863,"lon":121.6049984,"name":"未命名橋樑","decorType":"bridge"},{"id":"way-197842438","lat":25.0819821,"lon":121.602637,"name":"未命名橋樑","decorType":"bridge"},{"id":"way-245270223","lat":25.0734485,"lon":121.6088072,"name":"未命名水邊","decorType":"waterside"},{"id":"way-296797212","lat":25.0744378,"lon":121.6088526,"name":"康湖公園","decorType":"park"},{"id":"way-296797213","lat":25.0728068,"lon":121.6086419,"name":"開放空間","decorType":"park"},{"id":"way-301771092","lat":25.083133,"lon":121.601766,"name":"湖山六號公園","decorType":"park"},{"id":"way-317031295","lat":25.0717818,"lon":121.6112197,"name":"多功能遊樂區","decorType":"park"},{"id":"way-317033137","lat":25.0738044,"lon":121.6108747,"name":"東湖二號公園","decorType":"park"},{"id":"way-317033139","lat":25.0756651,"lon":121.6120694,"name":"東湖一號公園","decorType":"park"},{"id":"way-317036560","lat":25.0710853,"lon":121.6104105,"name":"天橋","decorType":"bridge"},{"id":"way-353894884","lat":25.0803268,"lon":121.6028047,"name":"波諾義大利料理","decorType":"restaurant"},{"id":"way-418576265","lat":25.0760117,"lon":121.610025,"name":"康寧大學台北校區","decorType":"university"},{"id":"way-420479603","lat":25.0837629,"lon":121.6127949,"name":"未命名水邊","decorType":"waterside"},{"id":"way-420479604","lat":25.0840235,"lon":121.6131619,"name":"未命名水邊","decorType":"waterside"},{"id":"way-473917714","lat":25.0741538,"lon":121.6105674,"name":"東湖感恩堂","decorType":"shrine"},{"id":"way-475868778","lat":25.0746455,"lon":121.6106263,"name":"未命名公園","decorType":"park"},{"id":"way-475869368","lat":25.0756538,"lon":121.6114622,"name":"未命名公園","decorType":"park"},{"id":"way-479636712","lat":25.0731404,"lon":121.6073692,"name":"2018搞食堂","decorType":"ramen"},{"id":"way-479636713","lat":25.0729809,"lon":121.606971,"name":"蒸霸王","decorType":"restaurant"},{"id":"way-479824369","lat":25.0732551,"lon":121.6069286,"name":"未命名森林","decorType":"forest"},{"id":"way-479824370","lat":25.0730394,"lon":121.6071058,"name":"未命名森林","decorType":"forest"},{"id":"way-479868472","lat":25.0773745,"lon":121.6068518,"name":"黃石公廟","decorType":"shrine"},{"id":"way-481145207","lat":25.0725016,"lon":121.6047168,"name":"未命名公園","decorType":"park"},{"id":"way-481479528","lat":25.0740312,"lon":121.606975,"name":"未命名公園","decorType":"park"},{"id":"way-482807785","lat":25.0745395,"lon":121.6100757,"name":"未命名森林","decorType":"forest"},{"id":"way-482807786","lat":25.0744524,"lon":121.6099845,"name":"未命名森林","decorType":"forest"},{"id":"way-485669033","lat":25.0755344,"lon":121.6095508,"name":"行政大樓","decorType":"university"},{"id":"way-485669034","lat":25.0755963,"lon":121.6101527,"name":"第二教學大樓","decorType":"university"},{"id":"way-485669035","lat":25.0760567,"lon":121.6102173,"name":"第一教學大樓","decorType":"university"},{"id":"way-485669036","lat":25.0765034,"lon":121.6105074,"name":"野聲館","decorType":"university"},{"id":"way-488464757","lat":25.0735684,"lon":121.6126181,"name":"童心花園","decorType":"park"},{"id":"way-495024059","lat":25.0826735,"lon":121.6007211,"name":"湖山四號公園","decorType":"park"},{"id":"way-496456048","lat":25.0747361,"lon":121.6086344,"name":"未命名水邊","decorType":"waterside"},{"id":"way-773675402","lat":25.0826252,"lon":121.6055327,"name":"未命名水邊","decorType":"waterside"},{"id":"way-773675403","lat":25.082813,"lon":121.6055548,"name":"未命名水邊","decorType":"waterside"},{"id":"way-831767198","lat":25.0729411,"lon":121.6070607,"name":"2018食堂","decorType":"ramen"},{"id":"way-832873497","lat":25.0814312,"lon":121.6083332,"name":"大湖橋","decorType":"bridge"},{"id":"way-877544952","lat":25.0837737,"lon":121.602182,"name":"未命名公車站","decorType":"bus_stop"},{"id":"way-877544953","lat":25.0838712,"lon":121.6022564,"name":"未命名公車站","decorType":"bus_stop"},{"id":"way-877544954","lat":25.0726961,"lon":121.6070821,"name":"未命名公車站","decorType":"bus_stop"},{"id":"way-877544955","lat":25.0727973,"lon":121.6071324,"name":"未命名公車站","decorType":"bus_stop"},{"id":"way-978036411","lat":25.078286,"lon":121.6049206,"name":"未命名山丘","decorType":"mountain"},{"id":"way-1320349479","lat":25.0853408,"lon":121.6076405,"name":"未命名水邊","decorType":"waterside"}]}