{"bbox":{"south":25.06994375,"north":25.085549999999998,"west":121.509125,"east":121.52215625},"pois":[{"id":"node-1705943198","lat":25.0765952,"lon":121.51137,"name":"啟聰學校","decorType":"bus_stop"},{"id":"node-1715781374","lat":25.080022,"lon":121.511739,"name":"慈信宮","decorType":"shrine"},{"id":"node-1715782523","lat":25.0794075,"lon":121.5121655,"name":"福德宮","decorType":"shrine"},{"id":"node-1715789095","lat":25.0825583,"lon":121.5121167,"name":"麥當勞","decorType":"burger"},{"id":"node-1715807791","lat":25.080868,"lon":121.5104981,"name":"中日超商","decorType":"convenience"},{"id":"node-1715808270","lat":25.0795099,"lon":121.5124077,"name":"未命名公園","decorType":"park"},{"id":"node-1723984173","lat":25.0796318,"lon":121.5108181,"name":"探索MOTEL","decorType":"hotel"},{"id":"node-1724022267","lat":25.0788941,"lon":121.511321,"name":"未命名體育館","decorType":"stadium"},{"id":"node-1724025627","lat":25.0823359,"lon":121.510806,"name":"葫蘆堵分館","decorType":"library"},{"id":"node-1986319599","lat":25.0845748,"lon":121.52143,"name":"Subway","decorType":"burger"},{"id":"node-2391800639","lat":25.0804681,"lon":121.5202513,"name":"劍潭肉圓王","decorType":"restaurant"},{"id":"node-2391800640","lat":25.0819088,"lon":121.5177711,"name":"大樹下","decorType":"restaurant"},{"id":"node-2391800641","lat":25.079811,"lon":121.520038,"name":"勇伯米粉湯","decorType":"restaurant"},{"id":"node-2391800642","lat":25.0800758,"lon":121.5203116,"name":"混蛋老闆果汁店","decorType":"ramen"},{"id":"node-2440535412","lat":25.0702369,"lon":121.5197526,"name":"坂京鍋燒麵","decorType":"restaurant"},{"id":"node-2482625740","lat":25.0732889,"lon":121.5214286,"name":"圓山","decorType":"mountain"},{"id":"node-2517658838","lat":25.0742668,"lon":121.5199621,"name":"明倫高中","decorType":"bus_stop"},{"id":"node-2517658841","lat":25.0708875,"lon":121.5183404,"name":"庫倫街口","decorType":"bus_stop"},{"id":"node-2517658844","lat":25.0722595,"lon":121.5188808,"name":"庫倫街口","decorType":"bus_stop"},{"id":"node-2517658893","lat":25.0734016,"lon":121.519175,"name":"明倫高中","decorType":"bus_stop"},{"id":"node-2631129023","lat":25.0718896,"lon":121.5138345,"name":"酒泉重慶路口","decorType":"bus_stop"},{"id":"node-2631129024","lat":25.0732429,"lon":121.5136712,"name":"酒泉重慶路口","decorType":"bus_stop"},{"id":"node-2631129025","lat":25.074427,"lon":121.5140113,"name":"啟聰學校","decorType":"bus_stop"},{"id":"node-2631129026","lat":25.0749182,"lon":121.514043,"name":"啟聰學校","decorType":"bus_stop"},{"id":"node-2700740437","lat":25.0855146,"lon":121.5095399,"name":"葫蘆寺","decorType":"bus_stop"},{"id":"node-2700740998","lat":25.0830726,"lon":121.5101027,"name":"葫蘆堵市場","decorType":"bus_stop"},{"id":"node-2700740999","lat":25.0832288,"lon":121.5101264,"name":"葫蘆堵市場","decorType":"bus_stop"},{"id":"node-2700742524","lat":25.0806726,"lon":121.5107786,"name":"海光新村","decorType":"bus_stop"},{"id":"node-2700742526","lat":25.0813772,"lon":121.5104166,"name":"海光新村","decorType":"bus_stop"},{"id":"node-2700742930","lat":25.0795079,"lon":121.5110401,"name":"社子消防分隊","decorType":"bus_stop"},{"id":"node-2700743214","lat":25.0793827,"lon":121.5112126,"name":"社子消防分隊","decorType":"bus_stop"},{"id":"node-2700745271","lat":25.0760318,"lon":121.5118166,"name":"污水處理廠","decorType":"bus_stop"},{"id":"node-2700745272","lat":25.0756831,"lon":121.5119176,"name":"污水處理廠","decorType":"bus_stop"},{"id":"node-2700746721","lat":25.0716952,"lon":121.5109377,"name":"鄰江里","decorType":"bus_stop"},{"id":"node-2700746722","lat":25.0713171,"lon":121.5108406,"name":"鄰江里","decorType":"bus_stop"},{"id":"node-2706300358","lat":25.0842757,"lon":121.5115909,"name":"葫東重慶路口","decorType":"bus_stop"},{"id":"node-2706300654","lat":25.0843498,"lon":121.5119606,"name":"葫東重慶路口","decorType":"bus_stop"},{"id":"node-2706302124","lat":25.0817517,"lon":121.5125239,"name":"士林簡易庭","decorType":"bus_stop"},{"id":"node-2706302125","lat":25.0815781,"lon":121.5131261,"name":"士林簡易庭","decorType":"bus_stop"},{"id":"node-2825596259","lat":25.0758356,"lon":121.5187773,"name":"明倫高中圖書館","decorType":"library"},{"id":"node-3029094854","lat":25.0800109,"lon":121.5097784,"name":"富光里","decorType":"bus_stop"},{"id":"node-3032876738","lat":25.0728687,"lon":121.5120914,"name":"樹人書院文昌祠","decorType":"shrine"},{"id":"node-3034546865","lat":25.0740395,"lon":121.5198707,"name":"未命名郵局","decorType":"post_office"},{"id":"node-3048826447","lat":25.0824352,"lon":121.5103814,"name":"社子郵局","decorType":"post_office"},{"id":"node-3188479003","lat":25.0719572,"lon":121.5154528,"name":"大龍峒保安宮","decorType":"bus_stop"},{"id":"node-3188479004","lat":25.0720742,"lon":121.5155736,"name":"大龍峒保安宮","decorType":"bus_stop"},{"id":"node-3188479008","lat":25.0718478,"lon":121.517844,"name":"庫倫街","decorType":"bus_stop"},{"id":"node-3188479009","lat":25.0719996,"lon":121.5176471,"name":"庫倫街","decorType":"bus_stop"},{"id":"node-3188479016","lat":25.0720644,"lon":121.5113566,"name":"老師里","decorType":"bus_stop"},{"id":"node-3188479017","lat":25.0721646,"lon":121.5114887,"name":"老師里","decorType":"bus_stop"},{"id":"node-3188479018","lat":25.0720187,"lon":121.5133261,"name":"酒泉街","decorType":"bus_stop"},{"id":"node-3188479019","lat":25.0721312,"lon":121.5134244,"name":"酒泉街","decorType":"bus_stop"},{"id":"node-3188479020","lat":25.0719728,"lon":121.5143621,"name":"酒泉重慶路口","decorType":"bus_stop"},{"id":"node-3188479021","lat":25.0721065,"lon":121.514265,"name":"酒泉重慶路口","decorType":"bus_stop"},{"id":"node-3495094874","lat":25.0714175,"lon":121.5201361,"name":"圓山","decorType":"station"},{"id":"node-3699440333","lat":25.071585,"lon":121.5200896,"name":"捷運圓山站出口2","decorType":"station"},{"id":"node-3699440334","lat":25.0709126,"lon":121.5200697,"name":"捷運圓山站出口1","decorType":"station"},{"id":"node-3794063254","lat":25.0717979,"lon":121.5183416,"name":"全家便利商店","decorType":"convenience"},{"id":"node-3794141095","lat":25.0723009,"lon":121.5111698,"name":"OK超商","decorType":"convenience"},{"id":"node-3794141117","lat":25.0731054,"lon":121.5113888,"name":"7-Eleven","decorType":"convenience"},{"id":"node-3835833943","lat":25.084461,"lon":121.51949,"name":"阿安小吃店","decorType":"restaurant"},{"id":"node-3835833944","lat":25.0830646,"lon":121.5195082,"name":"華齡街","decorType":"bus_stop"},{"id":"node-3835833946","lat":25.083321,"lon":121.5213443,"name":"萊爾富","decorType":"convenience"},{"id":"node-3835834096","lat":25.0843906,"lon":121.5193103,"name":"佳棋麵包烘培坊","decorType":"bakery"},{"id":"node-3835834686","lat":25.0853409,"lon":121.5194175,"name":"百齡里","decorType":"bus_stop"},{"id":"node-3835834761","lat":25.0853288,"lon":121.5193298,"name":"百齡里","decorType":"bus_stop"},{"id":"node-3835834763","lat":25.0812309,"lon":121.5191073,"name":"劍潭浸信會","decorType":"shrine"},{"id":"node-3835834765","lat":25.0799302,"lon":121.520739,"name":"明勝里","decorType":"bus_stop"},{"id":"node-3835834766","lat":25.0811152,"lon":121.5208708,"name":"OK超商","decorType":"convenience"},{"id":"node-3835835118","lat":25.0831063,"lon":121.5193827,"name":"7-Eleven","decorType":"convenience"},{"id":"node-3835835218","lat":25.0849393,"lon":121.51946,"name":"牛小妹牛肉麵","decorType":"restaurant"},{"id":"node-3835835219","lat":25.0838149,"lon":121.5193058,"name":"臺灣味魯肉飯米粉湯","decorType":"restaurant"},{"id":"node-3835835220","lat":25.0834823,"lon":121.5193882,"name":"華齡街","decorType":"bus_stop"},{"id":"node-3835835234","lat":25.0833582,"lon":121.5193193,"name":"永和豆江","decorType":"restaurant"},{"id":"node-3835835239","lat":25.0828043,"lon":121.519397,"name":"全家便利商店","decorType":"convenience"},{"id":"node-3835835263","lat":25.0812052,"lon":121.5212844,"name":"一粒麥子蛋糕坊","decorType":"bakery"},{"id":"node-3835835296","lat":25.0848683,"lon":121.5214711,"name":"全家便利商店","decorType":"convenience"},{"id":"node-3835835406","lat":25.0814257,"lon":121.5210299,"name":"通河街(承德)","decorType":"bus_stop"},{"id":"node-3835835478","lat":25.0803967,"lon":121.5220568,"name":"7-Eleven","decorType":"convenience"},{"id":"node-3835835479","lat":25.0810036,"lon":121.5206072,"name":"全家便利商店","decorType":"convenience"},{"id":"node-3835835557","lat":25.0818542,"lon":121.5201291,"name":"劍潭自助餐","decorType":"restaurant"},{"id":"node-3872384284","lat":25.0709934,"lon":121.5199571,"name":"圓山轉運站","decorType":"bus_stop"},{"id":"node-3872384285","lat":25.0712666,"lon":121.519998,"name":"捷運圓山站(圓山轉運站)","decorType":"bus_stop"},{"id":"node-3872384286","lat":25.0715126,"lon":121.5200353,"name":"圓山轉運站","decorType":"bus_stop"},{"id":"node-3872384287","lat":25.0716832,"lon":121.520055,"name":"圓山轉運站","decorType":"bus_stop"},{"id":"node-4125226080","lat":25.0709826,"lon":121.5160399,"name":"Underon 上下誌","decorType":"cafe"},{"id":"node-4175821991","lat":25.0703651,"lon":121.5117924,"name":"老麵店","decorType":"restaurant"},{"id":"node-4175986289","lat":25.0722913,"lon":121.5172517,"name":"梅滿美食","decorType":"restaurant"},{"id":"node-4293131789","lat":25.0717027,"lon":121.5159407,"name":"Street Food","decorType":"burger"},{"id":"node-4319632690","lat":25.0809708,"lon":121.5134859,"name":"真耶穌教會大同教會","decorType":"shrine"},{"id":"node-4329769545","lat":25.0707118,"lon":121.51932,"name":"7-Eleven","decorType":"convenience"},{"id":"node-4452637493","lat":25.0744729,"lon":121.5149385,"name":"重慶豆漿","decorType":"restaurant"},{"id":"node-4524864073","lat":25.0761691,"lon":121.5170831,"name":"五府宮","decorType":"shrine"},{"id":"node-4524864166","lat":25.0719023,"lon":121.5156516,"name":"7-Eleven","decorType":"convenience"},{"id":"node-4524864167","lat":25.0727873,"lon":121.5136158,"name":"OK超商","decorType":"convenience"},{"id":"node-4524864168","lat":25.0762677,"lon":121.5135064,"name":"覺修宮","decorType":"shrine"},{"id":"node-4569769593","lat":25.0727835,"lon":121.5139867,"name":"10元紅豆餅","decorType":"sweetshop"},{"id":"node-4609603893","lat":25.0833583,"lon":121.5099533,"name":"豐橋火鍋","decorType":"restaurant"},{"id":"node-4719575091","lat":25.0720355,"lon":121.5180972,"name":"Vegetable foods","decorType":"convenience"},{"id":"node-4782150893","lat":25.0844439,"lon":121.5099875,"name":"全聯福利中心","decorType":"supermarket"},{"id":"node-4782154278","lat":25.084239,"lon":121.5100503,"name":"7-Eleven","decorType":"convenience"},{"id":"node-4782155369","lat":25.0820285,"lon":121.5105068,"name":"7-Eleven","decorType":"convenience"},{"id":"node-4782156144","lat":25.0852905,"lon":121.509514,"name":"7-Eleven","decorType":"convenience"},{"id":"node-4782157940","lat":25.0822025,"lon":121.5104735,"name":"萊爾富","decorType":"convenience"},{"id":"node-4782159342","lat":25.0855453,"lon":121.5094668,"name":"美而美延平旗艦店","decorType":"restaurant"},{"id":"node-4782160496","lat":25.0850725,"lon":121.5096055,"name":"君城本家","decorType":"bakery"},{"id":"node-4782161167","lat":25.0854005,"lon":121.5097985,"name":"燦坤3C","decorType":"electronics"},{"id":"node-4782161192","lat":25.0850944,"lon":121.5098602,"name":"屈臣氏","decorType":"pharmacy"},{"id":"node-4782164540","lat":25.0831841,"lon":121.5102507,"name":"永和豆奶","decorType":"restaurant"},{"id":"node-4782165953","lat":25.0834933,"lon":121.5101955,"name":"三賀小籠包","decorType":"restaurant"},{"id":"node-4782166943","lat":25.084312,"lon":121.509789,"name":"八方雲集","decorType":"burger"},{"id":"node-4782170031","lat":25.0823689,"lon":121.5103878,"name":"台灣第一香鹽酥雞","decorType":"restaurant"},{"id":"node-4783913419","lat":25.0846474,"lon":121.5099594,"name":"全國電子","decorType":"electronics"},{"id":"node-4783920817","lat":25.0839935,"lon":121.5098242,"name":"呷尚寶","decorType":"burger"},{"id":"node-4783920818","lat":25.0840269,"lon":121.5100816,"name":"麗嬰房","decorType":"clothing"},{"id":"node-4783920819","lat":25.0835415,"lon":121.5099002,"name":"草山食府","decorType":"restaurant"},{"id":"node-4784221774","lat":25.0819884,"lon":121.5105309,"name":"大同3C","decorType":"electronics"},{"id":"node-5110489257","lat":25.0721537,"lon":121.5140183,"name":"摩斯漢堡","decorType":"burger"},{"id":"node-5110489258","lat":25.0739192,"lon":121.5140618,"name":"7-Eleven","decorType":"convenience"},{"id":"node-5237995512","lat":25.0811817,"lon":121.5202021,"name":"家樂福超市","decorType":"convenience"},{"id":"node-5549341639","lat":25.0722769,"lon":121.5204351,"name":"圓山轉運站(玉門)","decorType":"bus_stop"},{"id":"node-5594811121","lat":25.0836655,"lon":121.5194993,"name":"春天藥妝","decorType":"pharmacy"},{"id":"node-5851985001","lat":25.0706268,"lon":121.5160498,"name":"全家便利商店","decorType":"convenience"},{"id":"node-5851985002","lat":25.0706438,"lon":121.5158124,"name":"佳禾藥局","decorType":"pharmacy"},{"id":"node-5851985003","lat":25.0706365,"lon":121.5155804,"name":"門諾會大同教會","decorType":"shrine"},{"id":"node-5949682791","lat":25.0825716,"lon":121.517798,"name":"OK超商","decorType":"convenience"},{"id":"node-5949682792","lat":25.0851617,"lon":121.5176981,"name":"全家便利商店","decorType":"convenience"},{"id":"node-5949682793","lat":25.0843088,"lon":121.5174642,"name":"7-Eleven","decorType":"convenience"},{"id":"node-6033393085","lat":25.0717419,"lon":121.5159408,"name":"小鳳米粉湯","decorType":"restaurant"},{"id":"node-6033393086","lat":25.0718488,"lon":121.5140549,"name":"吉野家","decorType":"burger"},{"id":"node-6033402785","lat":25.0714649,"lon":121.5140301,"name":"50嵐","decorType":"cafe"},{"id":"node-6033407600","lat":25.0718051,"lon":121.5159783,"name":"八方雲集","decorType":"burger"},{"id":"node-6038382487","lat":25.0710568,"lon":121.5139734,"name":"PIZZA HOT 餐廳","decorType":"restaurant"},{"id":"node-6038796203","lat":25.0716403,"lon":121.5135212,"name":"7-Eleven","decorType":"convenience"},{"id":"node-6112447371","lat":25.0835731,"lon":121.5220389,"name":"紅蝴蝶","decorType":"clothing"},{"id":"node-6114012750","lat":25.0708681,"lon":121.5159413,"name":"未命名美髮院","decorType":"hair_salon"},{"id":"node-6116447890","lat":25.0835413,"lon":121.5218795,"name":"未命名服飾店","decorType":"clothing"},{"id":"node-6116447893","lat":25.083934,"lon":121.5217114,"name":"Come to Hair Salon","decorType":"hair_salon"},{"id":"node-6116447904","lat":25.0832955,"lon":121.5212705,"name":"C&C童衣小舖","decorType":"clothing"},{"id":"node-6117500168","lat":25.0839843,"lon":121.52129,"name":"美儀美容院","decorType":"cosmetics"},{"id":"node-6117500172","lat":25.0839604,"lon":121.5213945,"name":"上漾質髮時尚館","decorType":"hair_salon"},{"id":"node-6117523303","lat":25.0848834,"lon":121.5200672,"name":"拉亞漢堡","decorType":"burger"},{"id":"node-6117523305","lat":25.0848187,"lon":121.5204037,"name":"武聚宮","decorType":"shrine"},{"id":"node-6117536376","lat":25.0845729,"lon":121.5218513,"name":"Pasta Panda","decorType":"restaurant"},{"id":"node-6117536377","lat":25.0845745,"lon":121.5219646,"name":"盛康藥局","decorType":"pharmacy"},{"id":"node-6224202285","lat":25.0719073,"lon":121.5158249,"name":"milkhouses","decorType":"bakery"},{"id":"node-6305011007","lat":25.0810001,"lon":121.5208321,"name":"日式拉麵","decorType":"restaurant"},{"id":"node-6325207087","lat":25.0705369,"lon":121.5188782,"name":"悟飯糰","decorType":"restaurant"},{"id":"node-6326925486","lat":25.0707162,"lon":121.5190123,"name":"路易莎","decorType":"cafe"},{"id":"node-6553170175","lat":25.0705599,"lon":121.5187005,"name":"大埔鐵板燒","decorType":"restaurant"},{"id":"node-7017538449","lat":25.070545,"lon":121.5190577,"name":"深夜咖啡","decorType":"cafe"},{"id":"node-7194693215","lat":25.0739891,"lon":121.5136242,"name":"素素如意素食、點心","decorType":"restaurant"},{"id":"node-7194693221","lat":25.0720481,"lon":121.5108374,"name":"尚品香 早餐店","decorType":"restaurant"},{"id":"node-7194693228","lat":25.0730292,"lon":121.5140462,"name":"阿一排骨","decorType":"restaurant"},{"id":"node-7194693235","lat":25.07259,"lon":121.519184,"name":"利生素食","decorType":"restaurant"},{"id":"node-7194693240","lat":25.0714517,"lon":121.5092804,"name":"金牌正味薑母鴨","decorType":"restaurant"},{"id":"node-7194693246","lat":25.070678,"lon":121.518945,"name":"八方雲集","decorType":"burger"},{"id":"node-7194693252","lat":25.0718994,"lon":121.5157694,"name":"新口味鹽酥雞","decorType":"restaurant"},{"id":"node-7194693258","lat":25.0752391,"lon":121.5194551,"name":"拉亞漢堡","decorType":"burger"},{"id":"node-7194693270","lat":25.0705583,"lon":121.5195789,"name":"早安美芝城","decorType":"burger"},{"id":"node-7194693278","lat":25.0737977,"lon":121.5193313,"name":"韓國太極烤肉專賣店","decorType":"restaurant"},{"id":"node-7194706693","lat":25.0741558,"lon":121.5189382,"name":"吳記大腸蚵仔花枝麵線","decorType":"restaurant"},{"id":"node-7194706698","lat":25.0720011,"lon":121.510961,"name":"油飯","decorType":"restaurant"},{"id":"node-7194706706","lat":25.071968,"lon":121.5109809,"name":"傳統古早味油飯攤","decorType":"restaurant"},{"id":"node-7194706719","lat":25.07175,"lon":121.5103114,"name":"菜菜朝食nanachoushoku","decorType":"restaurant"},{"id":"node-7194706725","lat":25.0705757,"lon":121.5197627,"name":"Comebuy","decorType":"cafe"},{"id":"node-7194706731","lat":25.0719118,"lon":121.5157121,"name":"米哥烘焙坊","decorType":"restaurant"},{"id":"node-7194706754","lat":25.0703427,"lon":121.5219596,"name":"英國生蠔海鮮小屋","decorType":"restaurant"},{"id":"node-7194706755","lat":25.0737924,"lon":121.5140552,"name":"永和豆漿","decorType":"restaurant"},{"id":"node-7194706763","lat":25.0733124,"lon":121.518812,"name":"台開早餐店","decorType":"restaurant"},{"id":"node-7194706770","lat":25.0740659,"lon":121.5191691,"name":"巷口麵店","decorType":"restaurant"},{"id":"node-7194706775","lat":25.072136,"lon":121.5173303,"name":"稻香伙食","decorType":"restaurant"},{"id":"node-7194706782","lat":25.0719067,"lon":121.5155229,"name":"金好呷好吃雞肉飯","decorType":"restaurant"},{"id":"node-7194706790","lat":25.072829,"lon":121.5139788,"name":"益鼎讚紅豆餅","decorType":"restaurant"},{"id":"node-7194706798","lat":25.071712,"lon":121.5140041,"name":"吉野家","decorType":"burger"},{"id":"node-7194706806","lat":25.0708338,"lon":121.5200059,"name":"Flash Coffee","decorType":"cafe"},{"id":"node-7194706812","lat":25.0718839,"lon":121.5142453,"name":"尚品香精緻早午餐-酒泉店","decorType":"restaurant"},{"id":"node-7194706829","lat":25.070548,"lon":121.5189781,"name":"尚品香","decorType":"restaurant"},{"id":"node-7194706837","lat":25.0739225,"lon":121.5193774,"name":"806魯肉飯清粥","decorType":"restaurant"},{"id":"node-7194706843","lat":25.0730528,"lon":121.5143428,"name":"采吉軒紅豆專門店","decorType":"restaurant"},{"id":"node-7194706850","lat":25.0742028,"lon":121.5185952,"name":"Cheese 烘焙","decorType":"restaurant"},{"id":"node-7194706857","lat":25.0720862,"lon":121.5109917,"name":"黃家米苔目","decorType":"restaurant"},{"id":"node-7194706864","lat":25.0719706,"lon":121.5119124,"name":"里長伯碳烤","decorType":"restaurant"},{"id":"node-7194706871","lat":25.0728364,"lon":121.5142018,"name":"正一堂養生膳食坊","decorType":"restaurant"},{"id":"node-7194706887","lat":25.0707069,"lon":121.519471,"name":"小廚房復合式早餐店","decorType":"restaurant"},{"id":"node-7194706893","lat":25.0719166,"lon":121.5160159,"name":"大龍胡椒餅蔥燒餅","decorType":"restaurant"},{"id":"node-7194706899","lat":25.0717668,"lon":121.5157931,"name":"老蔡水煎包","decorType":"restaurant"},{"id":"node-7194706910","lat":25.0705686,"lon":121.5194415,"name":"ASI南洋風味館","decorType":"restaurant"},{"id":"node-7194706917","lat":25.0704624,"lon":121.5197624,"name":"冰山五角","decorType":"restaurant"},{"id":"node-7194706918","lat":25.0738631,"lon":121.5140163,"name":"大龍街香菇肉粥","decorType":"restaurant"},{"id":"node-7194706925","lat":25.0736924,"lon":121.5140629,"name":"大龍峒肉羹-米粉湯","decorType":"restaurant"},{"id":"node-7194706933","lat":25.074162,"lon":121.5194344,"name":"福記","decorType":"restaurant"},{"id":"node-7194706940","lat":25.074018,"lon":121.5189781,"name":"鮮堡漢堡","decorType":"restaurant"},{"id":"node-7194706947","lat":25.0719017,"lon":121.5141116,"name":"40年老字號包餡雞蛋糕","decorType":"restaurant"},{"id":"node-7194706953","lat":25.0730262,"lon":121.5145438,"name":"小里子海鮮","decorType":"restaurant"},{"id":"node-7194706960","lat":25.072195,"lon":121.5145986,"name":"孫東寶","decorType":"restaurant"},{"id":"node-7194706967","lat":25.0715648,"lon":121.5157644,"name":"5味臭臭鍋","decorType":"restaurant"},{"id":"node-7194706972","lat":25.0719218,"lon":121.5160633,"name":"第一土鵝肉","decorType":"restaurant"},{"id":"node-7194706977","lat":25.0718655,"lon":121.514629,"name":"金和麵食館","decorType":"restaurant"},{"id":"node-7194706984","lat":25.0753584,"lon":121.519208,"name":"江太壽司","decorType":"restaurant"},{"id":"node-7194706996","lat":25.0703706,"lon":121.5139339,"name":"丫田廚房","decorType":"restaurant"},{"id":"node-7194707003","lat":25.0734278,"lon":121.5174256,"name":"阿仁炒飯","decorType":"restaurant"},{"id":"node-7662035468","lat":25.074325,"lon":121.5136801,"name":"啟聰學校","decorType":"bus_stop"},{"id":"node-7699511641","lat":25.0715245,"lon":121.5150118,"name":"裴記水餃","decorType":"restaurant"},{"id":"node-7727553472","lat":25.0846345,"lon":121.5119567,"name":"全家便利商店","decorType":"convenience"},{"id":"node-7749806938","lat":25.0706766,"lon":121.5157789,"name":"大牛牛排館","decorType":"restaurant"},{"id":"node-7749806941","lat":25.0708758,"lon":121.5159727,"name":"郭記大塊肉羹","decorType":"restaurant"},{"id":"node-7749806958","lat":25.0707154,"lon":121.5158312,"name":"大龍林家麵店","decorType":"restaurant"},{"id":"node-7749806969","lat":25.0703401,"lon":121.518217,"name":"漁陶屋","decorType":"restaurant"},{"id":"node-7749806970","lat":25.070747,"lon":121.5158285,"name":"萬世香小籠包豆漿店","decorType":"restaurant"},{"id":"node-7749806971","lat":25.0708071,"lon":121.5158473,"name":"拉亞漢堡","decorType":"burger"},{"id":"node-7749806978","lat":25.0703802,"lon":121.5139369,"name":"丫田廚房","decorType":"restaurant"},{"id":"node-7787034026","lat":25.0705267,"lon":121.5197706,"name":"大腸蚵仔麵線","decorType":"restaurant"},{"id":"node-7787034027","lat":25.0704239,"lon":121.5197603,"name":"日見食堂","decorType":"restaurant"},{"id":"node-7787034028","lat":25.0704968,"lon":121.5197703,"name":"圓山知高飯","decorType":"restaurant"},{"id":"node-7787034029","lat":25.070281,"lon":121.519758,"name":"阿寬鵝肉","decorType":"restaurant"},{"id":"node-7787034030","lat":25.0703727,"lon":121.5197578,"name":"Solo Pizza","decorType":"restaurant"},{"id":"node-7787034031","lat":25.0700745,"lon":121.5194611,"name":"語心扉餃子館","decorType":"restaurant"},{"id":"node-7787034032","lat":25.0701948,"lon":121.5197479,"name":"元氣早餐吧","decorType":"restaurant"},{"id":"node-7787034033","lat":25.0710945,"lon":121.5182157,"name":"Cakewalk 田步田菓子","decorType":"sweetshop"},{"id":"node-7795175790","lat":25.0845687,"lon":121.5217431,"name":"二郎食堂","decorType":"restaurant"},{"id":"node-7795175791","lat":25.0845781,"lon":121.521543,"name":"丘比特小木屋","decorType":"restaurant"},{"id":"node-7795175792","lat":25.0848384,"lon":121.5219925,"name":"八方雲集","decorType":"burger"},{"id":"node-7795175803","lat":25.084494,"lon":121.5214539,"name":"早餐店","decorType":"restaurant"},{"id":"node-7795175804","lat":25.0833646,"lon":121.5215235,"name":"活力園早餐坊","decorType":"restaurant"},{"id":"node-7795175805","lat":25.083279,"lon":121.5215557,"name":"可口越南美食","decorType":"restaurant"},{"id":"node-7795175811","lat":25.0826559,"lon":121.5203896,"name":"一生懸命燒鳥居酒屋","decorType":"restaurant"},{"id":"node-7795175812","lat":25.0827318,"lon":121.5197673,"name":"富樂台式涮涮鍋","decorType":"restaurant"},{"id":"node-7795175813","lat":25.0826103,"lon":121.519587,"name":"好慧吃","decorType":"restaurant"},{"id":"node-7795175814","lat":25.0826893,"lon":121.5195702,"name":"小歇","decorType":"restaurant"},{"id":"node-7795175815","lat":25.0828332,"lon":121.5195481,"name":"十美早餐","decorType":"restaurant"},{"id":"node-7795175816","lat":25.082962,"lon":121.5193529,"name":"松竹梅壽司","decorType":"restaurant"},{"id":"node-7795175817","lat":25.0832,"lon":121.5193147,"name":"鵝肉切仔麵","decorType":"restaurant"},{"id":"node-7795175818","lat":25.0832535,"lon":121.5192939,"name":"健康素食","decorType":"restaurant"},{"id":"node-7795175819","lat":25.0835219,"lon":121.5194911,"name":"賀村日式料理店","decorType":"restaurant"},{"id":"node-7795175820","lat":25.0833707,"lon":121.5195199,"name":"太子麵店","decorType":"restaurant"},{"id":"node-7795175821","lat":25.0835784,"lon":121.5193248,"name":"老品家牛肉麵","decorType":"restaurant"},{"id":"node-7795175822","lat":25.083586,"lon":121.519346,"name":"八方雲集","decorType":"burger"},{"id":"node-7795175823","lat":25.0837622,"lon":121.5193249,"name":"航晴蚵仔麵線","decorType":"restaurant"},{"id":"node-7795175824","lat":25.0838713,"lon":121.5193211,"name":"中壢新明牛肉麵","decorType":"restaurant"},{"id":"node-7795175825","lat":25.0850823,"lon":121.5186924,"name":"巷語手作平價料理","decorType":"restaurant"},{"id":"node-7795175826","lat":25.0851072,"lon":121.5183292,"name":"覓食","decorType":"restaurant"},{"id":"node-7795175827","lat":25.0851501,"lon":121.5180874,"name":"正宗嘉義火雞肉飯","decorType":"restaurant"},{"id":"node-7795175828","lat":25.0845159,"lon":121.5174918,"name":"闔家小吃","decorType":"restaurant"},{"id":"node-7795175829","lat":25.0844533,"lon":121.5174503,"name":"呷尚寶","decorType":"burger"},{"id":"node-7795175830","lat":25.0842848,"lon":121.5174539,"name":"旺旺","decorType":"restaurant"},{"id":"node-7795175831","lat":25.085011,"lon":121.5174875,"name":"圓園傳統飲品","decorType":"restaurant"},{"id":"node-7795175832","lat":25.0850098,"lon":121.5176551,"name":"夏一跳","decorType":"restaurant"},{"id":"node-7795175833","lat":25.0848616,"lon":121.517631,"name":"幾分熟厚切牛排館","decorType":"restaurant"},{"id":"node-7795175834","lat":25.0842135,"lon":121.5174891,"name":"福港阿郎鹽酥雞","decorType":"restaurant"},{"id":"node-7795175835","lat":25.0842466,"lon":121.5176151,"name":"新四海永和豆漿大王","decorType":"restaurant"},{"id":"node-7795175836","lat":25.0841083,"lon":121.5175194,"name":"麥軒","decorType":"restaurant"},{"id":"node-7795175837","lat":25.0839306,"lon":121.5173856,"name":"主題甜點","decorType":"restaurant"},{"id":"node-7795175838","lat":25.0839855,"lon":121.5175089,"name":"聖馬可咖啡餐飲","decorType":"restaurant"},{"id":"node-7795175839","lat":25.0835881,"lon":121.5175907,"name":"早餐優選","decorType":"restaurant"},{"id":"node-7795175840","lat":25.0833257,"lon":121.517578,"name":"鮮堡漢堡","decorType":"restaurant"},{"id":"node-7795175841","lat":25.0831502,"lon":121.5176155,"name":"多愛家","decorType":"restaurant"},{"id":"node-7795175842","lat":25.0826294,"lon":121.5175592,"name":"來來小吃店","decorType":"restaurant"},{"id":"node-7795175843","lat":25.0827247,"lon":121.5177138,"name":"呷宝玉","decorType":"restaurant"},{"id":"node-7795175844","lat":25.0827951,"lon":121.5178769,"name":"順園鍋貼","decorType":"restaurant"},{"id":"node-7795175846","lat":25.0825617,"lon":121.5179622,"name":"好香九色炸雞","decorType":"restaurant"},{"id":"node-7795175847","lat":25.0825648,"lon":121.5180112,"name":"傳鄉北港焿","decorType":"restaurant"},{"id":"node-7795175848","lat":25.082498,"lon":121.5181466,"name":"阿淑小吃","decorType":"restaurant"},{"id":"node-7795175849","lat":25.0823255,"lon":121.5181902,"name":"阿華麵羹店","decorType":"restaurant"},{"id":"node-7795175850","lat":25.081986,"lon":121.5178911,"name":"一品小吃","decorType":"restaurant"},{"id":"node-7795175851","lat":25.0820455,"lon":121.5181164,"name":"清鶴素食","decorType":"restaurant"},{"id":"node-7795175852","lat":25.0817464,"lon":121.5192832,"name":"古早味小吃","decorType":"restaurant"},{"id":"node-7795175853","lat":25.0819629,"lon":121.5188347,"name":"番王甜不辣","decorType":"restaurant"},{"id":"node-7795175854","lat":25.0820759,"lon":121.519764,"name":"脆皮臭豆腐","decorType":"restaurant"},{"id":"node-7795175855","lat":25.0819435,"lon":121.5199605,"name":"黑店","decorType":"restaurant"},{"id":"node-7795175856","lat":25.0818985,"lon":121.5200228,"name":"阿郎鹹酥雞","decorType":"restaurant"},{"id":"node-7795175858","lat":25.0817078,"lon":121.5204828,"name":"陽光飯糰廣東粥","decorType":"restaurant"},{"id":"node-7795175859","lat":25.0817336,"lon":121.5204107,"name":"于季手工水餃","decorType":"restaurant"},{"id":"node-7795175860","lat":25.0816631,"lon":121.5205767,"name":"劍潭榮宗麵線","decorType":"restaurant"},{"id":"node-7795175861","lat":25.0816193,"lon":121.5207208,"name":"涼麵","decorType":"restaurant"},{"id":"node-7795175862","lat":25.0815729,"lon":121.5207967,"name":"根來阿財鐵板燒","decorType":"restaurant"},{"id":"node-7795175863","lat":25.081518,"lon":121.5209494,"name":"玫卿越南料理","decorType":"restaurant"},{"id":"node-7795175864","lat":25.0813754,"lon":121.5212898,"name":"燒臘飯","decorType":"restaurant"},{"id":"node-7795175865","lat":25.0813196,"lon":121.5213989,"name":"劍潭碳烤之家","decorType":"restaurant"},{"id":"node-7795175866","lat":25.0812466,"lon":121.5215819,"name":"金豐小館","decorType":"restaurant"},{"id":"node-7795175867","lat":25.0811959,"lon":121.5216777,"name":"楊伯伯牛肉麵","decorType":"restaurant"},{"id":"node-7795175868","lat":25.0811426,"lon":121.5218133,"name":"麻辣的誘惑","decorType":"restaurant"},{"id":"node-7795175869","lat":25.0811143,"lon":121.5218654,"name":"曾張車輪餅","decorType":"restaurant"},{"id":"node-7795175870","lat":25.0810662,"lon":121.5219773,"name":"香港忠記燒臘店","decorType":"restaurant"},{"id":"node-7795175871","lat":25.0810138,"lon":121.5220997,"name":"當紅炸子雞","decorType":"restaurant"},{"id":"node-7795175873","lat":25.0808326,"lon":121.5220285,"name":"尚好麵店","decorType":"restaurant"},{"id":"node-7795175874","lat":25.0808996,"lon":121.5218929,"name":"豪記專業牛肉麵","decorType":"restaurant"},{"id":"node-7795175875","lat":25.0810233,"lon":121.5216729,"name":"超好吃","decorType":"restaurant"},{"id":"node-7795175876","lat":25.081049,"lon":121.5215591,"name":"得進大鼎便當","decorType":"restaurant"},{"id":"node-7795175877","lat":25.0811504,"lon":121.5213837,"name":"益源熱炒","decorType":"restaurant"},{"id":"node-7795175878","lat":25.0811478,"lon":121.5210527,"name":"瀧賀","decorType":"restaurant"},{"id":"node-7795175879","lat":25.0811074,"lon":121.5200257,"name":"初戀好食雞蛋糕","decorType":"restaurant"},{"id":"node-7795175880","lat":25.0810001,"lon":121.520223,"name":"錢亨和風鍋物","decorType":"restaurant"},{"id":"node-7795175881","lat":25.0810516,"lon":121.5205236,"name":"鍋董","decorType":"restaurant"},{"id":"node-7795175882","lat":25.081061,"lon":121.5207455,"name":"豬排咖哩飯","decorType":"restaurant"},{"id":"node-7795175883","lat":25.0809073,"lon":121.5209911,"name":"咖輕鬆","decorType":"restaurant"},{"id":"node-7795175884","lat":25.0810001,"lon":121.5210025,"name":"紅橘子","decorType":"restaurant"},{"id":"node-7795197885","lat":25.0807424,"lon":121.5212396,"name":"Qburger","decorType":"burger"},{"id":"node-7795197886","lat":25.0807278,"lon":121.5209589,"name":"宮內屋豚骨らーめん","decorType":"restaurant"},{"id":"node-7795197887","lat":25.0807372,"lon":121.5205748,"name":"安琪兒早餐屋","decorType":"restaurant"},{"id":"node-7795197888","lat":25.0807049,"lon":121.5203517,"name":"萊爾富","decorType":"convenience"},{"id":"node-8022108040","lat":25.0799861,"lon":121.5203601,"name":"明勝里","decorType":"bus_stop"},{"id":"node-8118095208","lat":25.0831782,"lon":121.5118703,"name":"7-Eleven","decorType":"convenience"},{"id":"node-8118206931","lat":25.0725157,"lon":121.5185843,"name":"7-Eleven","decorType":"convenience"},{"id":"node-8491874392","lat":25.0723306,"lon":121.5184814,"name":"火把教會","decorType":"shrine"},{"id":"node-8491874393","lat":25.0720569,"lon":121.519182,"name":"すき家","decorType":"burger"},{"id":"node-8678284800","lat":25.0830119,"lon":121.5201215,"name":"心田蔬果坊","decorType":"supermarket"},{"id":"node-8935314342","lat":25.0722665,"lon":121.519014,"name":"Subway","decorType":"burger"},{"id":"node-8935314343","lat":25.0720916,"lon":121.5189541,"name":"星巴克","decorType":"cafe"},{"id":"node-8935314344","lat":25.0703199,"lon":121.5197557,"name":"老地方牛肉麵","decorType":"restaurant"},{"id":"node-9081984393","lat":25.0813015,"lon":121.521177,"name":"通河街(承德)","decorType":"bus_stop"},{"id":"node-9321252513","lat":25.0804034,"lon":121.5109591,"name":"蝦皮店到店","decorType":"convenience"},{"id":"node-9325992889","lat":25.0847581,"lon":121.5218355,"name":"21金火鍋","decorType":"restaurant"},{"id":"node-9342941596","lat":25.0852011,"lon":121.5175965,"name":"旺旺日式料理、鐵板燒","decorType":"restaurant"},{"id":"node-9345816145","lat":25.084346,"lon":121.5193131,"name":"蝦皮店到店","decorType":"convenience"},{"id":"node-9377991063","lat":25.0715096,"lon":121.5140305,"name":"蝦皮店到店","decorType":"convenience"},{"id":"node-9497475695","lat":25.0719083,"lon":121.5155804,"name":"早安美芝城","decorType":"burger"},{"id":"node-9497475696","lat":25.0721428,"lon":121.5151995,"name":"家樂福超市","decorType":"supermarket"},{"id":"node-9497475697","lat":25.0721507,"lon":121.5149695,"name":"全國電子","decorType":"electronics"},{"id":"node-9630668948","lat":25.0831968,"lon":121.5216025,"name":"蝦皮店到店","decorType":"convenience"},{"id":"node-9710869949","lat":25.0744574,"lon":121.5140717,"name":"全家便利商店","decorType":"convenience"},{"id":"node-9894688562","lat":25.0707094,"lon":121.5196017,"name":"萊爾富","decorType":"convenience"},{"id":"node-9894949449","lat":25.070566,"lon":121.5195306,"name":"烏弄原生茶飲","decorType":"cafe"},{"id":"node-9957626860","lat":25.0705379,"lon":121.5188399,"name":"BREMEN 不萊梅","decorType":"restaurant"},{"id":"node-10255126310","lat":25.0711977,"lon":121.5158403,"name":"Healthy Vegetarian","decorType":"restaurant"},{"id":"node-10538692915","lat":25.0837308,"lon":121.5176723,"name":"八方悅鍋物","decorType":"restaurant"},{"id":"node-10848437942","lat":25.0735134,"lon":121.5139818,"name":"重慶站","decorType":"bus_stop"},{"id":"node-11183243034","lat":25.0736029,"lon":121.5190291,"name":"未命名公園","decorType":"park"},{"id":"node-11911124799","lat":25.0726791,"lon":121.5192994,"name":"佛教正覺同修會","decorType":"shrine"},{"id":"node-12571025628","lat":25.0744827,"lon":121.5151934,"name":"小紅厝月經博物館","decorType":"art_gallery"},{"id":"way-24006864","lat":25.0778131,"lon":121.521104,"name":"承德橋","decorType":"bridge"},{"id":"way-33072372","lat":25.0777645,"lon":121.5212238,"name":"承德橋","decorType":"bridge"},{"id":"way-49134095","lat":25.0773698,"lon":121.5179799,"name":"中山高速公路","decorType":"bridge"},{"id":"way-49164245","lat":25.0759675,"lon":121.5184503,"name":"汐止五股高架道路","decorType":"bridge"},{"id":"way-49164254","lat":25.0775572,"lon":121.5155917,"name":"台北交流道","decorType":"bridge"},{"id":"way-49164255","lat":25.0773914,"lon":121.5166203,"name":"台北交流道","decorType":"bridge"},{"id":"way-49164256","lat":25.0793792,"lon":121.5137914,"name":"台北交流道","decorType":"bridge"},{"id":"way-49164261","lat":25.0778202,"lon":121.5156257,"name":"中山高速公路","decorType":"bridge"},{"id":"way-49164262","lat":25.0772889,"lon":121.51764,"name":"中山高速公路","decorType":"bridge"},{"id":"way-49164263","lat":25.0776691,"lon":121.5156076,"name":"中山高速公路","decorType":"bridge"},{"id":"way-49164264","lat":25.0780472,"lon":121.5136417,"name":"中山高速公路","decorType":"bridge"},{"id":"way-49164266","lat":25.077869,"lon":121.5139329,"name":"中山高速公路","decorType":"bridge"},{"id":"way-49164267","lat":25.0777427,"lon":121.5139175,"name":"台北交流道","decorType":"bridge"},{"id":"way-49164268","lat":25.077906,"lon":121.5156379,"name":"台北交流道","decorType":"bridge"},{"id":"way-49164271","lat":25.0773534,"lon":121.5122241,"name":"台北交流道","decorType":"bridge"},{"id":"way-50893477","lat":25.0762817,"lon":121.5142729,"name":"慶昌橋","decorType":"bridge"},{"id":"way-50893498","lat":25.0781653,"lon":121.5119633,"name":"中山高速公路","decorType":"bridge"},{"id":"way-50893500","lat":25.0776948,"lon":121.5119495,"name":"台北交流道","decorType":"bridge"},{"id":"way-50893502","lat":25.0789599,"lon":121.5122129,"name":"台北交流道","decorType":"bridge"},{"id":"way-50893503","lat":25.0789835,"lon":121.5120985,"name":"台北交流道","decorType":"bridge"},{"id":"way-50893506","lat":25.0780246,"lon":121.5119738,"name":"中山高速公路","decorType":"bridge"},{"id":"way-50893514","lat":25.0762148,"lon":121.5142681,"name":"慶昌橋","decorType":"bridge"},{"id":"way-60793441","lat":25.0716163,"lon":121.5219182,"name":"圓山公園","decorType":"park"},{"id":"way-88191527","lat":25.0713993,"lon":121.5201389,"name":"未命名公車站","decorType":"bus_stop"},{"id":"way-183802204","lat":25.0726235,"lon":121.5211061,"name":"臨濟宗護國禪寺","decorType":"shrine"},{"id":"way-187920919","lat":25.0845526,"lon":121.5212791,"name":"台北星美休閒飯店","decorType":"hotel"},{"id":"way-188005565","lat":25.0808546,"lon":121.5176312,"name":"未命名橋樑","decorType":"bridge"},{"id":"way-201280870","lat":25.0746626,"lon":121.5104727,"name":"迪化休閒運動公園","decorType":"park"},{"id":"way-242614245","lat":25.0785256,"lon":121.5112145,"name":"台北交流道","decorType":"bridge"},{"id":"way-277048242","lat":25.0752775,"lon":121.5200962,"name":"未命名橋樑","decorType":"bridge"},{"id":"way-277048244","lat":25.0749536,"lon":121.5202563,"name":"未命名橋樑","decorType":"bridge"},{"id":"way-277048246","lat":25.0755749,"lon":121.5200599,"name":"未命名橋樑","decorType":"bridge"},{"id":"way-277048251","lat":25.0750486,"lon":121.5198846,"name":"未命名橋樑","decorType":"bridge"},{"id":"way-281750415","lat":25.0761624,"lon":121.5183394,"name":"中庭花園","decorType":"park"},{"id":"way-293137963","lat":25.0749016,"lon":121.52084,"name":"福壽宮","decorType":"shrine"},{"id":"way-307155340","lat":25.0742722,"lon":121.5132958,"name":"大同分館","decorType":"library"},{"id":"way-380243366","lat":25.0811346,"lon":121.5174728,"name":"劍潭天德宮","decorType":"shrine"},{"id":"way-383933931","lat":25.0713394,"lon":121.5200095,"name":"圓山轉運站","decorType":"station"},{"id":"way-383978087","lat":25.0790302,"lon":121.5165566,"name":"基隆河左岸自行車道","decorType":"bridge"},{"id":"way-444886281","lat":25.0766169,"lon":121.5155991,"name":"包公廟","decorType":"shrine"},{"id":"way-444996955","lat":25.0759437,"lon":121.5115987,"name":"臺北試演場","decorType":"art_gallery"},{"id":"way-444996978","lat":25.0738364,"lon":121.5105111,"name":"未命名橋樑","decorType":"bridge"},{"id":"way-444996989","lat":25.07238,"lon":121.5100554,"name":"未命名森林","decorType":"forest"},{"id":"way-444996996","lat":25.0745523,"lon":121.5115235,"name":"未命名橋樑","decorType":"bridge"},{"id":"way-447485172","lat":25.0781048,"lon":121.5139081,"name":"台北交流道","decorType":"bridge"},{"id":"way-449040989","lat":25.0854521,"lon":121.5209181,"name":"未命名體育館","decorType":"stadium"},{"id":"way-456206430","lat":25.0743815,"lon":121.5204903,"name":"台北數位產業園區","decorType":"park"},{"id":"way-461765273","lat":25.0763588,"lon":121.5177016,"name":"中庭花園","decorType":"park"},{"id":"way-461767596","lat":25.0734675,"lon":121.5171357,"name":"景觀生態池","decorType":"park"},{"id":"way-461767598","lat":25.0738349,"lon":121.5167448,"name":"造型庭園","decorType":"park"},{"id":"way-501564522","lat":25.0808397,"lon":121.5175871,"name":"基隆河右岸自行車道","decorType":"bridge"},{"id":"way-501884476","lat":25.0789885,"lon":121.5165242,"name":"未命名橋樑","decorType":"bridge"},{"id":"way-501967663","lat":25.0821662,"lon":121.5188335,"name":"福華公園","decorType":"park"},{"id":"way-502011543","lat":25.0815354,"lon":121.5184829,"name":"未命名水邊","decorType":"waterside"},{"id":"way-541716939","lat":25.083667,"lon":121.5216145,"name":"未命名公園","decorType":"park"},{"id":"way-549537073","lat":25.0823886,"lon":121.5111816,"name":"福順公園","decorType":"park"},{"id":"way-549537074","lat":25.0793192,"lon":121.5123296,"name":"未命名公園","decorType":"park"},{"id":"way-549537075","lat":25.0774693,"lon":121.5098847,"name":"未命名公園","decorType":"park"},{"id":"way-549537076","lat":25.0773271,"lon":121.5100363,"name":"未命名公園","decorType":"park"},{"id":"way-549537077","lat":25.0767344,"lon":121.5132321,"name":"未命名公園","decorType":"park"},{"id":"way-549537078","lat":25.074752,"lon":121.5155596,"name":"未命名公園","decorType":"park"},{"id":"way-549537079","lat":25.0710216,"lon":121.5179099,"name":"至聖公園","decorType":"park"},{"id":"way-549537080","lat":25.0711204,"lon":121.5120032,"name":"未命名公園","decorType":"park"},{"id":"way-549537081","lat":25.0702564,"lon":121.5155791,"name":"大龍公園","decorType":"park"},{"id":"way-688067553","lat":25.0854013,"lon":121.5178535,"name":"廚房","decorType":"restaurant"},{"id":"way-691850220","lat":25.082317,"lon":121.5215683,"name":"五港宮","decorType":"shrine"},{"id":"way-699007110","lat":25.0724668,"lon":121.5219014,"name":"台北圓山公園都市綠化環境教育中心","decorType":"art_gallery"},{"id":"way-723697461","lat":25.0742964,"lon":121.5169514,"name":"幼兒園遊戲中庭","decorType":"park"},{"id":"way-734354382","lat":25.0760222,"lon":121.5187681,"name":"生態池","decorType":"waterside"},{"id":"way-734354384","lat":25.0758753,"lon":121.5193031,"name":"未命名公園","decorType":"park"},{"id":"way-734354386","lat":25.0759203,"lon":121.5191003,"name":"未命名公園","decorType":"park"},{"id":"way-764307726","lat":25.0736682,"lon":121.5135636,"name":"馬可先生","decorType":"bakery"},{"id":"way-770953637","lat":25.0777957,"lon":121.5211691,"name":"承德橋","decorType":"bridge"},{"id":"way-772191746","lat":25.0762558,"lon":121.5138625,"name":"慶昌橋","decorType":"bridge"},{"id":"way-783222595","lat":25.0776794,"lon":121.521158,"name":"未命名橋樑","decorType":"bridge"},{"id":"way-783222597","lat":25.0777454,"lon":121.5209023,"name":"未命名橋樑","decorType":"bridge"},{"id":"way-827758933","lat":25.0760631,"lon":121.5123545,"name":"靜思堂","decorType":"shrine"},{"id":"way-827759594","lat":25.0852868,"lon":121.5117469,"name":"葫蘆商旅","decorType":"hotel"},{"id":"way-855924391","lat":25.0829208,"lon":121.5203311,"name":"未命名公園","decorType":"park"},{"id":"way-857513613","lat":25.0768739,"lon":121.5197462,"name":"中山高速公路","decorType":"bridge"},{"id":"way-857513614","lat":25.0771019,"lon":121.5184069,"name":"台北交流道","decorType":"bridge"},{"id":"way-870444976","lat":25.0749924,"lon":121.51084,"name":"未命名公園","decorType":"park"},{"id":"way-870444977","lat":25.075284,"lon":121.5109797,"name":"未命名公園","decorType":"park"},{"id":"way-1081162018","lat":25.0736251,"lon":121.521947,"name":"未命名水邊","decorType":"waterside"},{"id":"way-1099993445","lat":25.0710451,"lon":121.5213218,"name":"未命名公園","decorType":"park"},{"id":"way-1099993446","lat":25.0709526,"lon":121.521357,"name":"未命名公園","decorType":"park"},{"id":"way-1156915916","lat":25.0722859,"lon":121.5156012,"name":"未命名水邊","decorType":"waterside"},{"id":"way-1372589304","lat":25.0800247,"lon":121.5190429,"name":"明勝公園","decorType":"park"},{"id":"way-1462829503","lat":25.0725348,"lon":121.5155824,"name":"未命名公園","decorType":"park"},{"id":"way-1465081240","lat":25.077042,"lon":121.5157407,"name":"台北交流道","decorType":"bridge"}]}