{"bbox":{"south":25.085549999999998,"north":25.10115625,"west":121.60034375,"east":121.61337499999999},"pois":[{"id":"way-420434168","lat":25.0879603,"lon":121.6059146,"name":"未命名水邊","decorType":"waterside"},{"id":"node-2482646446","lat":25.0948242,"lon":121.6098705,"name":"牛稠尾山","decorType":"mountain"},{"id":"node-2482647800","lat":25.090807,"lon":121.60421,"name":"大湖山","decorType":"mountain"},{"id":"node-2482647825","lat":25.0872155,"lon":121.6131304,"name":"聖明山","decorType":"mountain"},{"id":"node-2616251905","lat":25.0861401,"lon":121.6015005,"name":"全聯福利中心","decorType":"supermarket"},{"id":"node-4714777892","lat":25.0922193,"lon":121.6047991,"name":"牛稠湖山","decorType":"mountain"},{"id":"node-7749806936","lat":25.0856511,"lon":121.6018322,"name":"福藏泰然","decorType":"restaurant"},{"id":"node-7749806962","lat":25.0861758,"lon":121.601859,"name":"好鄰居早餐店","decorType":"restaurant"},{"id":"node-7749806968","lat":25.0862262,"lon":121.6018382,"name":"小浪山山","decorType":"restaurant"},{"id":"node-7797695418","lat":25.0875369,"lon":121.6015002,"name":"味亦美早餐店","decorType":"restaurant"},{"id":"node-8420296413","lat":25.0881648,"lon":121.6011426,"name":"萊爾富","decorType":"convenience"},{"id":"node-8432400019","lat":25.086012,"lon":121.601691,"name":"大湖區民活動中心","decorType":"bus_stop"},{"id":"node-8432400020","lat":25.087774,"lon":121.601404,"name":"大湖山莊街169巷","decorType":"bus_stop"},{"id":"node-8979908757","lat":25.0942466,"lon":121.6130988,"name":"東牛稠尾山","decorType":"mountain"},{"id":"node-13078094328","lat":25.0923455,"lon":121.6095446,"name":"未命名山丘","decorType":"mountain"},{"id":"node-13078094329","lat":25.088486,"lon":121.6095529,"name":"未命名山丘","decorType":"mountain"},{"id":"way-382224144","lat":25.0861569,"lon":121.6127815,"name":"安泰溪","decorType":"waterside"},{"id":"way-420434163","lat":25.0870557,"lon":121.6064645,"name":"荷花池","decorType":"waterside"},{"id":"way-420457746","lat":25.0940016,"lon":121.605671,"name":"大湖土地公廟","decorType":"shrine"},{"id":"way-420457747","lat":25.0936233,"lon":121.607083,"name":"未命名水邊","decorType":"waterside"},{"id":"way-420457748","lat":25.092899,"lon":121.6073262,"name":"未命名水邊","decorType":"waterside"},{"id":"way-430668175","lat":25.0979655,"lon":121.6114334,"name":"未命名水邊","decorType":"waterside"},{"id":"way-762069577","lat":25.100242,"lon":121.6090123,"name":"未命名水邊","decorType":"waterside"},{"id":"way-773675401","lat":25.0924821,"lon":121.6069509,"name":"成功路五段120巷","decorType":"bridge"},{"id":"way-773675405","lat":25.0859444,"lon":121.6125038,"name":"安泰街","decorType":"bridge"},{"id":"way-773675409","lat":25.0907754,"lon":121.6073502,"name":"未命名橋樑","decorType":"bridge"},{"id":"way-773675411","lat":25.0872849,"lon":121.6072754,"name":"未命名橋樑","decorType":"bridge"},{"id":"way-824890699","lat":25.0871461,"lon":121.6044491,"name":"未命名公園","decorType":"park"},{"id":"way-902578517","lat":25.0867105,"lon":121.6064633,"name":"木板橋","decorType":"bridge"},{"id":"way-1178593470","lat":25.0864471,"lon":121.6021509,"name":"翠湖公園","decorType":"park"},{"id":"way-1320349480","lat":25.0883293,"lon":121.6109906,"name":"未命名水邊","decorType":"waterside"},{"id":"way-1320349489","lat":25.0998854,"lon":121.6036454,"name":"未命名水邊","decorType":"waterside"},{"id":"way-1320349491","lat":25.0956283,"lon":121.6027249,"name":"未命名水邊","decorType":"waterside"},{"id":"way-1320349492","lat":25.0974813,"lon":121.6013574,"name":"未命名水邊","decorType":"waterside"},{"id":"way-1443855367","lat":25.0983357,"lon":121.6122855,"name":"內溝溪","decorType":"waterside"},{"id":"way-1443855373","lat":25.0978643,"lon":121.6129306,"name":"未命名水邊","decorType":"waterside"},{"id":"way-1443855374","lat":25.0979194,"lon":121.6127221,"name":"未命名水邊","decorType":"waterside"},{"id":"way-1443855375","lat":25.1007796,"lon":121.6117466,"name":"未命名水邊","decorType":"waterside"},{"id":"way-1443855377","lat":25.1004891,"lon":121.6099717,"name":"內溝溪","decorType":"waterside"},{"id":"way-1450452638","lat":25.0947373,"lon":121.6006279,"name":"未命名水邊","decorType":"waterside"},{"id":"way-1450452639","lat":25.0951447,"lon":121.6013454,"name":"未命名水邊","decorType":"waterside"},{"id":"way-1450452640","lat":25.0948538,"lon":121.6013308,"name":"未命名水邊","decorType":"waterside"},{"id":"way-1450452641","lat":25.0949516,"lon":121.6016077,"name":"未命名水邊","decorType":"waterside"},{"id":"way-1450452642","lat":25.0950925,"lon":121.6018866,"name":"未命名水邊","decorType":"waterside"},{"id":"way-1450452643","lat":25.09523,"lon":121.6021456,"name":"未命名水邊","decorType":"waterside"}]}