{"bbox":{"south":25.08555,"north":25.101156,"west":121.509125,"east":121.522156},"pois":[{"id":"way-51903923","lat":25.085857,"lon":121.510862,"name":"未命名橋樑","decorType":"bridge"},{"id":"way-210340847","lat":25.093761,"lon":121.516364,"name":"基隆河","decorType":"waterside"},{"id":"way-259080206","lat":25.085783,"lon":121.520386,"name":"前港公園","decorType":"park"},{"id":"way-596364977","lat":25.087265,"lon":121.515509,"name":"百齡右岸河濱公園","decorType":"park"},{"id":"way-444886268","lat":25.086864,"lon":121.509574,"name":"重陽橋","decorType":"bridge"},{"id":"way-1124359832","lat":25.092207,"lon":121.51072,"name":"未命名水邊","decorType":"waterside"},{"id":"node-2687908420","lat":25.09385,"lon":121.520509,"name":"士林區行政中心 (中正)","decorType":"bus_stop"},{"id":"node-2687908421","lat":25.092979,"lon":121.51966,"name":"士林區行政中心 (中正)","decorType":"bus_stop"},{"id":"node-2687908875","lat":25.090485,"lon":121.522028,"name":"公教住宅","decorType":"bus_stop"},{"id":"node-2687908876","lat":25.090684,"lon":121.522123,"name":"公教住宅","decorType":"bus_stop"},{"id":"node-2700735729","lat":25.092199,"lon":121.517892,"name":"陽明高中","decorType":"bus_stop"},{"id":"node-2700735730","lat":25.091185,"lon":121.517018,"name":"陽明高中","decorType":"bus_stop"},{"id":"node-2700740032","lat":25.08599,"lon":121.509542,"name":"葫蘆寺","decorType":"bus_stop"},{"id":"node-2705036866","lat":25.08754,"lon":121.509149,"name":"社子市場","decorType":"bus_stop"},{"id":"node-2705036868","lat":25.088841,"lon":121.509919,"name":"社正路","decorType":"bus_stop"},{"id":"node-2705036869","lat":25.090594,"lon":121.509557,"name":"國泰人壽大樓","decorType":"bus_stop"},{"id":"node-3109562212","lat":25.095554,"lon":121.521286,"name":"新光醫院","decorType":"bus_stop"},{"id":"node-3109562213","lat":25.095574,"lon":121.52149,"name":"新光醫院","decorType":"bus_stop"},{"id":"node-3188478996","lat":25.095312,"lon":121.517591,"name":"國立科教館","decorType":"bus_stop"},{"id":"node-3188478997","lat":25.095381,"lon":121.517283,"name":"國立科教館","decorType":"bus_stop"},{"id":"node-3188478998","lat":25.092628,"lon":121.520433,"name":"士林區行政中心(基河)","decorType":"bus_stop"},{"id":"node-3188478999","lat":25.092832,"lon":121.520505,"name":"士林區行政中心(基河)","decorType":"bus_stop"},{"id":"node-3188479000","lat":25.094791,"lon":121.518592,"name":"天文科學館","decorType":"bus_stop"},{"id":"node-3188479001","lat":25.094294,"lon":121.517012,"name":"士林高商","decorType":"bus_stop"},{"id":"node-3188479002","lat":25.094415,"lon":121.517064,"name":"士林高商","decorType":"bus_stop"},{"id":"node-3188479006","lat":25.095422,"lon":121.518285,"name":"天文科學館","decorType":"bus_stop"},{"id":"node-3673618204","lat":25.095099,"lon":121.514114,"name":"士林監理站","decorType":"bus_stop"},{"id":"node-3673618205","lat":25.095287,"lon":121.514566,"name":"士林監理站","decorType":"bus_stop"},{"id":"node-3744263727","lat":25.090961,"lon":121.520014,"name":"士商路","decorType":"bus_stop"},{"id":"node-3744263729","lat":25.088502,"lon":121.521579,"name":"大南路口","decorType":"bus_stop"},{"id":"node-3744263730","lat":25.089847,"lon":121.517781,"name":"福港街","decorType":"bus_stop"},{"id":"node-3744263731","lat":25.090286,"lon":121.517714,"name":"福港街","decorType":"bus_stop"},{"id":"node-3744263732","lat":25.091317,"lon":121.518028,"name":"福港街","decorType":"bus_stop"},{"id":"node-3763972448","lat":25.096351,"lon":121.516342,"name":"摩斯漢堡","decorType":"burger"},{"id":"node-3835833940","lat":25.089107,"lon":121.51818,"name":"後港里","decorType":"bus_stop"},{"id":"node-3835834095","lat":25.086598,"lon":121.519527,"name":"前港公園","decorType":"bus_stop"},{"id":"node-3835834464","lat":25.089573,"lon":121.518411,"name":"後港里","decorType":"bus_stop"},{"id":"node-3835834767","lat":25.08779,"lon":121.520874,"name":"武聖宮","decorType":"shrine"},{"id":"node-3835835003","lat":25.086626,"lon":121.519407,"name":"前港公園","decorType":"bus_stop"},{"id":"node-3835835006","lat":25.088401,"lon":121.520946,"name":"全家便利商店","decorType":"convenience"},{"id":"node-3835835209","lat":25.087203,"lon":121.517758,"name":"百齡國小","decorType":"bus_stop"},{"id":"node-3835835528","lat":25.085696,"lon":121.521556,"name":"7-Eleven","decorType":"convenience"},{"id":"node-3857683726","lat":25.09351,"lon":121.52056,"name":"DBS大尺碼生活館","decorType":"clothing"},{"id":"node-4144034489","lat":25.091221,"lon":121.517515,"name":"coffee stand","decorType":"cafe"},{"id":"node-4375871111","lat":25.096209,"lon":121.515259,"name":"兒童新樂園","decorType":"bus_stop"},{"id":"node-4375871112","lat":25.096336,"lon":121.514691,"name":"兒童新樂園","decorType":"bus_stop"},{"id":"node-4410824047","lat":25.088826,"lon":121.521861,"name":"未命名超市","decorType":"supermarket"},{"id":"node-4460110820","lat":25.087962,"lon":121.520777,"name":"未命名餐廳","decorType":"restaurant"},{"id":"node-4462659061","lat":25.094713,"lon":121.515103,"name":"地中海餐廳","decorType":"restaurant"},{"id":"node-4483312892","lat":25.096292,"lon":121.51636,"name":"響敘","decorType":"restaurant"},{"id":"node-4547470789","lat":25.088922,"lon":121.509583,"name":"貝思提","decorType":"cafe"},{"id":"node-4676247892","lat":25.087077,"lon":121.509756,"name":"良記福臨魯肉飯","decorType":"restaurant"},{"id":"node-4679440000","lat":25.094785,"lon":121.518408,"name":"7-Eleven","decorType":"convenience"},{"id":"node-4679455798","lat":25.097164,"lon":121.519326,"name":"文昌小吃","decorType":"restaurant"},{"id":"node-4782154746","lat":25.086399,"lon":121.509401,"name":"路易莎咖啡","decorType":"cafe"},{"id":"node-4782156208","lat":25.087023,"lon":121.509351,"name":"屈臣氏","decorType":"pharmacy"},{"id":"node-4782159709","lat":25.085622,"lon":121.509453,"name":"全家便利商店","decorType":"convenience"},{"id":"node-4783921221","lat":25.085759,"lon":121.509653,"name":"粥師傅廣東粥","decorType":"restaurant"},{"id":"node-4927508385","lat":25.087315,"lon":121.518068,"name":"後港代辦民眾閱覽室","decorType":"library"},{"id":"node-5182136401","lat":25.09435,"lon":121.521168,"name":"儂特利 Lotteria","decorType":"burger"},{"id":"node-5182136403","lat":25.094617,"lon":121.52211,"name":"豚將日本拉麵","decorType":"restaurant"},{"id":"node-5182136405","lat":25.094178,"lon":121.521867,"name":"基督教拿撒勒人會士林教會","decorType":"shrine"},{"id":"node-5248371924","lat":25.097064,"lon":121.521928,"name":"巧果子","decorType":"restaurant"},{"id":"node-5248376423","lat":25.096946,"lon":121.521751,"name":"福客","decorType":"restaurant"},{"id":"node-5248419421","lat":25.096805,"lon":121.521472,"name":"及品水餃","decorType":"restaurant"},{"id":"node-5794307831","lat":25.094614,"lon":121.522067,"name":"山東利民家常牛肉麵","decorType":"restaurant"},{"id":"node-5949682795","lat":25.088994,"lon":121.518317,"name":"7-Eleven","decorType":"convenience"},{"id":"node-5949682796","lat":25.08716,"lon":121.517746,"name":"全家便利商店","decorType":"convenience"},{"id":"node-5949682797","lat":25.08873,"lon":121.518073,"name":"全聯福利中心","decorType":"supermarket"},{"id":"node-5949987490","lat":25.096182,"lon":121.521383,"name":"7-Eleven","decorType":"convenience"},{"id":"node-5949987492","lat":25.091702,"lon":121.518016,"name":"全家便利商店","decorType":"convenience"},{"id":"node-5949987493","lat":25.089616,"lon":121.51585,"name":"7-Eleven","decorType":"convenience"},{"id":"node-5949987494","lat":25.096565,"lon":121.514701,"name":"7-Eleven","decorType":"convenience"},{"id":"node-6004507054","lat":25.094613,"lon":121.521995,"name":"CoCo都可","decorType":"cafe"},{"id":"node-6004507056","lat":25.094615,"lon":121.522099,"name":"OMAYA 春川炒雞","decorType":"restaurant"},{"id":"node-6014376272","lat":25.091508,"lon":121.52163,"name":"大村武","decorType":"restaurant"},{"id":"node-6095914120","lat":25.088563,"lon":121.521384,"name":"愛佳藥局","decorType":"pharmacy"},{"id":"node-6095989127","lat":25.088635,"lon":121.518223,"name":"創意烘焙麵包店","decorType":"bakery"},{"id":"node-6096017210","lat":25.088454,"lon":121.52057,"name":"海羊專業羊肉鍋","decorType":"restaurant"},{"id":"node-6096023101","lat":25.087043,"lon":121.517704,"name":"洗樂美自助洗衣","decorType":"laundry"},{"id":"node-6096024229","lat":25.086664,"lon":121.517649,"name":"鉅豐電腦","decorType":"electronics"},{"id":"node-6096035587","lat":25.085799,"lon":121.517566,"name":"男士家庭理髮","decorType":"hair_salon"},{"id":"node-6096044453","lat":25.087897,"lon":121.518052,"name":"魚旨亭日式料理","decorType":"restaurant"},{"id":"node-6096045432","lat":25.088206,"lon":121.518122,"name":"台南港口土魠魚羹","decorType":"restaurant"},{"id":"node-6096050613","lat":25.088018,"lon":121.518079,"name":"美而美早餐店","decorType":"restaurant"},{"id":"node-6096056290","lat":25.088449,"lon":121.518177,"name":"良益筒仔米糕","decorType":"restaurant"},{"id":"node-6096056839","lat":25.088393,"lon":121.518164,"name":"幸福生活百貨","decorType":"hardware"},{"id":"node-6096063101","lat":25.088841,"lon":121.518264,"name":"古早味腿庫飯","decorType":"restaurant"},{"id":"node-6096065587","lat":25.088829,"lon":121.518417,"name":"CoCo都可","decorType":"cafe"},{"id":"node-6096065700","lat":25.088821,"lon":121.518482,"name":"阿貴牛排","decorType":"restaurant"},{"id":"node-6096068442","lat":25.08848,"lon":121.521065,"name":"大佬牛牛排","decorType":"restaurant"},{"id":"node-6096076251","lat":25.088925,"lon":121.518642,"name":"冰來醬擋","decorType":"restaurant"},{"id":"node-6096083682","lat":25.088935,"lon":121.518581,"name":"揚名烘焙豆漿豆花","decorType":"restaurant"},{"id":"node-6096094697","lat":25.088531,"lon":121.521175,"name":"越雲越南創意料理","decorType":"restaurant"},{"id":"node-6096095927","lat":25.088595,"lon":121.521266,"name":"未命名餐廳","decorType":"restaurant"},{"id":"node-6117500174","lat":25.08586,"lon":121.521552,"name":"光點教會","decorType":"shrine"},{"id":"node-6120728242","lat":25.094213,"lon":121.521724,"name":"香港鑫記燒臘","decorType":"restaurant"},{"id":"node-6120763318","lat":25.094152,"lon":121.521568,"name":"聯成電腦","decorType":"electronics"},{"id":"node-6120779596","lat":25.093856,"lon":121.521048,"name":"士林馥記烤鴨","decorType":"restaurant"},{"id":"node-6120843815","lat":25.092325,"lon":121.521043,"name":"永大電腦","decorType":"electronics"},{"id":"node-6120863683","lat":25.091582,"lon":121.521006,"name":"OK超商","decorType":"convenience"},{"id":"node-6120865762","lat":25.091713,"lon":121.520981,"name":"路易莎","decorType":"restaurant"},{"id":"node-6120888831","lat":25.090844,"lon":121.519785,"name":"聖賢藥局","decorType":"pharmacy"},{"id":"node-6120902666","lat":25.091704,"lon":121.519103,"name":"上華電器行","decorType":"electronics"},{"id":"node-6120906039","lat":25.091429,"lon":121.518073,"name":"阿琴自助餐","decorType":"restaurant"},{"id":"node-6120910446","lat":25.092083,"lon":121.518749,"name":"拉亞漢堡","decorType":"burger"},{"id":"node-6120912053","lat":25.09216,"lon":121.518685,"name":"JSP呷上寶早餐店","decorType":"restaurant"},{"id":"node-6131595740","lat":25.09187,"lon":121.520793,"name":"維康藥局","decorType":"pharmacy"},{"id":"node-6199249864","lat":25.100944,"lon":121.522151,"name":"夏澎洗衣坊","decorType":"laundry"},{"id":"node-6304979559","lat":25.090971,"lon":121.518139,"name":"Ting屋食堂","decorType":"restaurant"},{"id":"node-6389111646","lat":25.088943,"lon":121.509998,"name":"全聯福利中心","decorType":"supermarket"},{"id":"node-6389111672","lat":25.088923,"lon":121.509518,"name":"花媽古早味剉冰","decorType":"restaurant"},{"id":"node-6389111674","lat":25.088921,"lon":121.509463,"name":"漾鍋","decorType":"restaurant"},{"id":"node-6389111675","lat":25.088928,"lon":121.509863,"name":"永和豆漿大王","decorType":"restaurant"},{"id":"node-6389111677","lat":25.088938,"lon":121.509765,"name":"稻之鄉清粥自助餐","decorType":"restaurant"},{"id":"node-7221781609","lat":25.095677,"lon":121.518576,"name":"士林分館臨時替代館","decorType":"library"},{"id":"node-7284500387","lat":25.08574,"lon":121.520331,"name":"未命名公園","decorType":"park"},{"id":"node-7775195758","lat":25.097969,"lon":121.514804,"name":"漢堡王","decorType":"burger"},{"id":"node-7775195759","lat":25.096635,"lon":121.514989,"name":"愛爾蘭瘋薯","decorType":"restaurant"},{"id":"node-7997277808","lat":25.093101,"lon":121.51422,"name":"士林監理站","decorType":"bus_stop"},{"id":"node-8117974017","lat":25.091794,"lon":121.521391,"name":"路易莎咖啡","decorType":"cafe"},{"id":"node-8305978133","lat":25.097103,"lon":121.521921,"name":"蚵仔之家","decorType":"restaurant"},{"id":"node-8385313514","lat":25.096747,"lon":121.521085,"name":"八方雲集","decorType":"burger"},{"id":"node-9081929574","lat":25.087004,"lon":121.518604,"name":"百齡國小","decorType":"bus_stop"},{"id":"node-9336756744","lat":25.088422,"lon":121.520752,"name":"牛坊牛肉麵","decorType":"restaurant"},{"id":"node-9336763210","lat":25.088998,"lon":121.518019,"name":"芝山岩牛肉麵","decorType":"restaurant"},{"id":"node-9336789813","lat":25.088937,"lon":121.518501,"name":"羊堡羊肉攤","decorType":"restaurant"},{"id":"node-9336810955","lat":25.088805,"lon":121.518635,"name":"大口吃炭火吐司","decorType":"restaurant"},{"id":"node-9345816146","lat":25.090007,"lon":121.510261,"name":"蝦皮店到店","decorType":"convenience"},{"id":"node-9391261125","lat":25.095073,"lon":121.521781,"name":"蝦皮店到店","decorType":"convenience"},{"id":"node-9491209681","lat":25.088492,"lon":121.520433,"name":"蝦皮店到店","decorType":"convenience"},{"id":"node-9520198452","lat":25.096245,"lon":121.516251,"name":"星巴克","decorType":"cafe"},{"id":"node-9520198458","lat":25.096296,"lon":121.516263,"name":"Pizza Cat","decorType":"restaurant"},{"id":"node-9520337790","lat":25.093071,"lon":121.51834,"name":"守仁堂","decorType":"pharmacy"},{"id":"node-9520337813","lat":25.094356,"lon":121.518949,"name":"將軍麵線","decorType":"restaurant"},{"id":"node-9520343639","lat":25.09356,"lon":121.519468,"name":"士林中正路郵局","decorType":"post_office"},{"id":"node-9520343698","lat":25.093711,"lon":121.518626,"name":"Intro","decorType":"restaurant"},{"id":"node-12458589014","lat":25.094056,"lon":121.520831,"name":"士林區行政中心 (中正)","decorType":"bus_stop"},{"id":"node-12790902301","lat":25.087616,"lon":121.51913,"name":"富玉莊旅館","decorType":"hotel"},{"id":"node-12958657782","lat":25.096793,"lon":121.521429,"name":"君帥理髮廳","decorType":"hair_salon"},{"id":"node-12958657783","lat":25.096747,"lon":121.521271,"name":"林家麵神館","decorType":"restaurant"},{"id":"node-13413775745","lat":25.09108,"lon":121.521391,"name":"萊爾富","decorType":"convenience"},{"id":"way-25976437","lat":25.089087,"lon":121.513727,"name":"百齡橋","decorType":"bridge"},{"id":"way-25976466","lat":25.09911,"lon":121.520725,"name":"文昌橋","decorType":"bridge"},{"id":"way-51903914","lat":25.089245,"lon":121.513654,"name":"百齡橋","decorType":"bridge"},{"id":"way-51903919","lat":25.08726,"lon":121.511025,"name":"中正路","decorType":"bridge"},{"id":"way-51903933","lat":25.08765,"lon":121.511215,"name":"百齡橋","decorType":"bridge"},{"id":"way-51903942","lat":25.087172,"lon":121.510502,"name":"重陽橋","decorType":"bridge"},{"id":"way-52344714","lat":25.098419,"lon":121.513183,"name":"雙溪橋","decorType":"bridge"},{"id":"way-52344715","lat":25.098355,"lon":121.513003,"name":"雙溪橋","decorType":"bridge"},{"id":"way-81460455","lat":25.095343,"lon":121.510707,"name":"後港一號橋","decorType":"bridge"},{"id":"way-81460458","lat":25.09561,"lon":121.510312,"name":"基隆河右岸自行車道","decorType":"bridge"},{"id":"way-81460690","lat":25.096032,"lon":121.510499,"name":"後港二號橋","decorType":"bridge"},{"id":"way-137324290","lat":25.090501,"lon":121.515489,"name":"百齡橋","decorType":"bridge"},{"id":"way-168955498","lat":25.097588,"lon":121.517452,"name":"美崙公園","decorType":"park"},{"id":"way-188005570","lat":25.090821,"lon":121.514928,"name":"百齡右岸越堤坡道","decorType":"bridge"},{"id":"way-264853186","lat":25.086857,"lon":121.511325,"name":"百齡橋","decorType":"bridge"},{"id":"way-296123001","lat":25.097232,"lon":121.515056,"name":"臺北兒童新樂園","decorType":"theme_park"},{"id":"way-299297074","lat":25.087693,"lon":121.510432,"name":"社正公園","decorType":"park"},{"id":"way-308419910","lat":25.091997,"lon":121.517588,"name":"未命名橋樑","decorType":"bridge"},{"id":"way-308419912","lat":25.091921,"lon":121.517472,"name":"未命名橋樑","decorType":"bridge"},{"id":"way-308419921","lat":25.091593,"lon":121.517741,"name":"未命名橋樑","decorType":"bridge"},{"id":"way-308419924","lat":25.091736,"lon":121.517959,"name":"未命名橋樑","decorType":"bridge"},{"id":"way-315852781","lat":25.095978,"lon":121.518542,"name":"臺北市立天文科學教育館","decorType":"art_gallery"},{"id":"way-327088319","lat":25.096127,"lon":121.516713,"name":"國立臺灣科學教育館","decorType":"art_gallery"},{"id":"way-363124306","lat":25.086168,"lon":121.518244,"name":"百齡智慧圖書館","decorType":"library"},{"id":"way-372270680","lat":25.099934,"lon":121.517496,"name":"雙溪線自行車道","decorType":"bridge"},{"id":"way-372270683","lat":25.100006,"lon":121.517514,"name":"建德橋","decorType":"bridge"},{"id":"way-374876195","lat":25.089304,"lon":121.513558,"name":"百齡橋自行車道","decorType":"bridge"},{"id":"way-374905366","lat":25.096598,"lon":121.512272,"name":"滯洪池","decorType":"waterside"},{"id":"way-376480823","lat":25.09805,"lon":121.515581,"name":"未命名橋樑","decorType":"bridge"},{"id":"way-377324644","lat":25.092977,"lon":121.520577,"name":"士林120號綠地","decorType":"park"},{"id":"way-377457825","lat":25.089421,"lon":121.521511,"name":"士林運動中心","decorType":"stadium"},{"id":"way-377457828","lat":25.089709,"lon":121.521978,"name":"承德公園","decorType":"park"},{"id":"way-382534914","lat":25.098142,"lon":121.513857,"name":"雙溪橋上游左岸越堤坡道","decorType":"bridge"},{"id":"way-427778338","lat":25.092461,"lon":121.519326,"name":"士林118號綠地","decorType":"park"},{"id":"way-444886267","lat":25.086851,"lon":121.509935,"name":"重陽橋","decorType":"bridge"},{"id":"way-449290031","lat":25.09281,"lon":121.517184,"name":"中庭花園","decorType":"park"},{"id":"way-449291237","lat":25.094024,"lon":121.515705,"name":"中央花園 (巧園)","decorType":"park"},{"id":"way-458218182","lat":25.087902,"lon":121.518869,"name":"福中公園","decorType":"park"},{"id":"way-501857532","lat":25.099178,"lon":121.520082,"name":"未命名橋樑","decorType":"bridge"},{"id":"way-501857534","lat":25.099124,"lon":121.520243,"name":"未命名橋樑","decorType":"bridge"},{"id":"way-502190379","lat":25.087347,"lon":121.518303,"name":"後港郵局","decorType":"post_office"},{"id":"way-502190649","lat":25.087105,"lon":121.519233,"name":"家樂福超市","decorType":"convenience"},{"id":"way-502197861","lat":25.092197,"lon":121.520133,"name":"特力屋","decorType":"supermarket"},{"id":"way-502223114","lat":25.097042,"lon":121.511999,"name":"雙溪濕地公園","decorType":"park"},{"id":"way-529287632","lat":25.097455,"lon":121.518231,"name":"數理主題區","decorType":"park"},{"id":"way-529298429","lat":25.097093,"lon":121.516042,"name":"飛天神奇號","decorType":"park"},{"id":"way-529298436","lat":25.097594,"lon":121.515742,"name":"尋寶船","decorType":"park"},{"id":"way-529298440","lat":25.097531,"lon":121.515634,"name":"夢想海","decorType":"waterside"},{"id":"way-529298447","lat":25.096643,"lon":121.514424,"name":"幸福踫踫車","decorType":"park"},{"id":"way-529298457","lat":25.097955,"lon":121.514812,"name":"銀河號","decorType":"station"},{"id":"way-529298458","lat":25.097644,"lon":121.51459,"name":"未命名橋樑","decorType":"bridge"},{"id":"way-549537071","lat":25.098662,"lon":121.519518,"name":"新佳公園","decorType":"park"},{"id":"way-549570619","lat":25.093321,"lon":121.514453,"name":"後港公園","decorType":"park"},{"id":"way-652245428","lat":25.100033,"lon":121.51176,"name":"未命名橋樑","decorType":"bridge"},{"id":"way-658689502","lat":25.089195,"lon":121.520352,"name":"見潭璞旅","decorType":"hotel"},{"id":"way-659653094","lat":25.097884,"lon":121.516772,"name":"未命名水邊","decorType":"waterside"},{"id":"way-732411486","lat":25.087637,"lon":121.51163,"name":"重慶北路四段","decorType":"bridge"},{"id":"way-772191743","lat":25.089167,"lon":121.513751,"name":"百齡橋","decorType":"bridge"},{"id":"way-778262181","lat":25.099713,"lon":121.519754,"name":"雙溪線自行車道","decorType":"bridge"},{"id":"way-780145028","lat":25.086344,"lon":121.520823,"name":"未命名公園","decorType":"park"},{"id":"way-783920080","lat":25.097353,"lon":121.518215,"name":"未命名公園","decorType":"park"},{"id":"way-783920088","lat":25.096809,"lon":121.51795,"name":"未命名公園","decorType":"park"},{"id":"way-787186853","lat":25.097866,"lon":121.510714,"name":"河雙21號河濱公園","decorType":"park"},{"id":"way-787186854","lat":25.098433,"lon":121.513284,"name":"未命名橋樑","decorType":"bridge"},{"id":"way-787186855","lat":25.098289,"lon":121.512906,"name":"未命名橋樑","decorType":"bridge"},{"id":"way-787951550","lat":25.088151,"lon":121.518915,"name":"未命名公園","decorType":"park"},{"id":"way-795041704","lat":25.099229,"lon":121.521425,"name":"未命名橋樑","decorType":"bridge"},{"id":"way-795041707","lat":25.099651,"lon":121.520288,"name":"未命名橋樑","decorType":"bridge"},{"id":"way-795041709","lat":25.09974,"lon":121.520134,"name":"未命名橋樑","decorType":"bridge"},{"id":"way-857811369","lat":25.093181,"lon":121.514354,"name":"未命名公園","decorType":"park"},{"id":"way-877511548","lat":25.087363,"lon":121.513126,"name":"未命名橋樑","decorType":"bridge"},{"id":"way-877511553","lat":25.090663,"lon":121.514836,"name":"百齡橋自行車道","decorType":"bridge"},{"id":"way-877511554","lat":25.088849,"lon":121.512051,"name":"百齡橋自行車道","decorType":"bridge"},{"id":"way-877511560","lat":25.088922,"lon":121.513663,"name":"未命名橋樑","decorType":"bridge"},{"id":"way-1004055363","lat":25.099121,"lon":121.5207,"name":"文昌橋","decorType":"bridge"},{"id":"way-1005116480","lat":25.098351,"lon":121.513098,"name":"雙溪橋","decorType":"bridge"},{"id":"way-1018287754","lat":25.098335,"lon":121.515201,"name":"未命名橋樑","decorType":"bridge"},{"id":"way-1018287755","lat":25.098333,"lon":121.51471,"name":"未命名橋樑","decorType":"bridge"},{"id":"way-1052397248","lat":25.09819,"lon":121.51541,"name":"未命名橋樑","decorType":"bridge"},{"id":"way-1052397249","lat":25.098011,"lon":121.515626,"name":"未命名橋樑","decorType":"bridge"},{"id":"way-1052397250","lat":25.098127,"lon":121.515581,"name":"未命名橋樑","decorType":"bridge"},{"id":"way-1068154434","lat":25.095678,"lon":121.510468,"name":"基隆河右岸自行車道","decorType":"bridge"},{"id":"way-1068154435","lat":25.094982,"lon":121.510965,"name":"後港一號橋","decorType":"bridge"},{"id":"way-1068154436","lat":25.096453,"lon":121.510593,"name":"後港二號橋","decorType":"bridge"},{"id":"way-1133685545","lat":25.099597,"lon":121.511461,"name":"五分港溪","decorType":"waterside"},{"id":"way-1133753241","lat":25.096884,"lon":121.512057,"name":"未命名水邊","decorType":"waterside"},{"id":"way-1133753242","lat":25.097244,"lon":121.512722,"name":"未命名水邊","decorType":"waterside"},{"id":"way-1133753246","lat":25.097222,"lon":121.511978,"name":"未命名水邊","decorType":"waterside"},{"id":"way-1133753248","lat":25.097345,"lon":121.512524,"name":"未命名橋樑","decorType":"bridge"},{"id":"way-1133753250","lat":25.096634,"lon":121.511483,"name":"未命名水邊","decorType":"waterside"},{"id":"way-1133753251","lat":25.09709,"lon":121.511385,"name":"未命名橋樑","decorType":"bridge"},{"id":"way-1133753253","lat":25.096947,"lon":121.511073,"name":"未命名橋樑","decorType":"bridge"},{"id":"way-1135879784","lat":25.09736,"lon":121.511437,"name":"未命名橋樑","decorType":"bridge"},{"id":"way-1135879785","lat":25.097358,"lon":121.511413,"name":"未命名橋樑","decorType":"bridge"},{"id":"way-1135879786","lat":25.097338,"lon":121.511419,"name":"未命名橋樑","decorType":"bridge"},{"id":"way-1135879787","lat":25.097232,"lon":121.512353,"name":"未命名橋樑","decorType":"bridge"},{"id":"way-1135879794","lat":25.096705,"lon":121.510744,"name":"未命名橋樑","decorType":"bridge"},{"id":"way-1135879795","lat":25.097199,"lon":121.511322,"name":"未命名橋樑","decorType":"bridge"},{"id":"way-1135879796","lat":25.096615,"lon":121.510625,"name":"未命名橋樑","decorType":"bridge"},{"id":"way-1177264091","lat":25.09768,"lon":121.511302,"name":"洲美便橋","decorType":"bridge"},{"id":"way-1299666382","lat":25.097228,"lon":121.51104,"name":"未命名橋樑","decorType":"bridge"},{"id":"way-1299666383","lat":25.097204,"lon":121.511022,"name":"未命名橋樑","decorType":"bridge"},{"id":"way-1323406667","lat":25.095922,"lon":121.510376,"name":"未命名水邊","decorType":"waterside"},{"id":"way-1324323655","lat":25.094356,"lon":121.513549,"name":"未命名公園","decorType":"park"},{"id":"way-1346846076","lat":25.097351,"lon":121.516006,"name":"未命名公園","decorType":"park"},{"id":"way-1347999064","lat":25.089618,"lon":121.514891,"name":"未命名公園","decorType":"park"},{"id":"way-1387417878","lat":25.093486,"lon":121.509911,"name":"水上小蟹公園","decorType":"park"},{"id":"way-1458080812","lat":25.100214,"lon":121.51287,"name":"北投259綠地","decorType":"park"}]}