{"bbox":{"south":25.085549999999998,"north":25.10115625,"west":121.47003124999999,"east":121.48306249999999},"pois":[{"id":"way-1228832810","lat":25.0855851,"lon":121.4731917,"name":"未命名公車站","decorType":"bus_stop"},{"id":"node-1846485904","lat":25.0859121,"lon":121.4725676,"name":"捷運三民高中站","decorType":"bus_stop"},{"id":"node-2608084898","lat":25.0856572,"lon":121.4735819,"name":"出口2 (復興路)","decorType":"station"},{"id":"node-2608084901","lat":25.0856805,"lon":121.472703,"name":"出口1 (三民路)","decorType":"station"},{"id":"node-2723557826","lat":25.0902428,"lon":121.4818594,"name":"7-Eleven","decorType":"convenience"},{"id":"node-2984526835","lat":25.0863083,"lon":121.4724393,"name":"三民高中","decorType":"bus_stop"},{"id":"node-2984526847","lat":25.0876077,"lon":121.4708157,"name":"空中大學","decorType":"bus_stop"},{"id":"node-3350300486","lat":25.091822,"lon":121.4723163,"name":"仁愛街口","decorType":"bus_stop"},{"id":"node-3350300487","lat":25.0918748,"lon":121.4720269,"name":"仁愛街口","decorType":"bus_stop"},{"id":"node-3350300490","lat":25.0918575,"lon":121.4739593,"name":"萊爾富","decorType":"convenience"},{"id":"node-3350300491","lat":25.0887665,"lon":121.4781823,"name":"復興路","decorType":"bus_stop"},{"id":"node-3350300492","lat":25.0888406,"lon":121.4780443,"name":"復興路","decorType":"bus_stop"},{"id":"node-3350300493","lat":25.0914082,"lon":121.4748586,"name":"民族民義街口","decorType":"bus_stop"},{"id":"node-3350300494","lat":25.0915148,"lon":121.4742592,"name":"民族民義街口","decorType":"bus_stop"},{"id":"node-3350300541","lat":25.0898814,"lon":121.4774529,"name":"樓厝一","decorType":"bus_stop"},{"id":"node-3350300555","lat":25.0914765,"lon":121.4747462,"name":"7-Eleven","decorType":"convenience"},{"id":"node-3634927078","lat":25.0868863,"lon":121.475701,"name":"7-Eleven","decorType":"convenience"},{"id":"node-3634931402","lat":25.0878028,"lon":121.4772291,"name":"全家便利商店","decorType":"convenience"},{"id":"node-3634931524","lat":25.0869984,"lon":121.4755045,"name":"85度C","decorType":"cafe"},{"id":"node-3724617689","lat":25.0860405,"lon":121.4738185,"name":"捷運三民高中站 (復興路)","decorType":"bus_stop"},{"id":"node-3724617690","lat":25.0865816,"lon":121.4750949,"name":"捷運三民高中站 (復興路)","decorType":"bus_stop"},{"id":"node-3724617693","lat":25.0902159,"lon":121.4772019,"name":"樓厝一","decorType":"bus_stop"},{"id":"node-3724617695","lat":25.0873008,"lon":121.4763434,"name":"民權路口","decorType":"bus_stop"},{"id":"node-3724617696","lat":25.0873492,"lon":121.4761312,"name":"民權路口","decorType":"bus_stop"},{"id":"node-3724617730","lat":25.0869483,"lon":121.4828418,"name":"集賢路","decorType":"bus_stop"},{"id":"node-3734714094","lat":25.0882499,"lon":121.4792705,"name":"佳佳幼稚園","decorType":"bus_stop"},{"id":"node-3734714095","lat":25.0882949,"lon":121.4794533,"name":"佳佳幼稚園","decorType":"bus_stop"},{"id":"node-3734714097","lat":25.0914624,"lon":121.4743473,"name":"85度C","decorType":"cafe"},{"id":"node-3734714100","lat":25.0879332,"lon":121.4773842,"name":"樓厝","decorType":"bus_stop"},{"id":"node-3734714101","lat":25.0861756,"lon":121.4796126,"name":"玉清宮","decorType":"bus_stop"},{"id":"node-3734714102","lat":25.0862226,"lon":121.4795017,"name":"玉清宮","decorType":"bus_stop"},{"id":"node-3735927527","lat":25.0906762,"lon":121.4761773,"name":"水河里","decorType":"bus_stop"},{"id":"node-4447258009","lat":25.0872312,"lon":121.4751634,"name":"全家便利商店","decorType":"convenience"},{"id":"node-4627436089","lat":25.0858805,"lon":121.4790786,"name":"三重知高飯","decorType":"restaurant"},{"id":"node-4662237890","lat":25.0873705,"lon":121.4814933,"name":"Breakfast Shop","decorType":"restaurant"},{"id":"node-4924079621","lat":25.093842,"lon":121.4713749,"name":"品萱美髮工作室","decorType":"hair_salon"},{"id":"node-5280999823","lat":25.0920351,"lon":121.472532,"name":"全家便利商店","decorType":"convenience"},{"id":"node-5280999825","lat":25.087372,"lon":121.4712017,"name":"星巴克","decorType":"cafe"},{"id":"node-5281018821","lat":25.0872241,"lon":121.471362,"name":"麥當勞","decorType":"burger"},{"id":"node-6010698985","lat":25.0876921,"lon":121.4775758,"name":"陳告生工坊","decorType":"restaurant"},{"id":"node-6013262085","lat":25.087088,"lon":121.4799785,"name":"洪記永和豆漿大王","decorType":"restaurant"},{"id":"node-6029905285","lat":25.0880753,"lon":121.4796233,"name":"7-Eleven","decorType":"convenience"},{"id":"node-6062813785","lat":25.0879642,"lon":121.4809826,"name":"7-Eleven","decorType":"convenience"},{"id":"node-6062826085","lat":25.0863085,"lon":121.482226,"name":"7-Eleven","decorType":"convenience"},{"id":"node-6124580387","lat":25.0859577,"lon":121.4738688,"name":"豪大大雞排","decorType":"restaurant"},{"id":"node-6909232025","lat":25.0898572,"lon":121.4705622,"name":"全聯福利中心","decorType":"supermarket"},{"id":"node-6909232026","lat":25.093224,"lon":121.4721447,"name":"美廉社","decorType":"supermarket"},{"id":"node-6909232027","lat":25.0937924,"lon":121.4716405,"name":"7-Eleven","decorType":"convenience"},{"id":"node-6909232028","lat":25.0938579,"lon":121.4713052,"name":"全家便利商店","decorType":"convenience"},{"id":"node-7191364601","lat":25.0859722,"lon":121.4795401,"name":"玉清宮","decorType":"shrine"},{"id":"node-7191364603","lat":25.0855574,"lon":121.4791265,"name":"康是美","decorType":"pharmacy"},{"id":"node-7191364606","lat":25.0863965,"lon":121.4798606,"name":"牛丁次郎坊","decorType":"restaurant"},{"id":"node-7191364607","lat":25.0867597,"lon":121.4799679,"name":"全家便利商店","decorType":"convenience"},{"id":"node-7191364608","lat":25.0857246,"lon":121.4790451,"name":"屈臣氏","decorType":"pharmacy"},{"id":"node-7191364609","lat":25.0864215,"lon":121.4795816,"name":"曼都髮型","decorType":"hair_salon"},{"id":"node-7191364610","lat":25.0865122,"lon":121.4798951,"name":"少點鹽健康餐盒專賣","decorType":"restaurant"},{"id":"node-7191364611","lat":25.0860501,"lon":121.479641,"name":"華信藥局","decorType":"pharmacy"},{"id":"node-7191634528","lat":25.086259,"lon":121.4794703,"name":"CoCo都可","decorType":"cafe"},{"id":"node-7191634529","lat":25.0857097,"lon":121.4788811,"name":"可不可熟成紅茶","decorType":"cafe"},{"id":"node-7191634531","lat":25.0864982,"lon":121.4782568,"name":"八方雲集","decorType":"burger"},{"id":"node-7191634532","lat":25.0870056,"lon":121.477884,"name":"7-Eleven","decorType":"convenience"},{"id":"node-7191634534","lat":25.0866698,"lon":121.4783649,"name":"名將三寶飯 - 信義店","decorType":"restaurant"},{"id":"node-7191634539","lat":25.0862739,"lon":121.4797879,"name":"車站腿庫飯","decorType":"restaurant"},{"id":"node-7192621277","lat":25.0872056,"lon":121.4814952,"name":"孫東寶","decorType":"restaurant"},{"id":"node-7192621283","lat":25.0871618,"lon":121.4814255,"name":"美廉社","decorType":"supermarket"},{"id":"node-7192621284","lat":25.0869598,"lon":121.481182,"name":"家樂福超市","decorType":"supermarket"},{"id":"node-7192629085","lat":25.0862558,"lon":121.4826379,"name":"鞋全家福","decorType":"clothing"},{"id":"node-7192629090","lat":25.0861051,"lon":121.4774639,"name":"蓮聖宮","decorType":"shrine"},{"id":"node-7192629091","lat":25.0861076,"lon":121.4778582,"name":"聖中宮","decorType":"shrine"},{"id":"node-7192629097","lat":25.0864987,"lon":121.4758572,"name":"全家便利商店","decorType":"convenience"},{"id":"node-7192846553","lat":25.0865324,"lon":121.4776497,"name":"無極太子道聖宮","decorType":"shrine"},{"id":"node-7192846582","lat":25.0868588,"lon":121.4711693,"name":"すき家","decorType":"burger"},{"id":"node-7192846583","lat":25.0872548,"lon":121.4707777,"name":"鴨霸切仔麵","decorType":"restaurant"},{"id":"node-7193346157","lat":25.0872422,"lon":121.479963,"name":"六合飯担","decorType":"restaurant"},{"id":"node-7193346159","lat":25.0873008,"lon":121.4799549,"name":"田原鍋","decorType":"restaurant"},{"id":"node-7193346160","lat":25.0875378,"lon":121.4799053,"name":"台灣大哥大","decorType":"electronics"},{"id":"node-7193346162","lat":25.0869457,"lon":121.479746,"name":"大苑子","decorType":"cafe"},{"id":"node-7193346163","lat":25.0875754,"lon":121.4798959,"name":"清心福全","decorType":"cafe"},{"id":"node-7193346164","lat":25.0870749,"lon":121.4797504,"name":"彩登造型","decorType":"hair_salon"},{"id":"node-7193346172","lat":25.0858605,"lon":121.4794637,"name":"美而美","decorType":"restaurant"},{"id":"node-7193346173","lat":25.0866437,"lon":121.4799392,"name":"小拍子茶飲製造所","decorType":"cafe"},{"id":"node-7193346174","lat":25.0855981,"lon":121.4786004,"name":"哈妮髮藝","decorType":"hair_salon"},{"id":"node-7193346179","lat":25.0858216,"lon":121.4765378,"name":"JSP 呷尚寶","decorType":"restaurant"},{"id":"node-7193346181","lat":25.0871115,"lon":121.475312,"name":"度特手做烘焙","decorType":"bakery"},{"id":"node-7193346182","lat":25.0871455,"lon":121.4752677,"name":"美味堡","decorType":"restaurant"},{"id":"node-7193346184","lat":25.0867447,"lon":121.4754273,"name":"八方雲集","decorType":"burger"},{"id":"node-7193377985","lat":25.087369,"lon":121.4749888,"name":"福安宮","decorType":"shrine"},{"id":"node-7195056319","lat":25.0880871,"lon":121.4793777,"name":"松展多利藥局","decorType":"pharmacy"},{"id":"node-7195056320","lat":25.0883201,"lon":121.4795132,"name":"歐維斯早餐店","decorType":"restaurant"},{"id":"node-7195056322","lat":25.0865784,"lon":121.4782069,"name":"神戶牛排","decorType":"restaurant"},{"id":"node-7195056324","lat":25.0865784,"lon":121.478392,"name":"日式威廉","decorType":"hair_salon"},{"id":"node-7255486186","lat":25.0899454,"lon":121.4713373,"name":"番茄村早午餐","decorType":"restaurant"},{"id":"node-7279631012","lat":25.088951,"lon":121.4784983,"name":"宏祐藥局","decorType":"pharmacy"},{"id":"node-7279631013","lat":25.0858239,"lon":121.4787365,"name":"施藥局","decorType":"pharmacy"},{"id":"node-7279631014","lat":25.0867925,"lon":121.4782735,"name":"新信義藥局","decorType":"pharmacy"},{"id":"node-7756187096","lat":25.0940571,"lon":121.4709082,"name":"豬母切仔麵","decorType":"restaurant"},{"id":"node-7820617683","lat":25.0918756,"lon":121.4728486,"name":"早點到","decorType":"restaurant"},{"id":"node-7820702194","lat":25.0913194,"lon":121.4750909,"name":"春福台菜","decorType":"restaurant"},{"id":"node-7820702200","lat":25.0923554,"lon":121.4724429,"name":"仁愛漢堡","decorType":"restaurant"},{"id":"node-7820702215","lat":25.0880546,"lon":121.4774922,"name":"小巧濃食坊","decorType":"restaurant"},{"id":"node-7820702231","lat":25.0911141,"lon":121.4756455,"name":"定江山和風料理","decorType":"restaurant"},{"id":"node-7820702239","lat":25.0912429,"lon":121.4748481,"name":"肉肉多涮涮鍋","decorType":"restaurant"},{"id":"node-7820702241","lat":25.0896348,"lon":121.4777543,"name":"晴光紅豆餅","decorType":"restaurant"},{"id":"node-7820702245","lat":25.0918161,"lon":121.4726535,"name":"臻真休閒廚房","decorType":"restaurant"},{"id":"node-7820702246","lat":25.0896627,"lon":121.478553,"name":"林記脆皮烤鴨","decorType":"restaurant"},{"id":"node-7820702249","lat":25.0920183,"lon":121.4733461,"name":"可獅切仔麵","decorType":"restaurant"},{"id":"node-7820702265","lat":25.0917366,"lon":121.4739443,"name":"炒不停","decorType":"restaurant"},{"id":"node-7820702272","lat":25.0912115,"lon":121.4749121,"name":"小六手工拉麵","decorType":"restaurant"},{"id":"node-7820702292","lat":25.0929632,"lon":121.4722525,"name":"老胡水餃麵店","decorType":"restaurant"},{"id":"node-7820702295","lat":25.0884931,"lon":121.4776122,"name":"現炸水晶排骨","decorType":"restaurant"},{"id":"node-7820702299","lat":25.0911801,"lon":121.474976,"name":"老農夫小火鍋","decorType":"restaurant"},{"id":"node-7820702300","lat":25.0913024,"lon":121.47517,"name":"巧比福健康早餐吧","decorType":"restaurant"},{"id":"node-7820702321","lat":25.0899633,"lon":121.4776611,"name":"王家古早味","decorType":"restaurant"},{"id":"node-7820702322","lat":25.0920323,"lon":121.4731362,"name":"義式廚房","decorType":"restaurant"},{"id":"node-7820702335","lat":25.0916358,"lon":121.4735855,"name":"超好吃東山鴨頭","decorType":"restaurant"},{"id":"node-7820702344","lat":25.0885623,"lon":121.4776806,"name":"品品早午餐","decorType":"restaurant"},{"id":"node-7820702352","lat":25.0898145,"lon":121.4787702,"name":"花蓮烤紫色蕃薯烤蕃薯","decorType":"restaurant"},{"id":"node-7820702353","lat":25.0911463,"lon":121.4755844,"name":"夏天小館泰式料理","decorType":"restaurant"},{"id":"node-7820702359","lat":25.091974,"lon":121.4735164,"name":"英廚","decorType":"restaurant"},{"id":"node-7820702360","lat":25.0918742,"lon":121.4730481,"name":"詹媽媽手工麵線","decorType":"restaurant"},{"id":"node-7820702366","lat":25.0925035,"lon":121.4725475,"name":"祥意牛肉麵餃子館","decorType":"restaurant"},{"id":"node-7820702369","lat":25.09099,"lon":121.474115,"name":"八方雲集","decorType":"burger"},{"id":"node-7820702371","lat":25.093477,"lon":121.471822,"name":"美味漢堡","decorType":"restaurant"},{"id":"node-7820702375","lat":25.0919722,"lon":121.4726588,"name":"碳烤鹹酥雞","decorType":"restaurant"},{"id":"node-7820702379","lat":25.0918704,"lon":121.4731119,"name":"松三町","decorType":"restaurant"},{"id":"node-7820702382","lat":25.0913057,"lon":121.4747202,"name":"滿面春風自助餐","decorType":"restaurant"},{"id":"node-7820702393","lat":25.0917104,"lon":121.4736304,"name":"日久阿囉哈漢堡","decorType":"restaurant"},{"id":"node-7820702403","lat":25.0912696,"lon":121.4752344,"name":"樂多日式涮涮鍋","decorType":"restaurant"},{"id":"node-7820702407","lat":25.0897702,"lon":121.4779066,"name":"銓麥美而美","decorType":"restaurant"},{"id":"node-7820702410","lat":25.0912198,"lon":121.4741173,"name":"張家嘉義雞肉飯","decorType":"restaurant"},{"id":"node-7820702418","lat":25.0912743,"lon":121.4747842,"name":"實價便當","decorType":"restaurant"},{"id":"node-7820702424","lat":25.0933218,"lon":121.4719859,"name":"弘爺漢堡","decorType":"burger"},{"id":"node-7820702425","lat":25.0919734,"lon":121.4734748,"name":"素食麵店","decorType":"restaurant"},{"id":"node-7820702428","lat":25.0890141,"lon":121.478205,"name":"蘆洲306炒飯炒麵","decorType":"restaurant"},{"id":"node-7820702433","lat":25.0910254,"lon":121.475848,"name":"阿妙平價生猛海鮮","decorType":"restaurant"},{"id":"node-7820702439","lat":25.0909016,"lon":121.4740998,"name":"吉野烤肉飯","decorType":"restaurant"},{"id":"node-7820702461","lat":25.0917032,"lon":121.4742701,"name":"豐原排骨麵","decorType":"restaurant"},{"id":"node-7820702463","lat":25.0900295,"lon":121.4776142,"name":"早安宇宙人-地球本部","decorType":"restaurant"},{"id":"node-7820702466","lat":25.0925802,"lon":121.4724602,"name":"錢老爺涮涮鍋","decorType":"restaurant"},{"id":"node-7820702474","lat":25.089854,"lon":121.4777892,"name":"丼食堂","decorType":"restaurant"},{"id":"node-7820702478","lat":25.0936617,"lon":121.4715485,"name":"咕咕米","decorType":"restaurant"},{"id":"node-7820702481","lat":25.0881791,"lon":121.4775941,"name":"FunFood","decorType":"restaurant"},{"id":"node-7820702487","lat":25.0924495,"lon":121.4725428,"name":"炸王鹹酥雞","decorType":"restaurant"},{"id":"node-7820702490","lat":25.0913771,"lon":121.4750379,"name":"樂錢嘟日式涮涮鍋","decorType":"restaurant"},{"id":"node-7820702496","lat":25.091719,"lon":121.4734346,"name":"吉客屋","decorType":"restaurant"},{"id":"node-7820702508","lat":25.0895576,"lon":121.4798699,"name":"青豐園雞肉飯","decorType":"restaurant"},{"id":"node-7820702520","lat":25.0890651,"lon":121.4781909,"name":"小邱豬腸冬粉","decorType":"restaurant"},{"id":"node-7820702524","lat":25.0879502,"lon":121.4773782,"name":"基隆傳家寶營養三明治","decorType":"restaurant"},{"id":"node-7820702539","lat":25.0939476,"lon":121.473609,"name":"許~烏醋麵","decorType":"restaurant"},{"id":"node-7984643957","lat":25.087545,"lon":121.4764512,"name":"三媽臭臭鍋","decorType":"restaurant"},{"id":"node-8118206940","lat":25.0888346,"lon":121.4731871,"name":"7-Eleven","decorType":"convenience"},{"id":"node-8118272795","lat":25.0937948,"lon":121.4738694,"name":"全家便利商店","decorType":"convenience"},{"id":"node-8118272796","lat":25.0897827,"lon":121.4730733,"name":"全家便利商店","decorType":"convenience"},{"id":"node-8118272797","lat":25.0880857,"lon":121.471685,"name":"全家便利商店","decorType":"convenience"},{"id":"node-8118272799","lat":25.0876185,"lon":121.4819798,"name":"全家便利商店","decorType":"convenience"},{"id":"node-8267397425","lat":25.0888181,"lon":121.4714657,"name":"墨爾漢堡","decorType":"restaurant"},{"id":"node-8267397426","lat":25.0893244,"lon":121.4724305,"name":"日日香","decorType":"restaurant"},{"id":"node-8267397427","lat":25.0875731,"lon":121.4747289,"name":"YT House 早午餐","decorType":"restaurant"},{"id":"node-8267397428","lat":25.0886317,"lon":121.4729199,"name":"Go巴豆","decorType":"restaurant"},{"id":"node-8267397429","lat":25.0872763,"lon":121.477705,"name":"無刺虱目魚專賣店","decorType":"restaurant"},{"id":"node-8267397430","lat":25.0874994,"lon":121.4767999,"name":"掬壽司","decorType":"restaurant"},{"id":"node-8267397431","lat":25.0882173,"lon":121.4718107,"name":"佳味仙鍋燒麵","decorType":"restaurant"},{"id":"node-8267397432","lat":25.0873872,"lon":121.4766257,"name":"麥香美而美","decorType":"restaurant"},{"id":"node-8267397433","lat":25.0872231,"lon":121.4777852,"name":"花媽米粉湯","decorType":"restaurant"},{"id":"node-8267397434","lat":25.0874333,"lon":121.4778338,"name":"信義豆漿小籠包","decorType":"restaurant"},{"id":"node-8267397435","lat":25.0870764,"lon":121.4721062,"name":"breakfast Holic 早餐控","decorType":"restaurant"},{"id":"node-8267397436","lat":25.0873634,"lon":121.477849,"name":"林家排骨酥麵","decorType":"restaurant"},{"id":"node-8267397437","lat":25.0885938,"lon":121.4732203,"name":"早安美芝城","decorType":"burger"},{"id":"node-8267397438","lat":25.0877139,"lon":121.4750242,"name":"和尚洲切仔麵","decorType":"restaurant"},{"id":"node-8267397439","lat":25.0876857,"lon":121.4770844,"name":"早安美芝城","decorType":"burger"},{"id":"node-8267397440","lat":25.0876149,"lon":121.4774023,"name":"九兩雞排王","decorType":"restaurant"},{"id":"node-8267397441","lat":25.0868609,"lon":121.4718834,"name":"七巧板麵食文化館","decorType":"restaurant"},{"id":"node-8267397442","lat":25.0873478,"lon":121.4765283,"name":"吉祥早餐店","decorType":"restaurant"},{"id":"node-8267397443","lat":25.0878256,"lon":121.4774353,"name":"蘆洲手工小籠包","decorType":"restaurant"},{"id":"node-8267397444","lat":25.0877888,"lon":121.4774776,"name":"ZG炸雞 @Zar Gie","decorType":"restaurant"},{"id":"node-8267397445","lat":25.0865417,"lon":121.471787,"name":"老麵饅頭 麥釀","decorType":"restaurant"},{"id":"node-8267397446","lat":25.0880086,"lon":121.4717765,"name":"蛋餅焦了Brunch x Coffee","decorType":"restaurant"},{"id":"node-8267397447","lat":25.0892038,"lon":121.4718633,"name":"田川町串燒居酒屋","decorType":"restaurant"},{"id":"node-8267397448","lat":25.0890996,"lon":121.4727656,"name":"有義式","decorType":"restaurant"},{"id":"node-8267397449","lat":25.0868989,"lon":121.4782556,"name":"橘子可麗餅","decorType":"restaurant"},{"id":"node-8267397450","lat":25.0892035,"lon":121.4722565,"name":"巨林美而美","decorType":"burger"},{"id":"node-8267397451","lat":25.0884454,"lon":121.4737099,"name":"芯麵食","decorType":"restaurant"},{"id":"node-8267397453","lat":25.087498,"lon":121.4728458,"name":"貝爾納早午餐","decorType":"restaurant"},{"id":"node-8267397454","lat":25.0882285,"lon":121.4739668,"name":"吉堡複合式餐飲店","decorType":"restaurant"},{"id":"node-8267397455","lat":25.0879849,"lon":121.4720165,"name":"城市漢堡","decorType":"restaurant"},{"id":"node-8267397456","lat":25.0874675,"lon":121.4775354,"name":"金川精緻自助餐","decorType":"restaurant"},{"id":"node-8267397457","lat":25.0887017,"lon":121.4716093,"name":"家常大滷麵","decorType":"restaurant"},{"id":"node-8267397458","lat":25.0876913,"lon":121.476797,"name":"家味甜不辣、肉圓","decorType":"restaurant"},{"id":"node-8267397459","lat":25.0887024,"lon":121.4733724,"name":"新酒國熱炒","decorType":"restaurant"},{"id":"node-8267397460","lat":25.0870649,"lon":121.4719976,"name":"鏊屋","decorType":"restaurant"},{"id":"node-8267397461","lat":25.0893056,"lon":121.4724686,"name":"牛肉拉麵","decorType":"restaurant"},{"id":"node-8267397462","lat":25.0886449,"lon":121.4731601,"name":"正大永和豆漿","decorType":"restaurant"},{"id":"node-8385313582","lat":25.0871147,"lon":121.4812756,"name":"八方雲集","decorType":"burger"},{"id":"node-8432400623","lat":25.092278,"lon":121.472576,"name":"仁愛街口","decorType":"bus_stop"},{"id":"node-8432400624","lat":25.092135,"lon":121.472546,"name":"仁愛街口","decorType":"bus_stop"},{"id":"node-8432401056","lat":25.094026,"lon":121.47105,"name":"仁愛街93巷口","decorType":"bus_stop"},{"id":"node-8432401057","lat":25.094088,"lon":121.4705726,"name":"仁愛街101巷口","decorType":"bus_stop"},{"id":"node-9342491845","lat":25.0878462,"lon":121.4795228,"name":"蝦皮店到店","decorType":"convenience"},{"id":"node-9342491852","lat":25.0909085,"lon":121.4716777,"name":"蝦皮店到店","decorType":"convenience"},{"id":"node-9443682306","lat":25.0858024,"lon":121.4818083,"name":"La New","decorType":"clothing"},{"id":"node-9443935733","lat":25.086699,"lon":121.4799547,"name":"50嵐","decorType":"cafe"},{"id":"node-9443935734","lat":25.0864486,"lon":121.4798774,"name":"潮味決","decorType":"restaurant"},{"id":"node-9443935735","lat":25.0865692,"lon":121.4796542,"name":"路歐利","decorType":"bakery"},{"id":"node-9443935736","lat":25.0857354,"lon":121.4793062,"name":"港式脆皮臭豆腐","decorType":"restaurant"},{"id":"node-9444013256","lat":25.0913888,"lon":121.4749436,"name":"CoCo都可","decorType":"cafe"},{"id":"node-9444013308","lat":25.0909868,"lon":121.4759146,"name":"萊爾富","decorType":"convenience"},{"id":"node-9444013309","lat":25.0906084,"lon":121.4762244,"name":"大樹藥局","decorType":"pharmacy"},{"id":"node-9444013312","lat":25.0902629,"lon":121.4768077,"name":"全家便利商店","decorType":"convenience"},{"id":"node-9444013313","lat":25.090388,"lon":121.4770022,"name":"7-Eleven","decorType":"convenience"},{"id":"node-9444015930","lat":25.0895706,"lon":121.4777975,"name":"美廉社","decorType":"supermarket"},{"id":"node-9444373344","lat":25.0919766,"lon":121.4734322,"name":"美廉社","decorType":"supermarket"},{"id":"node-9672098458","lat":25.0856167,"lon":121.4791746,"name":"大茂五金行","decorType":"hardware"},{"id":"node-9672098459","lat":25.0856434,"lon":121.4792051,"name":"大佳原汁牛肉麵","decorType":"restaurant"},{"id":"node-9672098460","lat":25.0857051,"lon":121.4792754,"name":"彌勒素食","decorType":"restaurant"},{"id":"node-9672098461","lat":25.0858227,"lon":121.4794095,"name":"制服運動服專賣店","decorType":"clothing"},{"id":"node-9672098462","lat":25.086001,"lon":121.4796054,"name":"甲品香雞肉飯","decorType":"restaurant"},{"id":"node-9672098463","lat":25.0862296,"lon":121.4797567,"name":"日式威廉","decorType":"hair_salon"},{"id":"node-9672098465","lat":25.0860964,"lon":121.4796704,"name":"手機店","decorType":"electronics"},{"id":"node-9672098473","lat":25.0855738,"lon":121.4802199,"name":"豆之府","decorType":"restaurant"},{"id":"node-9672098475","lat":25.0867843,"lon":121.4801116,"name":"翔念電料","decorType":"electronics"},{"id":"node-9672098476","lat":25.0867914,"lon":121.4802462,"name":"中興號雞肉飯便當","decorType":"restaurant"},{"id":"node-9672098477","lat":25.086792,"lon":121.4803126,"name":"玉皇珍鴨肉","decorType":"restaurant"},{"id":"node-9672098480","lat":25.0867999,"lon":121.4805104,"name":"家庭五金","decorType":"hardware"},{"id":"node-9672098481","lat":25.0868096,"lon":121.480573,"name":"林內 Rinnai","decorType":"electronics"},{"id":"node-9674433088","lat":25.0869701,"lon":121.4800487,"name":"儷髮院","decorType":"hair_salon"},{"id":"node-9674433091","lat":25.0869846,"lon":121.480359,"name":"玖八牛排","decorType":"restaurant"},{"id":"node-9674433092","lat":25.0869396,"lon":121.4805868,"name":"呷尚寶","decorType":"burger"},{"id":"node-9682743650","lat":25.0877812,"lon":121.4795604,"name":"歐米樂烘焙坊","decorType":"bakery"},{"id":"node-9682743651","lat":25.0879959,"lon":121.4794414,"name":"巨林美而美","decorType":"burger"},{"id":"node-9682743654","lat":25.0867887,"lon":121.4797275,"name":"捌食貳","decorType":"restaurant"},{"id":"node-9682743655","lat":25.0867386,"lon":121.4797087,"name":"傑昇通信","decorType":"electronics"},{"id":"node-9682743656","lat":25.0866661,"lon":121.4797873,"name":"魔法義大利","decorType":"restaurant"},{"id":"node-9682743657","lat":25.0865056,"lon":121.4796239,"name":"Panasonic","decorType":"electronics"},{"id":"node-9682743658","lat":25.0864649,"lon":121.4796093,"name":"聲寶","decorType":"electronics"},{"id":"node-9682743659","lat":25.0862776,"lon":121.4796101,"name":"弘昌牛肉麵","decorType":"restaurant"},{"id":"node-9689133564","lat":25.0861035,"lon":121.4793329,"name":"喜芝梅名品","decorType":"clothing"},{"id":"node-9689133565","lat":25.0860648,"lon":121.4792826,"name":"品沅燒臘","decorType":"restaurant"},{"id":"node-9689133567","lat":25.0859947,"lon":121.4791964,"name":"Oppo","decorType":"electronics"},{"id":"node-9689133568","lat":25.0858518,"lon":121.4790493,"name":"享烤串燒","decorType":"restaurant"},{"id":"node-9689133569","lat":25.0858203,"lon":121.4790012,"name":"東翔港式燒臘","decorType":"restaurant"},{"id":"node-9689133570","lat":25.0857553,"lon":121.4789396,"name":"精緻快剪","decorType":"hair_salon"},{"id":"node-9689133571","lat":25.0862267,"lon":121.47923,"name":"玄德宮","decorType":"shrine"},{"id":"node-9781525035","lat":25.0911393,"lon":121.4742904,"name":"蝦皮店到店","decorType":"convenience"},{"id":"node-11202037329","lat":25.0941119,"lon":121.4739731,"name":"清海宮","decorType":"shrine"},{"id":"node-11336260488","lat":25.0891447,"lon":121.4802718,"name":"妙天宮","decorType":"shrine"},{"id":"node-13423799001","lat":25.0936512,"lon":121.4701206,"name":"萊爾富","decorType":"convenience"},{"id":"way-425758291","lat":25.0911316,"lon":121.4794916,"name":"蘆洲護天宮地母廟","decorType":"shrine"},{"id":"way-447628457","lat":25.0861223,"lon":121.4729199,"name":"九如園","decorType":"park"},{"id":"way-499641147","lat":25.0957365,"lon":121.471048,"name":"未命名橋樑","decorType":"bridge"},{"id":"way-548732928","lat":25.0905144,"lon":121.4708978,"name":"仁愛廣場公園","decorType":"park"},{"id":"way-689393529","lat":25.096979,"lon":121.4788633,"name":"未命名水邊","decorType":"waterside"},{"id":"way-700864595","lat":25.089024,"lon":121.4757279,"name":"蘆洲兒四公園","decorType":"park"},{"id":"way-729334913","lat":25.0887737,"lon":121.4809725,"name":"未命名公園","decorType":"park"},{"id":"way-763106199","lat":25.0858914,"lon":121.4776248,"name":"未命名公園","decorType":"park"},{"id":"way-836631436","lat":25.0886721,"lon":121.4702019,"name":"林建生紀念圖書館","decorType":"library"},{"id":"way-941726593","lat":25.0926596,"lon":121.4803664,"name":"未命名森林","decorType":"forest"},{"id":"way-941726594","lat":25.0930788,"lon":121.4787805,"name":"未命名森林","decorType":"forest"},{"id":"way-1059614314","lat":25.0881446,"lon":121.4820194,"name":"未命名神社","decorType":"shrine"}]}