{"bbox":{"south":25.08555,"north":25.101156,"west":121.613375,"east":121.626406},"pois":[{"id":"way-1443855402","lat":25.085942,"lon":121.624688,"name":"內溝溪","decorType":"waterside"},{"id":"way-430668504","lat":25.090408,"lon":121.616859,"name":"未命名水邊","decorType":"waterside"},{"id":"way-635094916","lat":25.085791,"lon":121.613382,"name":"安泰溪","decorType":"waterside"},{"id":"node-2482646480","lat":25.095903,"lon":121.626161,"name":"老鷲尖","decorType":"mountain"},{"id":"node-2482646515","lat":25.086974,"lon":121.617356,"name":"柿子山","decorType":"mountain"},{"id":"node-2482646686","lat":25.098362,"lon":121.621558,"name":"水尾潭山","decorType":"mountain"},{"id":"node-4420097391","lat":25.086256,"lon":121.613816,"name":"聖明宮","decorType":"shrine"},{"id":"node-5410118699","lat":25.09159,"lon":121.620775,"name":"奇頭","decorType":"bus_stop"},{"id":"node-5410118700","lat":25.091642,"lon":121.620594,"name":"奇頭","decorType":"bus_stop"},{"id":"node-5410118701","lat":25.094953,"lon":121.617042,"name":"內溝","decorType":"bus_stop"},{"id":"node-5644867833","lat":25.087118,"lon":121.620856,"name":"青山映雅廟","decorType":"shrine"},{"id":"node-13316121453","lat":25.091974,"lon":121.615974,"name":"未命名山丘","decorType":"mountain"},{"id":"way-420434151","lat":25.087224,"lon":121.622702,"name":"未命名橋樑","decorType":"bridge"},{"id":"way-420434156","lat":25.088603,"lon":121.623044,"name":"明舉橋","decorType":"bridge"},{"id":"way-421735089","lat":25.089627,"lon":121.622332,"name":"北天宮","decorType":"shrine"},{"id":"way-421735090","lat":25.089968,"lon":121.622343,"name":"竹夢園","decorType":"park"},{"id":"way-421736225","lat":25.086998,"lon":121.623201,"name":"福祿宮","decorType":"shrine"},{"id":"way-421736228","lat":25.086815,"lon":121.618272,"name":"三教山","decorType":"shrine"},{"id":"way-430668165","lat":25.08765,"lon":121.622165,"name":"未命名水邊","decorType":"waterside"},{"id":"way-430668167","lat":25.091697,"lon":121.620807,"name":"土地公廟","decorType":"shrine"},{"id":"way-430668168","lat":25.09564,"lon":121.6169,"name":"土地公廟","decorType":"shrine"},{"id":"way-430668173","lat":25.092536,"lon":121.619263,"name":"內溝溪","decorType":"waterside"},{"id":"way-430668174","lat":25.096811,"lon":121.616119,"name":"未命名水邊","decorType":"waterside"},{"id":"way-430668511","lat":25.08647,"lon":121.623683,"name":"籃球場","decorType":"park"},{"id":"way-442759862","lat":25.087153,"lon":121.622747,"name":"山主祠","decorType":"shrine"},{"id":"way-442759865","lat":25.08596,"lon":121.614144,"name":"慶福祠","decorType":"shrine"},{"id":"way-442759867","lat":25.089385,"lon":121.621086,"name":"明眉橋","decorType":"bridge"},{"id":"way-442759868","lat":25.087155,"lon":121.621065,"name":"靜修洞","decorType":"shrine"},{"id":"way-446402801","lat":25.087099,"lon":121.623359,"name":"明山橋","decorType":"bridge"},{"id":"way-446402808","lat":25.086627,"lon":121.624971,"name":"未命名橋樑","decorType":"bridge"},{"id":"way-514091088","lat":25.08696,"lon":121.617993,"name":"清靈宮","decorType":"shrine"},{"id":"way-520206494","lat":25.08576,"lon":121.613576,"name":"水源頭福德宮","decorType":"shrine"},{"id":"way-633854941","lat":25.08768,"lon":121.6217,"name":"未命名水邊","decorType":"waterside"},{"id":"way-773675407","lat":25.085795,"lon":121.613596,"name":"康樂山親山步道","decorType":"bridge"},{"id":"way-773675415","lat":25.08941,"lon":121.615574,"name":"未命名橋樑","decorType":"bridge"},{"id":"way-1443855365","lat":25.098068,"lon":121.615631,"name":"未命名水邊","decorType":"waterside"},{"id":"way-1443855366","lat":25.097787,"lon":121.615787,"name":"未命名水邊","decorType":"waterside"},{"id":"way-1443855368","lat":25.096838,"lon":121.61472,"name":"內溝溪","decorType":"waterside"},{"id":"way-1443855369","lat":25.096242,"lon":121.615722,"name":"內溝溪","decorType":"waterside"},{"id":"way-1443855370","lat":25.09565,"lon":121.616754,"name":"內溝溪","decorType":"waterside"},{"id":"way-1443855371","lat":25.094996,"lon":121.617296,"name":"內溝溪","decorType":"waterside"},{"id":"way-1443855372","lat":25.094347,"lon":121.617704,"name":"內溝溪","decorType":"waterside"},{"id":"way-1443855400","lat":25.08892,"lon":121.622152,"name":"內溝溪","decorType":"waterside"},{"id":"way-1443855401","lat":25.087076,"lon":121.623452,"name":"內溝溪","decorType":"waterside"}]}