{"bbox":{"south":25.085549999999998,"north":25.10115625,"west":121.509125,"east":121.52215625},"pois":[{"id":"way-51903923","lat":25.0858567,"lon":121.510862,"name":"未命名橋樑","decorType":"bridge"},{"id":"way-210340847","lat":25.0937607,"lon":121.5163635,"name":"基隆河","decorType":"waterside"},{"id":"way-259080206","lat":25.085783,"lon":121.5203858,"name":"前港公園","decorType":"park"},{"id":"way-596364977","lat":25.0872651,"lon":121.5155093,"name":"百齡右岸河濱公園","decorType":"park"},{"id":"way-444886268","lat":25.086864,"lon":121.5095741,"name":"重陽橋","decorType":"bridge"},{"id":"way-1124359832","lat":25.0922072,"lon":121.5107195,"name":"未命名水邊","decorType":"waterside"},{"id":"node-2687908420","lat":25.0938503,"lon":121.5205091,"name":"士林區行政中心 (中正)","decorType":"bus_stop"},{"id":"node-2687908421","lat":25.0929789,"lon":121.5196601,"name":"士林區行政中心 (中正)","decorType":"bus_stop"},{"id":"node-2687908875","lat":25.0904853,"lon":121.5220278,"name":"公教住宅","decorType":"bus_stop"},{"id":"node-2687908876","lat":25.090684,"lon":121.5221234,"name":"公教住宅","decorType":"bus_stop"},{"id":"node-2700735729","lat":25.092199,"lon":121.5178923,"name":"陽明高中","decorType":"bus_stop"},{"id":"node-2700735730","lat":25.0911849,"lon":121.5170179,"name":"陽明高中","decorType":"bus_stop"},{"id":"node-2700740032","lat":25.0859896,"lon":121.509542,"name":"葫蘆寺","decorType":"bus_stop"},{"id":"node-2705036866","lat":25.0875402,"lon":121.5091487,"name":"社子市場","decorType":"bus_stop"},{"id":"node-2705036868","lat":25.0888408,"lon":121.5099189,"name":"社正路","decorType":"bus_stop"},{"id":"node-2705036869","lat":25.0905937,"lon":121.5095566,"name":"國泰人壽大樓","decorType":"bus_stop"},{"id":"node-3109562212","lat":25.0955544,"lon":121.5212861,"name":"新光醫院","decorType":"bus_stop"},{"id":"node-3109562213","lat":25.0955739,"lon":121.5214899,"name":"新光醫院","decorType":"bus_stop"},{"id":"node-3188478996","lat":25.0953117,"lon":121.5175914,"name":"國立科教館","decorType":"bus_stop"},{"id":"node-3188478997","lat":25.0953805,"lon":121.5172833,"name":"國立科教館","decorType":"bus_stop"},{"id":"node-3188478998","lat":25.0926277,"lon":121.5204332,"name":"士林區行政中心(基河)","decorType":"bus_stop"},{"id":"node-3188478999","lat":25.0928317,"lon":121.5205046,"name":"士林區行政中心(基河)","decorType":"bus_stop"},{"id":"node-3188479000","lat":25.0947907,"lon":121.5185922,"name":"天文科學館","decorType":"bus_stop"},{"id":"node-3188479001","lat":25.0942939,"lon":121.5170119,"name":"士林高商","decorType":"bus_stop"},{"id":"node-3188479002","lat":25.0944153,"lon":121.5170643,"name":"士林高商","decorType":"bus_stop"},{"id":"node-3188479006","lat":25.0954218,"lon":121.5182852,"name":"天文科學館","decorType":"bus_stop"},{"id":"node-3673618204","lat":25.0950992,"lon":121.5141139,"name":"士林監理站","decorType":"bus_stop"},{"id":"node-3673618205","lat":25.0952873,"lon":121.5145658,"name":"士林監理站","decorType":"bus_stop"},{"id":"node-3744263727","lat":25.0909613,"lon":121.5200135,"name":"士商路","decorType":"bus_stop"},{"id":"node-3744263729","lat":25.0885018,"lon":121.5215791,"name":"大南路口","decorType":"bus_stop"},{"id":"node-3744263730","lat":25.0898472,"lon":121.5177808,"name":"福港街","decorType":"bus_stop"},{"id":"node-3744263731","lat":25.0902857,"lon":121.5177135,"name":"福港街","decorType":"bus_stop"},{"id":"node-3744263732","lat":25.0913174,"lon":121.5180279,"name":"福港街","decorType":"bus_stop"},{"id":"node-3763972448","lat":25.096351,"lon":121.516342,"name":"摩斯漢堡","decorType":"burger"},{"id":"node-3835833940","lat":25.089107,"lon":121.5181801,"name":"後港里","decorType":"bus_stop"},{"id":"node-3835834095","lat":25.086598,"lon":121.5195269,"name":"前港公園","decorType":"bus_stop"},{"id":"node-3835834464","lat":25.0895725,"lon":121.5184111,"name":"後港里","decorType":"bus_stop"},{"id":"node-3835834767","lat":25.0877895,"lon":121.520874,"name":"武聖宮","decorType":"shrine"},{"id":"node-3835835003","lat":25.0866263,"lon":121.5194071,"name":"前港公園","decorType":"bus_stop"},{"id":"node-3835835006","lat":25.0884008,"lon":121.5209461,"name":"全家便利商店","decorType":"convenience"},{"id":"node-3835835209","lat":25.0872032,"lon":121.5177581,"name":"百齡國小","decorType":"bus_stop"},{"id":"node-3835835528","lat":25.0856962,"lon":121.5215557,"name":"7-Eleven","decorType":"convenience"},{"id":"node-3857683726","lat":25.0935101,"lon":121.5205598,"name":"DBS大尺碼生活館","decorType":"clothing"},{"id":"node-4144034489","lat":25.0912209,"lon":121.5175145,"name":"coffee stand","decorType":"cafe"},{"id":"node-4375871111","lat":25.096209,"lon":121.5152593,"name":"兒童新樂園","decorType":"bus_stop"},{"id":"node-4375871112","lat":25.0963364,"lon":121.5146914,"name":"兒童新樂園","decorType":"bus_stop"},{"id":"node-4410824047","lat":25.0888264,"lon":121.5218613,"name":"未命名超市","decorType":"supermarket"},{"id":"node-4460110820","lat":25.0879621,"lon":121.5207774,"name":"未命名餐廳","decorType":"restaurant"},{"id":"node-4462659061","lat":25.0947133,"lon":121.5151033,"name":"地中海餐廳","decorType":"restaurant"},{"id":"node-4483312892","lat":25.0962915,"lon":121.5163602,"name":"響敘","decorType":"restaurant"},{"id":"node-4547470789","lat":25.0889219,"lon":121.5095831,"name":"貝思提","decorType":"cafe"},{"id":"node-4676247892","lat":25.0870773,"lon":121.5097557,"name":"良記福臨魯肉飯","decorType":"restaurant"},{"id":"node-4679440000","lat":25.094785,"lon":121.5184076,"name":"7-Eleven","decorType":"convenience"},{"id":"node-4679455798","lat":25.0971644,"lon":121.5193264,"name":"文昌小吃","decorType":"restaurant"},{"id":"node-4782154746","lat":25.0863985,"lon":121.5094007,"name":"路易莎咖啡","decorType":"cafe"},{"id":"node-4782156208","lat":25.0870231,"lon":121.5093506,"name":"屈臣氏","decorType":"pharmacy"},{"id":"node-4782159709","lat":25.0856215,"lon":121.5094525,"name":"全家便利商店","decorType":"convenience"},{"id":"node-4783921221","lat":25.0857592,"lon":121.5096531,"name":"粥師傅廣東粥","decorType":"restaurant"},{"id":"node-4927508385","lat":25.0873152,"lon":121.5180681,"name":"後港代辦民眾閱覽室","decorType":"library"},{"id":"node-5182136401","lat":25.0943503,"lon":121.5211679,"name":"儂特利 Lotteria","decorType":"burger"},{"id":"node-5182136403","lat":25.0946165,"lon":121.5221099,"name":"豚將日本拉麵","decorType":"restaurant"},{"id":"node-5182136405","lat":25.094178,"lon":121.5218673,"name":"基督教拿撒勒人會士林教會","decorType":"shrine"},{"id":"node-5248371924","lat":25.0970637,"lon":121.5219278,"name":"巧果子","decorType":"restaurant"},{"id":"node-5248376423","lat":25.0969456,"lon":121.5217514,"name":"福客","decorType":"restaurant"},{"id":"node-5248419421","lat":25.0968051,"lon":121.5214724,"name":"及品水餃","decorType":"restaurant"},{"id":"node-5794307831","lat":25.094614,"lon":121.5220666,"name":"山東利民家常牛肉麵","decorType":"restaurant"},{"id":"node-5949682795","lat":25.0889935,"lon":121.5183171,"name":"7-Eleven","decorType":"convenience"},{"id":"node-5949682796","lat":25.0871601,"lon":121.5177461,"name":"全家便利商店","decorType":"convenience"},{"id":"node-5949682797","lat":25.0887296,"lon":121.5180733,"name":"全聯福利中心","decorType":"supermarket"},{"id":"node-5949987490","lat":25.0961816,"lon":121.5213825,"name":"7-Eleven","decorType":"convenience"},{"id":"node-5949987492","lat":25.0917016,"lon":121.5180163,"name":"全家便利商店","decorType":"convenience"},{"id":"node-5949987493","lat":25.0896164,"lon":121.5158504,"name":"7-Eleven","decorType":"convenience"},{"id":"node-5949987494","lat":25.0965652,"lon":121.5147006,"name":"7-Eleven","decorType":"convenience"},{"id":"node-6004507054","lat":25.0946134,"lon":121.5219953,"name":"CoCo都可","decorType":"cafe"},{"id":"node-6004507056","lat":25.0946152,"lon":121.5220989,"name":"OMAYA 春川炒雞","decorType":"restaurant"},{"id":"node-6014376272","lat":25.0915082,"lon":121.5216301,"name":"大村武","decorType":"restaurant"},{"id":"node-6095914120","lat":25.0885629,"lon":121.5213838,"name":"愛佳藥局","decorType":"pharmacy"},{"id":"node-6095989127","lat":25.0886346,"lon":121.5182226,"name":"創意烘焙麵包店","decorType":"bakery"},{"id":"node-6096017210","lat":25.088454,"lon":121.52057,"name":"海羊專業羊肉鍋","decorType":"restaurant"},{"id":"node-6096023101","lat":25.0870431,"lon":121.5177043,"name":"洗樂美自助洗衣","decorType":"laundry"},{"id":"node-6096024229","lat":25.0866636,"lon":121.5176485,"name":"鉅豐電腦","decorType":"electronics"},{"id":"node-6096035587","lat":25.085799,"lon":121.5175657,"name":"男士家庭理髮","decorType":"hair_salon"},{"id":"node-6096044453","lat":25.0878969,"lon":121.5180524,"name":"魚旨亭日式料理","decorType":"restaurant"},{"id":"node-6096045432","lat":25.0882061,"lon":121.5181216,"name":"台南港口土魠魚羹","decorType":"restaurant"},{"id":"node-6096050613","lat":25.0880179,"lon":121.5180794,"name":"美而美早餐店","decorType":"restaurant"},{"id":"node-6096056290","lat":25.0884494,"lon":121.5181774,"name":"良益筒仔米糕","decorType":"restaurant"},{"id":"node-6096056839","lat":25.0883928,"lon":121.5181639,"name":"幸福生活百貨","decorType":"hardware"},{"id":"node-6096063101","lat":25.0888412,"lon":121.5182636,"name":"古早味腿庫飯","decorType":"restaurant"},{"id":"node-6096065587","lat":25.0888289,"lon":121.5184173,"name":"CoCo都可","decorType":"cafe"},{"id":"node-6096065700","lat":25.0888213,"lon":121.5184815,"name":"阿貴牛排","decorType":"restaurant"},{"id":"node-6096068442","lat":25.08848,"lon":121.5210651,"name":"大佬牛牛排","decorType":"restaurant"},{"id":"node-6096076251","lat":25.0889253,"lon":121.518642,"name":"冰來醬擋","decorType":"restaurant"},{"id":"node-6096083682","lat":25.0889345,"lon":121.5185812,"name":"揚名烘焙豆漿豆花","decorType":"restaurant"},{"id":"node-6096094697","lat":25.0885305,"lon":121.5211749,"name":"越雲越南創意料理","decorType":"restaurant"},{"id":"node-6096095927","lat":25.0885948,"lon":121.5212661,"name":"未命名餐廳","decorType":"restaurant"},{"id":"node-6117500174","lat":25.0858596,"lon":121.5215519,"name":"光點教會","decorType":"shrine"},{"id":"node-6120728242","lat":25.0942127,"lon":121.5217237,"name":"香港鑫記燒臘","decorType":"restaurant"},{"id":"node-6120763318","lat":25.094152,"lon":121.5215681,"name":"聯成電腦","decorType":"electronics"},{"id":"node-6120779596","lat":25.0938557,"lon":121.5210478,"name":"士林馥記烤鴨","decorType":"restaurant"},{"id":"node-6120843815","lat":25.0923253,"lon":121.5210431,"name":"永大電腦","decorType":"electronics"},{"id":"node-6120863683","lat":25.0915821,"lon":121.5210062,"name":"OK超商","decorType":"convenience"},{"id":"node-6120865762","lat":25.0917132,"lon":121.5209807,"name":"路易莎","decorType":"restaurant"},{"id":"node-6120888831","lat":25.0908436,"lon":121.5197845,"name":"聖賢藥局","decorType":"pharmacy"},{"id":"node-6120902666","lat":25.0917035,"lon":121.5191032,"name":"上華電器行","decorType":"electronics"},{"id":"node-6120906039","lat":25.091429,"lon":121.5180732,"name":"阿琴自助餐","decorType":"restaurant"},{"id":"node-6120910446","lat":25.0920825,"lon":121.5187491,"name":"拉亞漢堡","decorType":"burger"},{"id":"node-6120912053","lat":25.0921602,"lon":121.5186848,"name":"JSP呷上寶早餐店","decorType":"restaurant"},{"id":"node-6131595740","lat":25.0918696,"lon":121.5207932,"name":"維康藥局","decorType":"pharmacy"},{"id":"node-6199249864","lat":25.1009437,"lon":121.522151,"name":"夏澎洗衣坊","decorType":"laundry"},{"id":"node-6304979559","lat":25.0909707,"lon":121.5181394,"name":"Ting屋食堂","decorType":"restaurant"},{"id":"node-6389111646","lat":25.0889431,"lon":121.5099976,"name":"全聯福利中心","decorType":"supermarket"},{"id":"node-6389111672","lat":25.0889232,"lon":121.5095183,"name":"花媽古早味剉冰","decorType":"restaurant"},{"id":"node-6389111674","lat":25.0889208,"lon":121.5094633,"name":"漾鍋","decorType":"restaurant"},{"id":"node-6389111675","lat":25.0889281,"lon":121.5098629,"name":"永和豆漿大王","decorType":"restaurant"},{"id":"node-6389111677","lat":25.0889378,"lon":121.509765,"name":"稻之鄉清粥自助餐","decorType":"restaurant"},{"id":"node-7221781609","lat":25.0956773,"lon":121.5185764,"name":"士林分館臨時替代館","decorType":"library"},{"id":"node-7284500387","lat":25.0857398,"lon":121.5203306,"name":"未命名公園","decorType":"park"},{"id":"node-7775195758","lat":25.097969,"lon":121.5148039,"name":"漢堡王","decorType":"burger"},{"id":"node-7775195759","lat":25.0966351,"lon":121.5149893,"name":"愛爾蘭瘋薯","decorType":"restaurant"},{"id":"node-7997277808","lat":25.0931007,"lon":121.5142199,"name":"士林監理站","decorType":"bus_stop"},{"id":"node-8117974017","lat":25.0917944,"lon":121.5213908,"name":"路易莎咖啡","decorType":"cafe"},{"id":"node-8305978133","lat":25.0971028,"lon":121.5219212,"name":"蚵仔之家","decorType":"restaurant"},{"id":"node-8385313514","lat":25.096747,"lon":121.521085,"name":"八方雲集","decorType":"burger"},{"id":"node-9081929574","lat":25.0870042,"lon":121.5186043,"name":"百齡國小","decorType":"bus_stop"},{"id":"node-9336756744","lat":25.0884224,"lon":121.5207518,"name":"牛坊牛肉麵","decorType":"restaurant"},{"id":"node-9336763210","lat":25.0889977,"lon":121.5180189,"name":"芝山岩牛肉麵","decorType":"restaurant"},{"id":"node-9336789813","lat":25.0889371,"lon":121.5185011,"name":"羊堡羊肉攤","decorType":"restaurant"},{"id":"node-9336810955","lat":25.0888051,"lon":121.5186345,"name":"大口吃炭火吐司","decorType":"restaurant"},{"id":"node-9345816146","lat":25.090007,"lon":121.5102614,"name":"蝦皮店到店","decorType":"convenience"},{"id":"node-9391261125","lat":25.0950731,"lon":121.5217813,"name":"蝦皮店到店","decorType":"convenience"},{"id":"node-9491209681","lat":25.0884916,"lon":121.5204332,"name":"蝦皮店到店","decorType":"convenience"},{"id":"node-9520198452","lat":25.0962445,"lon":121.516251,"name":"星巴克","decorType":"cafe"},{"id":"node-9520198458","lat":25.0962955,"lon":121.516263,"name":"Pizza Cat","decorType":"restaurant"},{"id":"node-9520337790","lat":25.0930709,"lon":121.5183404,"name":"守仁堂","decorType":"pharmacy"},{"id":"node-9520337813","lat":25.0943559,"lon":121.5189493,"name":"將軍麵線","decorType":"restaurant"},{"id":"node-9520343639","lat":25.0935604,"lon":121.5194683,"name":"士林中正路郵局","decorType":"post_office"},{"id":"node-9520343698","lat":25.093711,"lon":121.5186261,"name":"Intro","decorType":"restaurant"},{"id":"node-12458589014","lat":25.0940555,"lon":121.5208306,"name":"士林區行政中心 (中正)","decorType":"bus_stop"},{"id":"node-12790902301","lat":25.0876159,"lon":121.5191302,"name":"富玉莊旅館","decorType":"hotel"},{"id":"node-12958657782","lat":25.0967933,"lon":121.5214294,"name":"君帥理髮廳","decorType":"hair_salon"},{"id":"node-12958657783","lat":25.0967468,"lon":121.5212713,"name":"林家麵神館","decorType":"restaurant"},{"id":"node-13413775745","lat":25.0910804,"lon":121.5213905,"name":"萊爾富","decorType":"convenience"},{"id":"way-25976437","lat":25.0890868,"lon":121.5137268,"name":"百齡橋","decorType":"bridge"},{"id":"way-25976466","lat":25.0991095,"lon":121.5207252,"name":"文昌橋","decorType":"bridge"},{"id":"way-51903914","lat":25.0892452,"lon":121.5136543,"name":"百齡橋","decorType":"bridge"},{"id":"way-51903919","lat":25.0872598,"lon":121.5110251,"name":"中正路","decorType":"bridge"},{"id":"way-51903933","lat":25.0876495,"lon":121.5112147,"name":"百齡橋","decorType":"bridge"},{"id":"way-51903942","lat":25.0871718,"lon":121.5105022,"name":"重陽橋","decorType":"bridge"},{"id":"way-52344714","lat":25.0984188,"lon":121.513183,"name":"雙溪橋","decorType":"bridge"},{"id":"way-52344715","lat":25.0983552,"lon":121.513003,"name":"雙溪橋","decorType":"bridge"},{"id":"way-81460455","lat":25.0953431,"lon":121.5107068,"name":"後港一號橋","decorType":"bridge"},{"id":"way-81460458","lat":25.0956103,"lon":121.5103124,"name":"基隆河右岸自行車道","decorType":"bridge"},{"id":"way-81460690","lat":25.0960319,"lon":121.5104989,"name":"後港二號橋","decorType":"bridge"},{"id":"way-137324290","lat":25.0905006,"lon":121.5154888,"name":"百齡橋","decorType":"bridge"},{"id":"way-168955498","lat":25.0975876,"lon":121.5174519,"name":"美崙公園","decorType":"park"},{"id":"way-188005570","lat":25.0908205,"lon":121.5149284,"name":"百齡右岸越堤坡道","decorType":"bridge"},{"id":"way-264853186","lat":25.0868567,"lon":121.5113247,"name":"百齡橋","decorType":"bridge"},{"id":"way-296123001","lat":25.0972321,"lon":121.5150557,"name":"臺北兒童新樂園","decorType":"theme_park"},{"id":"way-299297074","lat":25.0876925,"lon":121.5104323,"name":"社正公園","decorType":"park"},{"id":"way-308419910","lat":25.0919967,"lon":121.5175879,"name":"未命名橋樑","decorType":"bridge"},{"id":"way-308419912","lat":25.0919206,"lon":121.5174717,"name":"未命名橋樑","decorType":"bridge"},{"id":"way-308419921","lat":25.0915927,"lon":121.5177406,"name":"未命名橋樑","decorType":"bridge"},{"id":"way-308419924","lat":25.0917359,"lon":121.5179591,"name":"未命名橋樑","decorType":"bridge"},{"id":"way-315852781","lat":25.0959779,"lon":121.5185417,"name":"臺北市立天文科學教育館","decorType":"art_gallery"},{"id":"way-327088319","lat":25.0961266,"lon":121.5167132,"name":"國立臺灣科學教育館","decorType":"art_gallery"},{"id":"way-363124306","lat":25.0861677,"lon":121.5182439,"name":"百齡智慧圖書館","decorType":"library"},{"id":"way-372270680","lat":25.0999335,"lon":121.517496,"name":"雙溪線自行車道","decorType":"bridge"},{"id":"way-372270683","lat":25.1000063,"lon":121.5175141,"name":"建德橋","decorType":"bridge"},{"id":"way-374876195","lat":25.0893036,"lon":121.5135576,"name":"百齡橋自行車道","decorType":"bridge"},{"id":"way-374905366","lat":25.0965976,"lon":121.5122724,"name":"滯洪池","decorType":"waterside"},{"id":"way-376480823","lat":25.0980497,"lon":121.5155809,"name":"未命名橋樑","decorType":"bridge"},{"id":"way-377324644","lat":25.0929772,"lon":121.5205768,"name":"士林120號綠地","decorType":"park"},{"id":"way-377457825","lat":25.089421,"lon":121.5215111,"name":"士林運動中心","decorType":"stadium"},{"id":"way-377457828","lat":25.0897087,"lon":121.5219778,"name":"承德公園","decorType":"park"},{"id":"way-382534914","lat":25.098142,"lon":121.5138571,"name":"雙溪橋上游左岸越堤坡道","decorType":"bridge"},{"id":"way-427778338","lat":25.0924608,"lon":121.5193257,"name":"士林118號綠地","decorType":"park"},{"id":"way-444886267","lat":25.0868507,"lon":121.5099349,"name":"重陽橋","decorType":"bridge"},{"id":"way-449290031","lat":25.09281,"lon":121.517184,"name":"中庭花園","decorType":"park"},{"id":"way-449291237","lat":25.0940242,"lon":121.5157052,"name":"中央花園 (巧園)","decorType":"park"},{"id":"way-458218182","lat":25.0879023,"lon":121.5188691,"name":"福中公園","decorType":"park"},{"id":"way-501857532","lat":25.0991781,"lon":121.520082,"name":"未命名橋樑","decorType":"bridge"},{"id":"way-501857534","lat":25.0991239,"lon":121.5202428,"name":"未命名橋樑","decorType":"bridge"},{"id":"way-502190379","lat":25.0873467,"lon":121.5183029,"name":"後港郵局","decorType":"post_office"},{"id":"way-502190649","lat":25.087105,"lon":121.5192329,"name":"家樂福超市","decorType":"convenience"},{"id":"way-502197861","lat":25.0921966,"lon":121.5201325,"name":"特力屋","decorType":"supermarket"},{"id":"way-502223114","lat":25.0970415,"lon":121.5119987,"name":"雙溪濕地公園","decorType":"park"},{"id":"way-529287632","lat":25.0974548,"lon":121.5182305,"name":"數理主題區","decorType":"park"},{"id":"way-529298429","lat":25.0970934,"lon":121.5160417,"name":"飛天神奇號","decorType":"park"},{"id":"way-529298436","lat":25.0975935,"lon":121.5157421,"name":"尋寶船","decorType":"park"},{"id":"way-529298440","lat":25.0975312,"lon":121.5156344,"name":"夢想海","decorType":"waterside"},{"id":"way-529298447","lat":25.0966428,"lon":121.5144237,"name":"幸福踫踫車","decorType":"park"},{"id":"way-529298457","lat":25.0979551,"lon":121.5148119,"name":"銀河號","decorType":"station"},{"id":"way-529298458","lat":25.0976443,"lon":121.5145898,"name":"未命名橋樑","decorType":"bridge"},{"id":"way-549537071","lat":25.0986622,"lon":121.5195181,"name":"新佳公園","decorType":"park"},{"id":"way-549570619","lat":25.0933211,"lon":121.5144525,"name":"後港公園","decorType":"park"},{"id":"way-652245428","lat":25.1000331,"lon":121.5117597,"name":"未命名橋樑","decorType":"bridge"},{"id":"way-658689502","lat":25.0891948,"lon":121.5203517,"name":"見潭璞旅","decorType":"hotel"},{"id":"way-659653094","lat":25.0978842,"lon":121.5167715,"name":"未命名水邊","decorType":"waterside"},{"id":"way-732411486","lat":25.0876369,"lon":121.5116302,"name":"重慶北路四段","decorType":"bridge"},{"id":"way-772191743","lat":25.0891673,"lon":121.5137511,"name":"百齡橋","decorType":"bridge"},{"id":"way-778262181","lat":25.0997133,"lon":121.5197538,"name":"雙溪線自行車道","decorType":"bridge"},{"id":"way-780145028","lat":25.0863437,"lon":121.5208226,"name":"未命名公園","decorType":"park"},{"id":"way-783920080","lat":25.0973529,"lon":121.5182148,"name":"未命名公園","decorType":"park"},{"id":"way-783920088","lat":25.0968091,"lon":121.51795,"name":"未命名公園","decorType":"park"},{"id":"way-787186853","lat":25.0978656,"lon":121.5107135,"name":"河雙21號河濱公園","decorType":"park"},{"id":"way-787186854","lat":25.098433,"lon":121.5132837,"name":"未命名橋樑","decorType":"bridge"},{"id":"way-787186855","lat":25.098289,"lon":121.5129055,"name":"未命名橋樑","decorType":"bridge"},{"id":"way-787951550","lat":25.0881513,"lon":121.5189154,"name":"未命名公園","decorType":"park"},{"id":"way-795041704","lat":25.0992293,"lon":121.5214248,"name":"未命名橋樑","decorType":"bridge"},{"id":"way-795041707","lat":25.0996507,"lon":121.5202875,"name":"未命名橋樑","decorType":"bridge"},{"id":"way-795041709","lat":25.0997395,"lon":121.5201336,"name":"未命名橋樑","decorType":"bridge"},{"id":"way-857811369","lat":25.0931809,"lon":121.5143537,"name":"未命名公園","decorType":"park"},{"id":"way-877511548","lat":25.0873627,"lon":121.5131262,"name":"未命名橋樑","decorType":"bridge"},{"id":"way-877511553","lat":25.0906633,"lon":121.5148362,"name":"百齡橋自行車道","decorType":"bridge"},{"id":"way-877511554","lat":25.0888487,"lon":121.5120513,"name":"百齡橋自行車道","decorType":"bridge"},{"id":"way-877511560","lat":25.0889221,"lon":121.513663,"name":"未命名橋樑","decorType":"bridge"},{"id":"way-1004055363","lat":25.0991209,"lon":121.5206998,"name":"文昌橋","decorType":"bridge"},{"id":"way-1005116480","lat":25.098351,"lon":121.513098,"name":"雙溪橋","decorType":"bridge"},{"id":"way-1018287754","lat":25.0983352,"lon":121.5152011,"name":"未命名橋樑","decorType":"bridge"},{"id":"way-1018287755","lat":25.0983326,"lon":121.51471,"name":"未命名橋樑","decorType":"bridge"},{"id":"way-1052397248","lat":25.0981904,"lon":121.5154104,"name":"未命名橋樑","decorType":"bridge"},{"id":"way-1052397249","lat":25.0980106,"lon":121.515626,"name":"未命名橋樑","decorType":"bridge"},{"id":"way-1052397250","lat":25.0981274,"lon":121.5155808,"name":"未命名橋樑","decorType":"bridge"},{"id":"way-1068154434","lat":25.0956779,"lon":121.5104683,"name":"基隆河右岸自行車道","decorType":"bridge"},{"id":"way-1068154435","lat":25.0949819,"lon":121.5109653,"name":"後港一號橋","decorType":"bridge"},{"id":"way-1068154436","lat":25.0964533,"lon":121.5105933,"name":"後港二號橋","decorType":"bridge"},{"id":"way-1133685545","lat":25.0995968,"lon":121.5114612,"name":"五分港溪","decorType":"waterside"},{"id":"way-1133753241","lat":25.0968842,"lon":121.5120567,"name":"未命名水邊","decorType":"waterside"},{"id":"way-1133753242","lat":25.0972438,"lon":121.5127216,"name":"未命名水邊","decorType":"waterside"},{"id":"way-1133753246","lat":25.0972217,"lon":121.5119782,"name":"未命名水邊","decorType":"waterside"},{"id":"way-1133753248","lat":25.0973452,"lon":121.5125243,"name":"未命名橋樑","decorType":"bridge"},{"id":"way-1133753250","lat":25.0966335,"lon":121.5114829,"name":"未命名水邊","decorType":"waterside"},{"id":"way-1133753251","lat":25.0970903,"lon":121.5113848,"name":"未命名橋樑","decorType":"bridge"},{"id":"way-1133753253","lat":25.096947,"lon":121.5110726,"name":"未命名橋樑","decorType":"bridge"},{"id":"way-1135879784","lat":25.0973597,"lon":121.5114373,"name":"未命名橋樑","decorType":"bridge"},{"id":"way-1135879785","lat":25.0973575,"lon":121.5114131,"name":"未命名橋樑","decorType":"bridge"},{"id":"way-1135879786","lat":25.0973375,"lon":121.5114188,"name":"未命名橋樑","decorType":"bridge"},{"id":"way-1135879787","lat":25.0972317,"lon":121.5123525,"name":"未命名橋樑","decorType":"bridge"},{"id":"way-1135879794","lat":25.0967045,"lon":121.5107444,"name":"未命名橋樑","decorType":"bridge"},{"id":"way-1135879795","lat":25.0971989,"lon":121.511322,"name":"未命名橋樑","decorType":"bridge"},{"id":"way-1135879796","lat":25.0966153,"lon":121.5106245,"name":"未命名橋樑","decorType":"bridge"},{"id":"way-1177264091","lat":25.0976803,"lon":121.5113021,"name":"洲美便橋","decorType":"bridge"},{"id":"way-1299666382","lat":25.0972279,"lon":121.5110399,"name":"未命名橋樑","decorType":"bridge"},{"id":"way-1299666383","lat":25.0972042,"lon":121.5110219,"name":"未命名橋樑","decorType":"bridge"},{"id":"way-1323406667","lat":25.0959221,"lon":121.510376,"name":"未命名水邊","decorType":"waterside"},{"id":"way-1324323655","lat":25.0943557,"lon":121.513549,"name":"未命名公園","decorType":"park"},{"id":"way-1346846076","lat":25.0973512,"lon":121.5160062,"name":"未命名公園","decorType":"park"},{"id":"way-1347999064","lat":25.0896175,"lon":121.514891,"name":"未命名公園","decorType":"park"},{"id":"way-1387417878","lat":25.0934857,"lon":121.5099111,"name":"水上小蟹公園","decorType":"park"},{"id":"way-1458080812","lat":25.1002137,"lon":121.5128699,"name":"北投259綠地","decorType":"park"}]}