{"bbox":{"south":25.085549999999998,"north":25.10115625,"west":121.61337499999999,"east":121.62640624999999},"pois":[{"id":"way-1443855402","lat":25.0859423,"lon":121.6246876,"name":"內溝溪","decorType":"waterside"},{"id":"way-430668504","lat":25.0904084,"lon":121.6168593,"name":"未命名水邊","decorType":"waterside"},{"id":"way-635094916","lat":25.0857906,"lon":121.6133822,"name":"安泰溪","decorType":"waterside"},{"id":"node-2482646480","lat":25.0959026,"lon":121.6261613,"name":"老鷲尖","decorType":"mountain"},{"id":"node-2482646515","lat":25.0869738,"lon":121.6173556,"name":"柿子山","decorType":"mountain"},{"id":"node-2482646686","lat":25.098362,"lon":121.6215581,"name":"水尾潭山","decorType":"mountain"},{"id":"node-4420097391","lat":25.0862557,"lon":121.6138161,"name":"聖明宮","decorType":"shrine"},{"id":"node-5410118699","lat":25.09159,"lon":121.620775,"name":"奇頭","decorType":"bus_stop"},{"id":"node-5410118700","lat":25.0916423,"lon":121.6205935,"name":"奇頭","decorType":"bus_stop"},{"id":"node-5410118701","lat":25.094953,"lon":121.617042,"name":"內溝","decorType":"bus_stop"},{"id":"node-5644867833","lat":25.0871175,"lon":121.6208559,"name":"青山映雅廟","decorType":"shrine"},{"id":"node-13316121453","lat":25.0919736,"lon":121.6159735,"name":"未命名山丘","decorType":"mountain"},{"id":"way-420434151","lat":25.0872239,"lon":121.6227018,"name":"未命名橋樑","decorType":"bridge"},{"id":"way-420434156","lat":25.0886033,"lon":121.6230437,"name":"明舉橋","decorType":"bridge"},{"id":"way-421735089","lat":25.0896274,"lon":121.6223321,"name":"北天宮","decorType":"shrine"},{"id":"way-421735090","lat":25.0899678,"lon":121.6223427,"name":"竹夢園","decorType":"park"},{"id":"way-421736225","lat":25.0869981,"lon":121.6232011,"name":"福祿宮","decorType":"shrine"},{"id":"way-421736228","lat":25.0868147,"lon":121.6182723,"name":"三教山","decorType":"shrine"},{"id":"way-430668165","lat":25.0876497,"lon":121.622165,"name":"未命名水邊","decorType":"waterside"},{"id":"way-430668167","lat":25.0916965,"lon":121.6208067,"name":"土地公廟","decorType":"shrine"},{"id":"way-430668168","lat":25.0956402,"lon":121.6168995,"name":"土地公廟","decorType":"shrine"},{"id":"way-430668173","lat":25.092536,"lon":121.6192634,"name":"內溝溪","decorType":"waterside"},{"id":"way-430668174","lat":25.0968113,"lon":121.6161191,"name":"未命名水邊","decorType":"waterside"},{"id":"way-430668511","lat":25.08647,"lon":121.6236825,"name":"籃球場","decorType":"park"},{"id":"way-442759862","lat":25.0871527,"lon":121.6227466,"name":"山主祠","decorType":"shrine"},{"id":"way-442759865","lat":25.0859601,"lon":121.6141436,"name":"慶福祠","decorType":"shrine"},{"id":"way-442759867","lat":25.0893846,"lon":121.6210864,"name":"明眉橋","decorType":"bridge"},{"id":"way-442759868","lat":25.0871546,"lon":121.621065,"name":"靜修洞","decorType":"shrine"},{"id":"way-446402801","lat":25.0870986,"lon":121.6233589,"name":"明山橋","decorType":"bridge"},{"id":"way-446402808","lat":25.0866274,"lon":121.6249712,"name":"未命名橋樑","decorType":"bridge"},{"id":"way-514091088","lat":25.0869604,"lon":121.6179925,"name":"清靈宮","decorType":"shrine"},{"id":"way-520206494","lat":25.0857602,"lon":121.6135763,"name":"水源頭福德宮","decorType":"shrine"},{"id":"way-633854941","lat":25.0876797,"lon":121.6216998,"name":"未命名水邊","decorType":"waterside"},{"id":"way-773675407","lat":25.085795,"lon":121.6135962,"name":"康樂山親山步道","decorType":"bridge"},{"id":"way-773675415","lat":25.0894099,"lon":121.615574,"name":"未命名橋樑","decorType":"bridge"},{"id":"way-1443855365","lat":25.0980676,"lon":121.6156313,"name":"未命名水邊","decorType":"waterside"},{"id":"way-1443855366","lat":25.0977872,"lon":121.6157871,"name":"未命名水邊","decorType":"waterside"},{"id":"way-1443855368","lat":25.0968382,"lon":121.6147196,"name":"內溝溪","decorType":"waterside"},{"id":"way-1443855369","lat":25.0962421,"lon":121.615722,"name":"內溝溪","decorType":"waterside"},{"id":"way-1443855370","lat":25.0956499,"lon":121.6167541,"name":"內溝溪","decorType":"waterside"},{"id":"way-1443855371","lat":25.0949957,"lon":121.6172958,"name":"內溝溪","decorType":"waterside"},{"id":"way-1443855372","lat":25.0943466,"lon":121.6177036,"name":"內溝溪","decorType":"waterside"},{"id":"way-1443855400","lat":25.0889203,"lon":121.6221517,"name":"內溝溪","decorType":"waterside"},{"id":"way-1443855401","lat":25.0870757,"lon":121.6234515,"name":"內溝溪","decorType":"waterside"}]}