{"bbox":{"south":25.08555,"north":25.101156,"west":121.470031,"east":121.483062},"pois":[{"id":"way-1228832810","lat":25.085585,"lon":121.473192,"name":"未命名公車站","decorType":"bus_stop"},{"id":"node-1846485904","lat":25.085912,"lon":121.472568,"name":"捷運三民高中站","decorType":"bus_stop"},{"id":"node-2608084898","lat":25.085657,"lon":121.473582,"name":"出口2 (復興路)","decorType":"station"},{"id":"node-2608084901","lat":25.085681,"lon":121.472703,"name":"出口1 (三民路)","decorType":"station"},{"id":"node-2723557826","lat":25.090243,"lon":121.481859,"name":"7-Eleven","decorType":"convenience"},{"id":"node-2984526835","lat":25.086308,"lon":121.472439,"name":"三民高中","decorType":"bus_stop"},{"id":"node-2984526847","lat":25.087608,"lon":121.470816,"name":"空中大學","decorType":"bus_stop"},{"id":"node-3350300486","lat":25.091822,"lon":121.472316,"name":"仁愛街口","decorType":"bus_stop"},{"id":"node-3350300487","lat":25.091875,"lon":121.472027,"name":"仁愛街口","decorType":"bus_stop"},{"id":"node-3350300490","lat":25.091858,"lon":121.473959,"name":"萊爾富","decorType":"convenience"},{"id":"node-3350300491","lat":25.088767,"lon":121.478182,"name":"復興路","decorType":"bus_stop"},{"id":"node-3350300492","lat":25.088841,"lon":121.478044,"name":"復興路","decorType":"bus_stop"},{"id":"node-3350300493","lat":25.091408,"lon":121.474859,"name":"民族民義街口","decorType":"bus_stop"},{"id":"node-3350300494","lat":25.091515,"lon":121.474259,"name":"民族民義街口","decorType":"bus_stop"},{"id":"node-3350300541","lat":25.089881,"lon":121.477453,"name":"樓厝一","decorType":"bus_stop"},{"id":"node-3350300555","lat":25.091477,"lon":121.474746,"name":"7-Eleven","decorType":"convenience"},{"id":"node-3634927078","lat":25.086886,"lon":121.475701,"name":"7-Eleven","decorType":"convenience"},{"id":"node-3634931402","lat":25.087803,"lon":121.477229,"name":"全家便利商店","decorType":"convenience"},{"id":"node-3634931524","lat":25.086998,"lon":121.475505,"name":"85度C","decorType":"cafe"},{"id":"node-3724617689","lat":25.086041,"lon":121.473819,"name":"捷運三民高中站 (復興路)","decorType":"bus_stop"},{"id":"node-3724617690","lat":25.086582,"lon":121.475095,"name":"捷運三民高中站 (復興路)","decorType":"bus_stop"},{"id":"node-3724617693","lat":25.090216,"lon":121.477202,"name":"樓厝一","decorType":"bus_stop"},{"id":"node-3724617695","lat":25.087301,"lon":121.476343,"name":"民權路口","decorType":"bus_stop"},{"id":"node-3724617696","lat":25.087349,"lon":121.476131,"name":"民權路口","decorType":"bus_stop"},{"id":"node-3724617730","lat":25.086948,"lon":121.482842,"name":"集賢路","decorType":"bus_stop"},{"id":"node-3734714094","lat":25.08825,"lon":121.479271,"name":"佳佳幼稚園","decorType":"bus_stop"},{"id":"node-3734714095","lat":25.088295,"lon":121.479453,"name":"佳佳幼稚園","decorType":"bus_stop"},{"id":"node-3734714097","lat":25.091462,"lon":121.474347,"name":"85度C","decorType":"cafe"},{"id":"node-3734714100","lat":25.087933,"lon":121.477384,"name":"樓厝","decorType":"bus_stop"},{"id":"node-3734714101","lat":25.086176,"lon":121.479613,"name":"玉清宮","decorType":"bus_stop"},{"id":"node-3734714102","lat":25.086223,"lon":121.479502,"name":"玉清宮","decorType":"bus_stop"},{"id":"node-3735927527","lat":25.090676,"lon":121.476177,"name":"水河里","decorType":"bus_stop"},{"id":"node-4447258009","lat":25.087231,"lon":121.475163,"name":"全家便利商店","decorType":"convenience"},{"id":"node-4627436089","lat":25.085881,"lon":121.479079,"name":"三重知高飯","decorType":"restaurant"},{"id":"node-4662237890","lat":25.087371,"lon":121.481493,"name":"Breakfast Shop","decorType":"restaurant"},{"id":"node-4924079621","lat":25.093842,"lon":121.471375,"name":"品萱美髮工作室","decorType":"hair_salon"},{"id":"node-5280999823","lat":25.092035,"lon":121.472532,"name":"全家便利商店","decorType":"convenience"},{"id":"node-5280999825","lat":25.087372,"lon":121.471202,"name":"星巴克","decorType":"cafe"},{"id":"node-5281018821","lat":25.087224,"lon":121.471362,"name":"麥當勞","decorType":"burger"},{"id":"node-6010698985","lat":25.087692,"lon":121.477576,"name":"陳告生工坊","decorType":"restaurant"},{"id":"node-6013262085","lat":25.087088,"lon":121.479979,"name":"洪記永和豆漿大王","decorType":"restaurant"},{"id":"node-6029905285","lat":25.088075,"lon":121.479623,"name":"7-Eleven","decorType":"convenience"},{"id":"node-6062813785","lat":25.087964,"lon":121.480983,"name":"7-Eleven","decorType":"convenience"},{"id":"node-6062826085","lat":25.086309,"lon":121.482226,"name":"7-Eleven","decorType":"convenience"},{"id":"node-6124580387","lat":25.085958,"lon":121.473869,"name":"豪大大雞排","decorType":"restaurant"},{"id":"node-6909232025","lat":25.089857,"lon":121.470562,"name":"全聯福利中心","decorType":"supermarket"},{"id":"node-6909232026","lat":25.093224,"lon":121.472145,"name":"美廉社","decorType":"supermarket"},{"id":"node-6909232027","lat":25.093792,"lon":121.471641,"name":"7-Eleven","decorType":"convenience"},{"id":"node-6909232028","lat":25.093858,"lon":121.471305,"name":"全家便利商店","decorType":"convenience"},{"id":"node-7191364601","lat":25.085972,"lon":121.47954,"name":"玉清宮","decorType":"shrine"},{"id":"node-7191364603","lat":25.085557,"lon":121.479127,"name":"康是美","decorType":"pharmacy"},{"id":"node-7191364606","lat":25.086397,"lon":121.479861,"name":"牛丁次郎坊","decorType":"restaurant"},{"id":"node-7191364607","lat":25.08676,"lon":121.479968,"name":"全家便利商店","decorType":"convenience"},{"id":"node-7191364608","lat":25.085725,"lon":121.479045,"name":"屈臣氏","decorType":"pharmacy"},{"id":"node-7191364609","lat":25.086422,"lon":121.479582,"name":"曼都髮型","decorType":"hair_salon"},{"id":"node-7191364610","lat":25.086512,"lon":121.479895,"name":"少點鹽健康餐盒專賣","decorType":"restaurant"},{"id":"node-7191364611","lat":25.08605,"lon":121.479641,"name":"華信藥局","decorType":"pharmacy"},{"id":"node-7191634528","lat":25.086259,"lon":121.47947,"name":"CoCo都可","decorType":"cafe"},{"id":"node-7191634529","lat":25.08571,"lon":121.478881,"name":"可不可熟成紅茶","decorType":"cafe"},{"id":"node-7191634531","lat":25.086498,"lon":121.478257,"name":"八方雲集","decorType":"burger"},{"id":"node-7191634532","lat":25.087006,"lon":121.477884,"name":"7-Eleven","decorType":"convenience"},{"id":"node-7191634534","lat":25.08667,"lon":121.478365,"name":"名將三寶飯 - 信義店","decorType":"restaurant"},{"id":"node-7191634539","lat":25.086274,"lon":121.479788,"name":"車站腿庫飯","decorType":"restaurant"},{"id":"node-7192621277","lat":25.087206,"lon":121.481495,"name":"孫東寶","decorType":"restaurant"},{"id":"node-7192621283","lat":25.087162,"lon":121.481426,"name":"美廉社","decorType":"supermarket"},{"id":"node-7192621284","lat":25.08696,"lon":121.481182,"name":"家樂福超市","decorType":"supermarket"},{"id":"node-7192629085","lat":25.086256,"lon":121.482638,"name":"鞋全家福","decorType":"clothing"},{"id":"node-7192629090","lat":25.086105,"lon":121.477464,"name":"蓮聖宮","decorType":"shrine"},{"id":"node-7192629091","lat":25.086108,"lon":121.477858,"name":"聖中宮","decorType":"shrine"},{"id":"node-7192629097","lat":25.086499,"lon":121.475857,"name":"全家便利商店","decorType":"convenience"},{"id":"node-7192846553","lat":25.086532,"lon":121.47765,"name":"無極太子道聖宮","decorType":"shrine"},{"id":"node-7192846582","lat":25.086859,"lon":121.471169,"name":"すき家","decorType":"burger"},{"id":"node-7192846583","lat":25.087255,"lon":121.470778,"name":"鴨霸切仔麵","decorType":"restaurant"},{"id":"node-7193346157","lat":25.087242,"lon":121.479963,"name":"六合飯担","decorType":"restaurant"},{"id":"node-7193346159","lat":25.087301,"lon":121.479955,"name":"田原鍋","decorType":"restaurant"},{"id":"node-7193346160","lat":25.087538,"lon":121.479905,"name":"台灣大哥大","decorType":"electronics"},{"id":"node-7193346162","lat":25.086946,"lon":121.479746,"name":"大苑子","decorType":"cafe"},{"id":"node-7193346163","lat":25.087575,"lon":121.479896,"name":"清心福全","decorType":"cafe"},{"id":"node-7193346164","lat":25.087075,"lon":121.47975,"name":"彩登造型","decorType":"hair_salon"},{"id":"node-7193346172","lat":25.085861,"lon":121.479464,"name":"美而美","decorType":"restaurant"},{"id":"node-7193346173","lat":25.086644,"lon":121.479939,"name":"小拍子茶飲製造所","decorType":"cafe"},{"id":"node-7193346174","lat":25.085598,"lon":121.4786,"name":"哈妮髮藝","decorType":"hair_salon"},{"id":"node-7193346179","lat":25.085822,"lon":121.476538,"name":"JSP 呷尚寶","decorType":"restaurant"},{"id":"node-7193346181","lat":25.087112,"lon":121.475312,"name":"度特手做烘焙","decorType":"bakery"},{"id":"node-7193346182","lat":25.087146,"lon":121.475268,"name":"美味堡","decorType":"restaurant"},{"id":"node-7193346184","lat":25.086745,"lon":121.475427,"name":"八方雲集","decorType":"burger"},{"id":"node-7193377985","lat":25.087369,"lon":121.474989,"name":"福安宮","decorType":"shrine"},{"id":"node-7195056319","lat":25.088087,"lon":121.479378,"name":"松展多利藥局","decorType":"pharmacy"},{"id":"node-7195056320","lat":25.08832,"lon":121.479513,"name":"歐維斯早餐店","decorType":"restaurant"},{"id":"node-7195056322","lat":25.086578,"lon":121.478207,"name":"神戶牛排","decorType":"restaurant"},{"id":"node-7195056324","lat":25.086578,"lon":121.478392,"name":"日式威廉","decorType":"hair_salon"},{"id":"node-7255486186","lat":25.089945,"lon":121.471337,"name":"番茄村早午餐","decorType":"restaurant"},{"id":"node-7279631012","lat":25.088951,"lon":121.478498,"name":"宏祐藥局","decorType":"pharmacy"},{"id":"node-7279631013","lat":25.085824,"lon":121.478737,"name":"施藥局","decorType":"pharmacy"},{"id":"node-7279631014","lat":25.086793,"lon":121.478274,"name":"新信義藥局","decorType":"pharmacy"},{"id":"node-7756187096","lat":25.094057,"lon":121.470908,"name":"豬母切仔麵","decorType":"restaurant"},{"id":"node-7820617683","lat":25.091876,"lon":121.472849,"name":"早點到","decorType":"restaurant"},{"id":"node-7820702194","lat":25.091319,"lon":121.475091,"name":"春福台菜","decorType":"restaurant"},{"id":"node-7820702200","lat":25.092355,"lon":121.472443,"name":"仁愛漢堡","decorType":"restaurant"},{"id":"node-7820702215","lat":25.088055,"lon":121.477492,"name":"小巧濃食坊","decorType":"restaurant"},{"id":"node-7820702231","lat":25.091114,"lon":121.475646,"name":"定江山和風料理","decorType":"restaurant"},{"id":"node-7820702239","lat":25.091243,"lon":121.474848,"name":"肉肉多涮涮鍋","decorType":"restaurant"},{"id":"node-7820702241","lat":25.089635,"lon":121.477754,"name":"晴光紅豆餅","decorType":"restaurant"},{"id":"node-7820702245","lat":25.091816,"lon":121.472654,"name":"臻真休閒廚房","decorType":"restaurant"},{"id":"node-7820702246","lat":25.089663,"lon":121.478553,"name":"林記脆皮烤鴨","decorType":"restaurant"},{"id":"node-7820702249","lat":25.092018,"lon":121.473346,"name":"可獅切仔麵","decorType":"restaurant"},{"id":"node-7820702265","lat":25.091737,"lon":121.473944,"name":"炒不停","decorType":"restaurant"},{"id":"node-7820702272","lat":25.091212,"lon":121.474912,"name":"小六手工拉麵","decorType":"restaurant"},{"id":"node-7820702292","lat":25.092963,"lon":121.472253,"name":"老胡水餃麵店","decorType":"restaurant"},{"id":"node-7820702295","lat":25.088493,"lon":121.477612,"name":"現炸水晶排骨","decorType":"restaurant"},{"id":"node-7820702299","lat":25.09118,"lon":121.474976,"name":"老農夫小火鍋","decorType":"restaurant"},{"id":"node-7820702300","lat":25.091302,"lon":121.47517,"name":"巧比福健康早餐吧","decorType":"restaurant"},{"id":"node-7820702321","lat":25.089963,"lon":121.477661,"name":"王家古早味","decorType":"restaurant"},{"id":"node-7820702322","lat":25.092032,"lon":121.473136,"name":"義式廚房","decorType":"restaurant"},{"id":"node-7820702335","lat":25.091636,"lon":121.473586,"name":"超好吃東山鴨頭","decorType":"restaurant"},{"id":"node-7820702344","lat":25.088562,"lon":121.477681,"name":"品品早午餐","decorType":"restaurant"},{"id":"node-7820702352","lat":25.089815,"lon":121.47877,"name":"花蓮烤紫色蕃薯烤蕃薯","decorType":"restaurant"},{"id":"node-7820702353","lat":25.091146,"lon":121.475584,"name":"夏天小館泰式料理","decorType":"restaurant"},{"id":"node-7820702359","lat":25.091974,"lon":121.473516,"name":"英廚","decorType":"restaurant"},{"id":"node-7820702360","lat":25.091874,"lon":121.473048,"name":"詹媽媽手工麵線","decorType":"restaurant"},{"id":"node-7820702366","lat":25.092504,"lon":121.472548,"name":"祥意牛肉麵餃子館","decorType":"restaurant"},{"id":"node-7820702369","lat":25.09099,"lon":121.474115,"name":"八方雲集","decorType":"burger"},{"id":"node-7820702371","lat":25.093477,"lon":121.471822,"name":"美味漢堡","decorType":"restaurant"},{"id":"node-7820702375","lat":25.091972,"lon":121.472659,"name":"碳烤鹹酥雞","decorType":"restaurant"},{"id":"node-7820702379","lat":25.09187,"lon":121.473112,"name":"松三町","decorType":"restaurant"},{"id":"node-7820702382","lat":25.091306,"lon":121.47472,"name":"滿面春風自助餐","decorType":"restaurant"},{"id":"node-7820702393","lat":25.09171,"lon":121.47363,"name":"日久阿囉哈漢堡","decorType":"restaurant"},{"id":"node-7820702403","lat":25.09127,"lon":121.475234,"name":"樂多日式涮涮鍋","decorType":"restaurant"},{"id":"node-7820702407","lat":25.08977,"lon":121.477907,"name":"銓麥美而美","decorType":"restaurant"},{"id":"node-7820702410","lat":25.09122,"lon":121.474117,"name":"張家嘉義雞肉飯","decorType":"restaurant"},{"id":"node-7820702418","lat":25.091274,"lon":121.474784,"name":"實價便當","decorType":"restaurant"},{"id":"node-7820702424","lat":25.093322,"lon":121.471986,"name":"弘爺漢堡","decorType":"burger"},{"id":"node-7820702425","lat":25.091973,"lon":121.473475,"name":"素食麵店","decorType":"restaurant"},{"id":"node-7820702428","lat":25.089014,"lon":121.478205,"name":"蘆洲306炒飯炒麵","decorType":"restaurant"},{"id":"node-7820702433","lat":25.091025,"lon":121.475848,"name":"阿妙平價生猛海鮮","decorType":"restaurant"},{"id":"node-7820702439","lat":25.090902,"lon":121.4741,"name":"吉野烤肉飯","decorType":"restaurant"},{"id":"node-7820702461","lat":25.091703,"lon":121.47427,"name":"豐原排骨麵","decorType":"restaurant"},{"id":"node-7820702463","lat":25.09003,"lon":121.477614,"name":"早安宇宙人-地球本部","decorType":"restaurant"},{"id":"node-7820702466","lat":25.09258,"lon":121.47246,"name":"錢老爺涮涮鍋","decorType":"restaurant"},{"id":"node-7820702474","lat":25.089854,"lon":121.477789,"name":"丼食堂","decorType":"restaurant"},{"id":"node-7820702478","lat":25.093662,"lon":121.471549,"name":"咕咕米","decorType":"restaurant"},{"id":"node-7820702481","lat":25.088179,"lon":121.477594,"name":"FunFood","decorType":"restaurant"},{"id":"node-7820702487","lat":25.09245,"lon":121.472543,"name":"炸王鹹酥雞","decorType":"restaurant"},{"id":"node-7820702490","lat":25.091377,"lon":121.475038,"name":"樂錢嘟日式涮涮鍋","decorType":"restaurant"},{"id":"node-7820702496","lat":25.091719,"lon":121.473435,"name":"吉客屋","decorType":"restaurant"},{"id":"node-7820702508","lat":25.089558,"lon":121.47987,"name":"青豐園雞肉飯","decorType":"restaurant"},{"id":"node-7820702520","lat":25.089065,"lon":121.478191,"name":"小邱豬腸冬粉","decorType":"restaurant"},{"id":"node-7820702524","lat":25.08795,"lon":121.477378,"name":"基隆傳家寶營養三明治","decorType":"restaurant"},{"id":"node-7820702539","lat":25.093948,"lon":121.473609,"name":"許~烏醋麵","decorType":"restaurant"},{"id":"node-7984643957","lat":25.087545,"lon":121.476451,"name":"三媽臭臭鍋","decorType":"restaurant"},{"id":"node-8118206940","lat":25.088835,"lon":121.473187,"name":"7-Eleven","decorType":"convenience"},{"id":"node-8118272795","lat":25.093795,"lon":121.473869,"name":"全家便利商店","decorType":"convenience"},{"id":"node-8118272796","lat":25.089783,"lon":121.473073,"name":"全家便利商店","decorType":"convenience"},{"id":"node-8118272797","lat":25.088086,"lon":121.471685,"name":"全家便利商店","decorType":"convenience"},{"id":"node-8118272799","lat":25.087619,"lon":121.48198,"name":"全家便利商店","decorType":"convenience"},{"id":"node-8267397425","lat":25.088818,"lon":121.471466,"name":"墨爾漢堡","decorType":"restaurant"},{"id":"node-8267397426","lat":25.089324,"lon":121.472431,"name":"日日香","decorType":"restaurant"},{"id":"node-8267397427","lat":25.087573,"lon":121.474729,"name":"YT House 早午餐","decorType":"restaurant"},{"id":"node-8267397428","lat":25.088632,"lon":121.47292,"name":"Go巴豆","decorType":"restaurant"},{"id":"node-8267397429","lat":25.087276,"lon":121.477705,"name":"無刺虱目魚專賣店","decorType":"restaurant"},{"id":"node-8267397430","lat":25.087499,"lon":121.4768,"name":"掬壽司","decorType":"restaurant"},{"id":"node-8267397431","lat":25.088217,"lon":121.471811,"name":"佳味仙鍋燒麵","decorType":"restaurant"},{"id":"node-8267397432","lat":25.087387,"lon":121.476626,"name":"麥香美而美","decorType":"restaurant"},{"id":"node-8267397433","lat":25.087223,"lon":121.477785,"name":"花媽米粉湯","decorType":"restaurant"},{"id":"node-8267397434","lat":25.087433,"lon":121.477834,"name":"信義豆漿小籠包","decorType":"restaurant"},{"id":"node-8267397435","lat":25.087076,"lon":121.472106,"name":"breakfast Holic 早餐控","decorType":"restaurant"},{"id":"node-8267397436","lat":25.087363,"lon":121.477849,"name":"林家排骨酥麵","decorType":"restaurant"},{"id":"node-8267397437","lat":25.088594,"lon":121.47322,"name":"早安美芝城","decorType":"burger"},{"id":"node-8267397438","lat":25.087714,"lon":121.475024,"name":"和尚洲切仔麵","decorType":"restaurant"},{"id":"node-8267397439","lat":25.087686,"lon":121.477084,"name":"早安美芝城","decorType":"burger"},{"id":"node-8267397440","lat":25.087615,"lon":121.477402,"name":"九兩雞排王","decorType":"restaurant"},{"id":"node-8267397441","lat":25.086861,"lon":121.471883,"name":"七巧板麵食文化館","decorType":"restaurant"},{"id":"node-8267397442","lat":25.087348,"lon":121.476528,"name":"吉祥早餐店","decorType":"restaurant"},{"id":"node-8267397443","lat":25.087826,"lon":121.477435,"name":"蘆洲手工小籠包","decorType":"restaurant"},{"id":"node-8267397444","lat":25.087789,"lon":121.477478,"name":"ZG炸雞 @Zar Gie","decorType":"restaurant"},{"id":"node-8267397445","lat":25.086542,"lon":121.471787,"name":"老麵饅頭 麥釀","decorType":"restaurant"},{"id":"node-8267397446","lat":25.088009,"lon":121.471777,"name":"蛋餅焦了Brunch x Coffee","decorType":"restaurant"},{"id":"node-8267397447","lat":25.089204,"lon":121.471863,"name":"田川町串燒居酒屋","decorType":"restaurant"},{"id":"node-8267397448","lat":25.0891,"lon":121.472766,"name":"有義式","decorType":"restaurant"},{"id":"node-8267397449","lat":25.086899,"lon":121.478256,"name":"橘子可麗餅","decorType":"restaurant"},{"id":"node-8267397450","lat":25.089204,"lon":121.472257,"name":"巨林美而美","decorType":"burger"},{"id":"node-8267397451","lat":25.088445,"lon":121.47371,"name":"芯麵食","decorType":"restaurant"},{"id":"node-8267397453","lat":25.087498,"lon":121.472846,"name":"貝爾納早午餐","decorType":"restaurant"},{"id":"node-8267397454","lat":25.088229,"lon":121.473967,"name":"吉堡複合式餐飲店","decorType":"restaurant"},{"id":"node-8267397455","lat":25.087985,"lon":121.472017,"name":"城市漢堡","decorType":"restaurant"},{"id":"node-8267397456","lat":25.087468,"lon":121.477535,"name":"金川精緻自助餐","decorType":"restaurant"},{"id":"node-8267397457","lat":25.088702,"lon":121.471609,"name":"家常大滷麵","decorType":"restaurant"},{"id":"node-8267397458","lat":25.087691,"lon":121.476797,"name":"家味甜不辣、肉圓","decorType":"restaurant"},{"id":"node-8267397459","lat":25.088702,"lon":121.473372,"name":"新酒國熱炒","decorType":"restaurant"},{"id":"node-8267397460","lat":25.087065,"lon":121.471998,"name":"鏊屋","decorType":"restaurant"},{"id":"node-8267397461","lat":25.089306,"lon":121.472469,"name":"牛肉拉麵","decorType":"restaurant"},{"id":"node-8267397462","lat":25.088645,"lon":121.47316,"name":"正大永和豆漿","decorType":"restaurant"},{"id":"node-8385313582","lat":25.087115,"lon":121.481276,"name":"八方雲集","decorType":"burger"},{"id":"node-8432400623","lat":25.092278,"lon":121.472576,"name":"仁愛街口","decorType":"bus_stop"},{"id":"node-8432400624","lat":25.092135,"lon":121.472546,"name":"仁愛街口","decorType":"bus_stop"},{"id":"node-8432401056","lat":25.094026,"lon":121.47105,"name":"仁愛街93巷口","decorType":"bus_stop"},{"id":"node-8432401057","lat":25.094088,"lon":121.470573,"name":"仁愛街101巷口","decorType":"bus_stop"},{"id":"node-9342491845","lat":25.087846,"lon":121.479523,"name":"蝦皮店到店","decorType":"convenience"},{"id":"node-9342491852","lat":25.090909,"lon":121.471678,"name":"蝦皮店到店","decorType":"convenience"},{"id":"node-9443682306","lat":25.085802,"lon":121.481808,"name":"La New","decorType":"clothing"},{"id":"node-9443935733","lat":25.086699,"lon":121.479955,"name":"50嵐","decorType":"cafe"},{"id":"node-9443935734","lat":25.086449,"lon":121.479877,"name":"潮味決","decorType":"restaurant"},{"id":"node-9443935735","lat":25.086569,"lon":121.479654,"name":"路歐利","decorType":"bakery"},{"id":"node-9443935736","lat":25.085735,"lon":121.479306,"name":"港式脆皮臭豆腐","decorType":"restaurant"},{"id":"node-9444013256","lat":25.091389,"lon":121.474944,"name":"CoCo都可","decorType":"cafe"},{"id":"node-9444013308","lat":25.090987,"lon":121.475915,"name":"萊爾富","decorType":"convenience"},{"id":"node-9444013309","lat":25.090608,"lon":121.476224,"name":"大樹藥局","decorType":"pharmacy"},{"id":"node-9444013312","lat":25.090263,"lon":121.476808,"name":"全家便利商店","decorType":"convenience"},{"id":"node-9444013313","lat":25.090388,"lon":121.477002,"name":"7-Eleven","decorType":"convenience"},{"id":"node-9444015930","lat":25.089571,"lon":121.477798,"name":"美廉社","decorType":"supermarket"},{"id":"node-9444373344","lat":25.091977,"lon":121.473432,"name":"美廉社","decorType":"supermarket"},{"id":"node-9672098458","lat":25.085617,"lon":121.479175,"name":"大茂五金行","decorType":"hardware"},{"id":"node-9672098459","lat":25.085643,"lon":121.479205,"name":"大佳原汁牛肉麵","decorType":"restaurant"},{"id":"node-9672098460","lat":25.085705,"lon":121.479275,"name":"彌勒素食","decorType":"restaurant"},{"id":"node-9672098461","lat":25.085823,"lon":121.47941,"name":"制服運動服專賣店","decorType":"clothing"},{"id":"node-9672098462","lat":25.086001,"lon":121.479605,"name":"甲品香雞肉飯","decorType":"restaurant"},{"id":"node-9672098463","lat":25.08623,"lon":121.479757,"name":"日式威廉","decorType":"hair_salon"},{"id":"node-9672098465","lat":25.086096,"lon":121.47967,"name":"手機店","decorType":"electronics"},{"id":"node-9672098473","lat":25.085574,"lon":121.48022,"name":"豆之府","decorType":"restaurant"},{"id":"node-9672098475","lat":25.086784,"lon":121.480112,"name":"翔念電料","decorType":"electronics"},{"id":"node-9672098476","lat":25.086791,"lon":121.480246,"name":"中興號雞肉飯便當","decorType":"restaurant"},{"id":"node-9672098477","lat":25.086792,"lon":121.480313,"name":"玉皇珍鴨肉","decorType":"restaurant"},{"id":"node-9672098480","lat":25.0868,"lon":121.48051,"name":"家庭五金","decorType":"hardware"},{"id":"node-9672098481","lat":25.08681,"lon":121.480573,"name":"林內 Rinnai","decorType":"electronics"},{"id":"node-9674433088","lat":25.08697,"lon":121.480049,"name":"儷髮院","decorType":"hair_salon"},{"id":"node-9674433091","lat":25.086985,"lon":121.480359,"name":"玖八牛排","decorType":"restaurant"},{"id":"node-9674433092","lat":25.08694,"lon":121.480587,"name":"呷尚寶","decorType":"burger"},{"id":"node-9682743650","lat":25.087781,"lon":121.47956,"name":"歐米樂烘焙坊","decorType":"bakery"},{"id":"node-9682743651","lat":25.087996,"lon":121.479441,"name":"巨林美而美","decorType":"burger"},{"id":"node-9682743654","lat":25.086789,"lon":121.479728,"name":"捌食貳","decorType":"restaurant"},{"id":"node-9682743655","lat":25.086739,"lon":121.479709,"name":"傑昇通信","decorType":"electronics"},{"id":"node-9682743656","lat":25.086666,"lon":121.479787,"name":"魔法義大利","decorType":"restaurant"},{"id":"node-9682743657","lat":25.086506,"lon":121.479624,"name":"Panasonic","decorType":"electronics"},{"id":"node-9682743658","lat":25.086465,"lon":121.479609,"name":"聲寶","decorType":"electronics"},{"id":"node-9682743659","lat":25.086278,"lon":121.47961,"name":"弘昌牛肉麵","decorType":"restaurant"},{"id":"node-9689133564","lat":25.086104,"lon":121.479333,"name":"喜芝梅名品","decorType":"clothing"},{"id":"node-9689133565","lat":25.086065,"lon":121.479283,"name":"品沅燒臘","decorType":"restaurant"},{"id":"node-9689133567","lat":25.085995,"lon":121.479196,"name":"Oppo","decorType":"electronics"},{"id":"node-9689133568","lat":25.085852,"lon":121.479049,"name":"享烤串燒","decorType":"restaurant"},{"id":"node-9689133569","lat":25.08582,"lon":121.479001,"name":"東翔港式燒臘","decorType":"restaurant"},{"id":"node-9689133570","lat":25.085755,"lon":121.47894,"name":"精緻快剪","decorType":"hair_salon"},{"id":"node-9689133571","lat":25.086227,"lon":121.47923,"name":"玄德宮","decorType":"shrine"},{"id":"node-9781525035","lat":25.091139,"lon":121.47429,"name":"蝦皮店到店","decorType":"convenience"},{"id":"node-11202037329","lat":25.094112,"lon":121.473973,"name":"清海宮","decorType":"shrine"},{"id":"node-11336260488","lat":25.089145,"lon":121.480272,"name":"妙天宮","decorType":"shrine"},{"id":"node-13423799001","lat":25.093651,"lon":121.470121,"name":"萊爾富","decorType":"convenience"},{"id":"way-425758291","lat":25.091132,"lon":121.479492,"name":"蘆洲護天宮地母廟","decorType":"shrine"},{"id":"way-447628457","lat":25.086122,"lon":121.47292,"name":"九如園","decorType":"park"},{"id":"way-499641147","lat":25.095737,"lon":121.471048,"name":"未命名橋樑","decorType":"bridge"},{"id":"way-548732928","lat":25.090514,"lon":121.470898,"name":"仁愛廣場公園","decorType":"park"},{"id":"way-689393529","lat":25.096979,"lon":121.478863,"name":"未命名水邊","decorType":"waterside"},{"id":"way-700864595","lat":25.089024,"lon":121.475728,"name":"蘆洲兒四公園","decorType":"park"},{"id":"way-729334913","lat":25.088774,"lon":121.480973,"name":"未命名公園","decorType":"park"},{"id":"way-763106199","lat":25.085891,"lon":121.477625,"name":"未命名公園","decorType":"park"},{"id":"way-836631436","lat":25.088672,"lon":121.470202,"name":"林建生紀念圖書館","decorType":"library"},{"id":"way-941726593","lat":25.09266,"lon":121.480366,"name":"未命名森林","decorType":"forest"},{"id":"way-941726594","lat":25.093079,"lon":121.478781,"name":"未命名森林","decorType":"forest"},{"id":"way-1059614314","lat":25.088145,"lon":121.482019,"name":"未命名神社","decorType":"shrine"}]}