{"bbox":{"south":25.08555,"north":25.101156,"west":121.600344,"east":121.613375},"pois":[{"id":"way-420434168","lat":25.08796,"lon":121.605915,"name":"未命名水邊","decorType":"waterside"},{"id":"node-2482646446","lat":25.094824,"lon":121.609871,"name":"牛稠尾山","decorType":"mountain"},{"id":"node-2482647800","lat":25.090807,"lon":121.60421,"name":"大湖山","decorType":"mountain"},{"id":"node-2482647825","lat":25.087216,"lon":121.61313,"name":"聖明山","decorType":"mountain"},{"id":"node-2616251905","lat":25.08614,"lon":121.601501,"name":"全聯福利中心","decorType":"supermarket"},{"id":"node-4714777892","lat":25.092219,"lon":121.604799,"name":"牛稠湖山","decorType":"mountain"},{"id":"node-7749806936","lat":25.085651,"lon":121.601832,"name":"福藏泰然","decorType":"restaurant"},{"id":"node-7749806962","lat":25.086176,"lon":121.601859,"name":"好鄰居早餐店","decorType":"restaurant"},{"id":"node-7749806968","lat":25.086226,"lon":121.601838,"name":"小浪山山","decorType":"restaurant"},{"id":"node-7797695418","lat":25.087537,"lon":121.6015,"name":"味亦美早餐店","decorType":"restaurant"},{"id":"node-8420296413","lat":25.088165,"lon":121.601143,"name":"萊爾富","decorType":"convenience"},{"id":"node-8432400019","lat":25.086012,"lon":121.601691,"name":"大湖區民活動中心","decorType":"bus_stop"},{"id":"node-8432400020","lat":25.087774,"lon":121.601404,"name":"大湖山莊街169巷","decorType":"bus_stop"},{"id":"node-8979908757","lat":25.094247,"lon":121.613099,"name":"東牛稠尾山","decorType":"mountain"},{"id":"node-13078094328","lat":25.092346,"lon":121.609545,"name":"未命名山丘","decorType":"mountain"},{"id":"node-13078094329","lat":25.088486,"lon":121.609553,"name":"未命名山丘","decorType":"mountain"},{"id":"way-382224144","lat":25.086157,"lon":121.612782,"name":"安泰溪","decorType":"waterside"},{"id":"way-420434163","lat":25.087056,"lon":121.606465,"name":"荷花池","decorType":"waterside"},{"id":"way-420457746","lat":25.094002,"lon":121.605671,"name":"大湖土地公廟","decorType":"shrine"},{"id":"way-420457747","lat":25.093623,"lon":121.607083,"name":"未命名水邊","decorType":"waterside"},{"id":"way-420457748","lat":25.092899,"lon":121.607326,"name":"未命名水邊","decorType":"waterside"},{"id":"way-430668175","lat":25.097966,"lon":121.611433,"name":"未命名水邊","decorType":"waterside"},{"id":"way-762069577","lat":25.100242,"lon":121.609012,"name":"未命名水邊","decorType":"waterside"},{"id":"way-773675401","lat":25.092482,"lon":121.606951,"name":"成功路五段120巷","decorType":"bridge"},{"id":"way-773675405","lat":25.085944,"lon":121.612504,"name":"安泰街","decorType":"bridge"},{"id":"way-773675409","lat":25.090775,"lon":121.60735,"name":"未命名橋樑","decorType":"bridge"},{"id":"way-773675411","lat":25.087285,"lon":121.607275,"name":"未命名橋樑","decorType":"bridge"},{"id":"way-824890699","lat":25.087146,"lon":121.604449,"name":"未命名公園","decorType":"park"},{"id":"way-902578517","lat":25.086711,"lon":121.606463,"name":"木板橋","decorType":"bridge"},{"id":"way-1178593470","lat":25.086447,"lon":121.602151,"name":"翠湖公園","decorType":"park"},{"id":"way-1320349480","lat":25.088329,"lon":121.610991,"name":"未命名水邊","decorType":"waterside"},{"id":"way-1320349489","lat":25.099885,"lon":121.603645,"name":"未命名水邊","decorType":"waterside"},{"id":"way-1320349491","lat":25.095628,"lon":121.602725,"name":"未命名水邊","decorType":"waterside"},{"id":"way-1320349492","lat":25.097481,"lon":121.601357,"name":"未命名水邊","decorType":"waterside"},{"id":"way-1443855367","lat":25.098336,"lon":121.612286,"name":"內溝溪","decorType":"waterside"},{"id":"way-1443855373","lat":25.097864,"lon":121.612931,"name":"未命名水邊","decorType":"waterside"},{"id":"way-1443855374","lat":25.097919,"lon":121.612722,"name":"未命名水邊","decorType":"waterside"},{"id":"way-1443855375","lat":25.10078,"lon":121.611747,"name":"未命名水邊","decorType":"waterside"},{"id":"way-1443855377","lat":25.100489,"lon":121.609972,"name":"內溝溪","decorType":"waterside"},{"id":"way-1450452638","lat":25.094737,"lon":121.600628,"name":"未命名水邊","decorType":"waterside"},{"id":"way-1450452639","lat":25.095145,"lon":121.601345,"name":"未命名水邊","decorType":"waterside"},{"id":"way-1450452640","lat":25.094854,"lon":121.601331,"name":"未命名水邊","decorType":"waterside"},{"id":"way-1450452641","lat":25.094952,"lon":121.601608,"name":"未命名水邊","decorType":"waterside"},{"id":"way-1450452642","lat":25.095093,"lon":121.601887,"name":"未命名水邊","decorType":"waterside"},{"id":"way-1450452643","lat":25.09523,"lon":121.602146,"name":"未命名水邊","decorType":"waterside"}]}