{"bbox":{"south":25.10115625,"north":25.1167625,"west":121.6394375,"east":121.65246875},"pois":[{"id":"node-2482629159","lat":25.1031731,"lon":121.649708,"name":"刣狗寮山","decorType":"mountain"},{"id":"node-4360901113","lat":25.1048637,"lon":121.6462445,"name":"福中居茶坊","decorType":"restaurant"},{"id":"node-5558091159","lat":25.1050146,"lon":121.6519982,"name":"圍貓尖山","decorType":"mountain"},{"id":"node-6778890206","lat":25.1040012,"lon":121.6447663,"name":"正德廟","decorType":"shrine"},{"id":"node-7044278789","lat":25.1089365,"lon":121.6399491,"name":"柯子林峽谷","decorType":"bus_stop"},{"id":"node-8432380506","lat":25.110236,"lon":121.647696,"name":"瑞士山莊一","decorType":"bus_stop"},{"id":"node-8432400035","lat":25.112898,"lon":121.645644,"name":"瑞松街199巷口","decorType":"bus_stop"},{"id":"node-8432400075","lat":25.105855,"lon":121.645489,"name":"興樺汽車","decorType":"bus_stop"},{"id":"node-8432400102","lat":25.112934,"lon":121.644024,"name":"瑞松街204巷口","decorType":"bus_stop"},{"id":"node-8432400349","lat":25.110245,"lon":121.646652,"name":"瑞士山莊","decorType":"bus_stop"},{"id":"node-8432400356","lat":25.105936,"lon":121.645449,"name":"興樺汽車","decorType":"bus_stop"},{"id":"node-8432400357","lat":25.1081618,"lon":121.6418005,"name":"夢湖路口","decorType":"bus_stop"},{"id":"node-8432400361","lat":25.109937,"lon":121.645522,"name":"瑞松街146號","decorType":"bus_stop"},{"id":"node-8432400647","lat":25.110719,"lon":121.648643,"name":"瑞松街網球場","decorType":"bus_stop"},{"id":"node-8432400991","lat":25.10878,"lon":121.640995,"name":"廖厝","decorType":"bus_stop"},{"id":"node-8432401001","lat":25.105075,"lon":121.6448885,"name":"四川橋","decorType":"bus_stop"},{"id":"node-8432401002","lat":25.105071,"lon":121.6449638,"name":"四川橋","decorType":"bus_stop"},{"id":"node-8432401005","lat":25.1030338,"lon":121.6438642,"name":"月牙泉","decorType":"bus_stop"},{"id":"node-8432401006","lat":25.1031438,"lon":121.643832,"name":"月牙泉","decorType":"bus_stop"},{"id":"node-8479809942","lat":25.1045882,"lon":121.6440166,"name":"烘內","decorType":"bus_stop"},{"id":"node-8479809943","lat":25.1045882,"lon":121.6441577,"name":"烘內","decorType":"bus_stop"},{"id":"node-8479809944","lat":25.110044,"lon":121.6453591,"name":"瑞松街146號","decorType":"bus_stop"},{"id":"way-285206749","lat":25.109026,"lon":121.6394597,"name":"北港溪","decorType":"waterside"},{"id":"way-573510357","lat":25.1091023,"lon":121.6463945,"name":"未命名水邊","decorType":"waterside"},{"id":"way-574669858","lat":25.1079926,"lon":121.6420872,"name":"一號橋","decorType":"bridge"},{"id":"way-625036979","lat":25.1129177,"lon":121.6418186,"name":"未命名水邊","decorType":"waterside"},{"id":"way-625036984","lat":25.1125393,"lon":121.6408758,"name":"未命名水邊","decorType":"waterside"},{"id":"way-722665056","lat":25.1043696,"lon":121.6446939,"name":"臺灣道承宮","decorType":"shrine"},{"id":"way-722665059","lat":25.1040525,"lon":121.6450142,"name":"南天宮","decorType":"shrine"},{"id":"way-878682991","lat":25.1127302,"lon":121.6521853,"name":"十四坑溪","decorType":"waterside"},{"id":"way-878682992","lat":25.1138669,"lon":121.6515889,"name":"十四坑溪","decorType":"waterside"},{"id":"way-878682993","lat":25.1147436,"lon":121.6491517,"name":"十四坑溪","decorType":"waterside"},{"id":"way-878682994","lat":25.1150475,"lon":121.649842,"name":"未命名水邊","decorType":"waterside"},{"id":"way-1060240793","lat":25.1142181,"lon":121.6419446,"name":"靈隱寺","decorType":"shrine"},{"id":"way-1060240794","lat":25.1145094,"lon":121.6422487,"name":"未命名水邊","decorType":"waterside"},{"id":"way-1077740920","lat":25.1090298,"lon":121.6410424,"name":"未命名水邊","decorType":"waterside"},{"id":"way-1443855338","lat":25.1117216,"lon":121.6416863,"name":"未命名水邊","decorType":"waterside"},{"id":"way-1443855339","lat":25.1120547,"lon":121.641911,"name":"未命名水邊","decorType":"waterside"},{"id":"way-1443855341","lat":25.1082403,"lon":121.6417655,"name":"二號橋","decorType":"bridge"},{"id":"way-1443855344","lat":25.1160938,"lon":121.6484133,"name":"未命名水邊","decorType":"waterside"},{"id":"way-1443855345","lat":25.1160699,"lon":121.6485163,"name":"未命名水邊","decorType":"waterside"},{"id":"way-1450364886","lat":25.1052204,"lon":121.6453126,"name":"北港溪","decorType":"waterside"},{"id":"way-1450745859","lat":25.113514,"lon":121.6522529,"name":"十四坑溪","decorType":"waterside"},{"id":"way-1450745860","lat":25.1136574,"lon":121.6521018,"name":"十四坑溪","decorType":"waterside"}]}