{"bbox":{"south":25.10115625,"north":25.1167625,"west":121.509125,"east":121.52215625},"pois":[{"id":"way-1102515779","lat":25.1023006,"lon":121.5101301,"name":"未命名森林","decorType":"forest"},{"id":"way-1102515784","lat":25.1051829,"lon":121.5095803,"name":"未命名森林","decorType":"forest"},{"id":"way-1102515814","lat":25.1078295,"lon":121.5092229,"name":"未命名森林","decorType":"forest"},{"id":"node-1801386528","lat":25.1040702,"lon":121.5212679,"name":"7-Eleven","decorType":"convenience"},{"id":"node-1843810192","lat":25.1163728,"lon":121.5179733,"name":"7-Eleven","decorType":"convenience"},{"id":"node-1843811036","lat":25.1165285,"lon":121.5162299,"name":"星巴克","decorType":"cafe"},{"id":"node-2321729253","lat":25.1026754,"lon":121.5215345,"name":"未命名公園","decorType":"park"},{"id":"node-2587937512","lat":25.1029216,"lon":121.5216897,"name":"未命名美髮院","decorType":"hair_salon"},{"id":"node-2587937515","lat":25.1029167,"lon":121.5216388,"name":"未命名超市","decorType":"supermarket"},{"id":"node-2622769196","lat":25.1148318,"lon":121.515347,"name":"未命名車站","decorType":"station"},{"id":"node-2622770959","lat":25.1135311,"lon":121.5162464,"name":"未命名車站","decorType":"station"},{"id":"node-2628218112","lat":25.1145435,"lon":121.5175259,"name":"萊爾富","decorType":"convenience"},{"id":"node-2628220590","lat":25.1147381,"lon":121.517561,"name":"達美樂","decorType":"restaurant"},{"id":"node-2703456598","lat":25.1044411,"lon":121.521528,"name":"德行西路","decorType":"bus_stop"},{"id":"node-2703456599","lat":25.1041022,"lon":121.5211471,"name":"德行西路","decorType":"bus_stop"},{"id":"node-2703459229","lat":25.1025332,"lon":121.5206905,"name":"捷運芝山站 (戲曲中心)","decorType":"bus_stop"},{"id":"node-2703459230","lat":25.1025428,"lon":121.520152,"name":"捷運芝山站 (戲曲中心)","decorType":"bus_stop"},{"id":"node-2705324688","lat":25.1159494,"lon":121.5155418,"name":"綜合市場","decorType":"bus_stop"},{"id":"node-2705324690","lat":25.1159707,"lon":121.5159469,"name":"綜合市場","decorType":"bus_stop"},{"id":"node-2705327511","lat":25.1148675,"lon":121.5156837,"name":"捷運石牌站(東華)","decorType":"bus_stop"},{"id":"node-2705336340","lat":25.1146778,"lon":121.5150492,"name":"捷運石牌站(西安)","decorType":"bus_stop"},{"id":"node-2706257574","lat":25.1143022,"lon":121.5131743,"name":"石牌國小","decorType":"bus_stop"},{"id":"node-2706257576","lat":25.1143513,"lon":121.5128767,"name":"石牌國小","decorType":"bus_stop"},{"id":"node-2706266518","lat":25.1134184,"lon":121.5110733,"name":"石牌路","decorType":"bus_stop"},{"id":"node-2706266519","lat":25.1133495,"lon":121.5107358,"name":"石牌路","decorType":"bus_stop"},{"id":"node-2706266521","lat":25.109485,"lon":121.5123751,"name":"石牌","decorType":"bus_stop"},{"id":"node-2706266522","lat":25.1101942,"lon":121.512085,"name":"石牌","decorType":"bus_stop"},{"id":"node-2706291116","lat":25.1070808,"lon":121.5150915,"name":"文林國小","decorType":"bus_stop"},{"id":"node-2706291117","lat":25.1075391,"lon":121.5150614,"name":"文林國小","decorType":"bus_stop"},{"id":"node-2706291118","lat":25.1049776,"lon":121.517877,"name":"中正高中","decorType":"bus_stop"},{"id":"node-2706291119","lat":25.1056787,"lon":121.5174097,"name":"中正高中","decorType":"bus_stop"},{"id":"node-2711808350","lat":25.1160554,"lon":121.514783,"name":"義理街口","decorType":"bus_stop"},{"id":"node-2711808351","lat":25.1166803,"lon":121.5136853,"name":"石牌國中","decorType":"bus_stop"},{"id":"node-2714943512","lat":25.115496,"lon":121.5203395,"name":"宏國新村","decorType":"bus_stop"},{"id":"node-2714943513","lat":25.1154093,"lon":121.5204212,"name":"宏國新村","decorType":"bus_stop"},{"id":"node-2714944814","lat":25.1123563,"lon":121.5216704,"name":"奎山國中","decorType":"bus_stop"},{"id":"node-2714944815","lat":25.112295,"lon":121.5217802,"name":"奎山國中","decorType":"bus_stop"},{"id":"node-2714944930","lat":25.1104555,"lon":121.5207154,"name":"明德路","decorType":"bus_stop"},{"id":"node-2714944931","lat":25.1102039,"lon":121.5203278,"name":"明德路","decorType":"bus_stop"},{"id":"node-2714945927","lat":25.1076962,"lon":121.5180512,"name":"明德國中","decorType":"bus_stop"},{"id":"node-2714945928","lat":25.1070197,"lon":121.5175958,"name":"明德國中","decorType":"bus_stop"},{"id":"node-2923101923","lat":25.1105392,"lon":121.5146161,"name":"7-Eleven","decorType":"convenience"},{"id":"node-2923101924","lat":25.1106025,"lon":121.5148848,"name":"屈臣氏","decorType":"pharmacy"},{"id":"node-2956950317","lat":25.115307,"lon":121.5095914,"name":"全家便利商店","decorType":"convenience"},{"id":"node-3034549343","lat":25.1119771,"lon":121.510234,"name":"五花肉飯","decorType":"restaurant"},{"id":"node-3495094878","lat":25.1098593,"lon":121.5187693,"name":"明德","decorType":"station"},{"id":"node-3495094879","lat":25.1146071,"lon":121.5155232,"name":"石牌","decorType":"station"},{"id":"node-3661063904","lat":25.1159005,"lon":121.5217483,"name":"美髮部","decorType":"hair_salon"},{"id":"node-3673618209","lat":25.1020441,"lon":121.5124907,"name":"建民里","decorType":"bus_stop"},{"id":"node-3673618210","lat":25.1029646,"lon":121.5119671,"name":"建民里","decorType":"bus_stop"},{"id":"node-3673618211","lat":25.1050727,"lon":121.5121777,"name":"建民里一","decorType":"bus_stop"},{"id":"node-3673618217","lat":25.1050472,"lon":121.5117723,"name":"建民里一","decorType":"bus_stop"},{"id":"node-3680387891","lat":25.1041279,"lon":121.5219995,"name":"老街切仔麵","decorType":"restaurant"},{"id":"node-3682736009","lat":25.1038153,"lon":121.520692,"name":"凡遊動漫租借","decorType":"library"},{"id":"node-3683171365","lat":25.1032485,"lon":121.5199528,"name":"萊爾富","decorType":"convenience"},{"id":"node-3687984550","lat":25.1041371,"lon":121.5209026,"name":"麗莎專業美髮沙龍","decorType":"hair_salon"},{"id":"node-3701501244","lat":25.1092448,"lon":121.5191154,"name":"捷運明德站","decorType":"bus_stop"},{"id":"node-3702793963","lat":25.1037042,"lon":121.5196692,"name":"長疆炭燒羊肉爐","decorType":"restaurant"},{"id":"node-3702793965","lat":25.104689,"lon":121.5218166,"name":"蚵仔煎魷魚羹","decorType":"restaurant"},{"id":"node-3704491035","lat":25.1043573,"lon":121.5213057,"name":"芝山鵝肉切仔麵","decorType":"restaurant"},{"id":"node-3704491037","lat":25.1042929,"lon":121.5212042,"name":"夏威夷咖啡館","decorType":"restaurant"},{"id":"node-3707345719","lat":25.1035188,"lon":121.5201953,"name":"紅霸天碳燒薑母鴨","decorType":"restaurant"},{"id":"node-3711235221","lat":25.1035721,"lon":121.5203066,"name":"太陽公公","decorType":"laundry"},{"id":"node-3711235222","lat":25.1044403,"lon":121.5219109,"name":"屈臣氏","decorType":"pharmacy"},{"id":"node-3711235223","lat":25.1044498,"lon":121.5218196,"name":"北投志明牛肉拉麵","decorType":"ramen"},{"id":"node-3711235925","lat":25.1037451,"lon":121.5205738,"name":"ArtYes時尚沙龍","decorType":"cosmetics"},{"id":"node-3717742602","lat":25.1036787,"lon":121.5204397,"name":"立功","decorType":"electronics"},{"id":"node-3730373622","lat":25.1036284,"lon":121.5218973,"name":"HOU","decorType":"cafe"},{"id":"node-3730373623","lat":25.1036284,"lon":121.5219635,"name":"天丼專門店","decorType":"restaurant"},{"id":"node-3730373727","lat":25.1043499,"lon":121.5219336,"name":"福華飯包","decorType":"restaurant"},{"id":"node-3744240092","lat":25.1090989,"lon":121.5188848,"name":"全家便利商店","decorType":"convenience"},{"id":"node-3744240093","lat":25.1120364,"lon":121.5167324,"name":"全家便利商店","decorType":"convenience"},{"id":"node-3744240100","lat":25.1098021,"lon":121.519132,"name":"捷運明德站(東華)","decorType":"bus_stop"},{"id":"node-3744240101","lat":25.1091645,"lon":121.5188438,"name":"捷運明德站(西安)","decorType":"bus_stop"},{"id":"node-3744245316","lat":25.112151,"lon":121.5176625,"name":"自強街口(東華)","decorType":"bus_stop"},{"id":"node-3744245317","lat":25.1123042,"lon":121.5165876,"name":"自強街口(西安)","decorType":"bus_stop"},{"id":"node-3744245327","lat":25.1089997,"lon":121.5188053,"name":"7-Eleven","decorType":"convenience"},{"id":"node-3744245328","lat":25.1094766,"lon":121.5194043,"name":"7-Eleven","decorType":"convenience"},{"id":"node-3755095934","lat":25.1156417,"lon":121.5199564,"name":"全家便利商店","decorType":"convenience"},{"id":"node-3776735653","lat":25.1113159,"lon":121.5175275,"name":"北巡宮","decorType":"shrine"},{"id":"node-3784303151","lat":25.1141314,"lon":121.5196638,"name":"7-Eleven","decorType":"convenience"},{"id":"node-3784303383","lat":25.111076,"lon":121.5192515,"name":"全聯福利中心","decorType":"supermarket"},{"id":"node-3785978439","lat":25.1110996,"lon":121.521126,"name":"益全便當","decorType":"restaurant"},{"id":"node-3785978440","lat":25.1115774,"lon":121.5210443,"name":"家樂福超市","decorType":"supermarket"},{"id":"node-3786805508","lat":25.1116573,"lon":121.512472,"name":"玄帝宮","decorType":"shrine"},{"id":"node-3798721495","lat":25.1056509,"lon":121.5176585,"name":"未命名郵局","decorType":"post_office"},{"id":"node-3851686258","lat":25.1132547,"lon":121.5108962,"name":"義美","decorType":"convenience"},{"id":"node-3857683715","lat":25.1100139,"lon":121.5149562,"name":"未命名郵局","decorType":"post_office"},{"id":"node-3882560180","lat":25.1143165,"lon":121.512729,"name":"未命名郵局","decorType":"post_office"},{"id":"node-3882560181","lat":25.1156587,"lon":121.5116677,"name":"未命名郵局","decorType":"post_office"},{"id":"node-4018208919","lat":25.1159731,"lon":121.5153982,"name":"爭鮮迴轉壽司","decorType":"restaurant"},{"id":"node-4018209442","lat":25.1158727,"lon":121.515332,"name":"怡客咖啡","decorType":"cafe"},{"id":"node-4052220815","lat":25.115753,"lon":121.5153351,"name":"綜合市場 (捷運石牌站)","decorType":"bus_stop"},{"id":"node-4307554208","lat":25.1162944,"lon":121.5162047,"name":"Tom's","decorType":"pharmacy"},{"id":"node-4307554210","lat":25.1153229,"lon":121.5154973,"name":"丹提咖啡","decorType":"cafe"},{"id":"node-4307554219","lat":25.116676,"lon":121.5163502,"name":"屈臣氏","decorType":"pharmacy"},{"id":"node-4307554220","lat":25.1156742,"lon":121.5159299,"name":"康是美","decorType":"pharmacy"},{"id":"node-4307554221","lat":25.1143409,"lon":121.5152419,"name":"康賢藥局","decorType":"pharmacy"},{"id":"node-4307554226","lat":25.1145887,"lon":121.5150465,"name":"牛董牛肉麵","decorType":"restaurant"},{"id":"node-4307554240","lat":25.1167608,"lon":121.5157642,"name":"老眷村北方點心","decorType":"restaurant"},{"id":"node-4307554243","lat":25.1166951,"lon":121.5159042,"name":"金樺城鴨肉擔","decorType":"restaurant"},{"id":"node-4307554244","lat":25.1166659,"lon":121.5159792,"name":"阿二麻辣","decorType":"restaurant"},{"id":"node-4307554247","lat":25.1154241,"lon":121.515601,"name":"7-Eleven","decorType":"convenience"},{"id":"node-4307603567","lat":25.1034126,"lon":121.5220388,"name":"洪樓小館","decorType":"restaurant"},{"id":"node-4307603608","lat":25.1032635,"lon":121.5221426,"name":"阿里郎村落","decorType":"restaurant"},{"id":"node-4329768668","lat":25.1093151,"lon":121.5195893,"name":"八方雲集","decorType":"burger"},{"id":"node-4329768682","lat":25.1093867,"lon":121.5197201,"name":"康是美","decorType":"pharmacy"},{"id":"node-4329769309","lat":25.1096926,"lon":121.5193068,"name":"石牌教會","decorType":"shrine"},{"id":"node-4329769450","lat":25.1094428,"lon":121.51902,"name":"1號出口","decorType":"station"},{"id":"node-4545809289","lat":25.1147448,"lon":121.5093102,"name":"石牌手工蛋餅","decorType":"restaurant"},{"id":"node-4620336496","lat":25.113909,"lon":121.5110994,"name":"山東姥姥","decorType":"restaurant"},{"id":"node-4628572090","lat":25.1115483,"lon":121.5212275,"name":"The HUB","decorType":"cafe"},{"id":"node-5137186858","lat":25.1120554,"lon":121.5137848,"name":"基督教台灣貴格會石牌合一堂","decorType":"shrine"},{"id":"node-5178049427","lat":25.1111063,"lon":121.5162853,"name":"蕭家牛肉麵","decorType":"restaurant"},{"id":"node-5178056922","lat":25.1110756,"lon":121.5161944,"name":"第二家鹽酥雞","decorType":"restaurant"},{"id":"node-5199741122","lat":25.1111016,"lon":121.5161588,"name":"凱古早味切仔麵","decorType":"restaurant"},{"id":"node-5222741234","lat":25.1042271,"lon":121.5211379,"name":"胖老爹美式炸雞","decorType":"burger"},{"id":"node-5222741236","lat":25.1043261,"lon":121.5212518,"name":"萊義客","decorType":"restaurant"},{"id":"node-5222746427","lat":25.104172,"lon":121.5214724,"name":"Qburger","decorType":"burger"},{"id":"node-5222759621","lat":25.104064,"lon":121.5211579,"name":"八方悅鍋物","decorType":"restaurant"},{"id":"node-5222763321","lat":25.1042461,"lon":121.521155,"name":"吃味鮮","decorType":"restaurant"},{"id":"node-5222763326","lat":25.1040918,"lon":121.5208727,"name":"盛豐機車材料行","decorType":"hardware"},{"id":"node-5222768621","lat":25.1038397,"lon":121.5207715,"name":"遊泰人","decorType":"restaurant"},{"id":"node-5222789022","lat":25.1035723,"lon":121.5220495,"name":"泰泰小館","decorType":"restaurant"},{"id":"node-5222801421","lat":25.1036588,"lon":121.5219866,"name":"大元國際洋行","decorType":"electronics"},{"id":"node-5281388423","lat":25.1026405,"lon":121.5194478,"name":"Lutetia","decorType":"cafe"},{"id":"node-6199032956","lat":25.1016037,"lon":121.5220633,"name":"上方通信","decorType":"electronics"},{"id":"node-6199080667","lat":25.1015985,"lon":121.5219197,"name":"晁日早餐","decorType":"burger"},{"id":"node-6199090814","lat":25.1015672,"lon":121.5218823,"name":"朝 大眾酒場","decorType":"restaurant"},{"id":"node-6199123643","lat":25.1015238,"lon":121.5219165,"name":"開源社","decorType":"restaurant"},{"id":"node-6199123644","lat":25.1015098,"lon":121.5219319,"name":"曉嬋美甲店","decorType":"cosmetics"},{"id":"node-6205497105","lat":25.1107555,"lon":121.5155122,"name":"全家便利商店","decorType":"convenience"},{"id":"node-6205703852","lat":25.1122049,"lon":121.5151545,"name":"立新豆漿","decorType":"restaurant"},{"id":"node-6205703854","lat":25.1122556,"lon":121.5151194,"name":"安心洗","decorType":"laundry"},{"id":"node-6205703855","lat":25.1122927,"lon":121.5152583,"name":"OK超商","decorType":"convenience"},{"id":"node-6205703856","lat":25.1124198,"lon":121.5151679,"name":"全家便利商店","decorType":"convenience"},{"id":"node-6205703858","lat":25.1119551,"lon":121.5166466,"name":"泓佳電器行","decorType":"electronics"},{"id":"node-6205703861","lat":25.1100276,"lon":121.514918,"name":"北投致遠郵局","decorType":"post_office"},{"id":"node-6210526810","lat":25.1027716,"lon":121.5211739,"name":"勝泰藥師藥局","decorType":"pharmacy"},{"id":"node-6210526811","lat":25.1028262,"lon":121.5212917,"name":"關東煮食堂","decorType":"restaurant"},{"id":"node-6210542679","lat":25.1032161,"lon":121.5212539,"name":"Mio Hair Salon","decorType":"hair_salon"},{"id":"node-6210559194","lat":25.102929,"lon":121.5202736,"name":"金春發牛肉店","decorType":"restaurant"},{"id":"node-6210661838","lat":25.1026922,"lon":121.5206351,"name":"劉家肉粽","decorType":"restaurant"},{"id":"node-6515975289","lat":25.1152231,"lon":121.5109478,"name":"晴光車輪餅","decorType":"restaurant"},{"id":"node-6516564972","lat":25.1139916,"lon":121.5125161,"name":"7-Eleven","decorType":"convenience"},{"id":"node-6522588384","lat":25.1153186,"lon":121.5108776,"name":"未命名美髮院","decorType":"hair_salon"},{"id":"node-6522592536","lat":25.1152447,"lon":121.5101725,"name":"福園小館","decorType":"restaurant"},{"id":"node-6522601565","lat":25.11295,"lon":121.5099346,"name":"胖老爹美式炸雞","decorType":"burger"},{"id":"node-6855627856","lat":25.1145541,"lon":121.5093644,"name":"北投實踐郵局","decorType":"post_office"},{"id":"node-6861028884","lat":25.1137696,"lon":121.5125093,"name":"臥龍居","decorType":"shrine"},{"id":"node-6861032285","lat":25.1138911,"lon":121.5125039,"name":"孫東寶","decorType":"restaurant"},{"id":"node-6861032289","lat":25.1120671,"lon":121.5135446,"name":"7-Eleven","decorType":"convenience"},{"id":"node-6861032290","lat":25.1111758,"lon":121.5141964,"name":"家樂福超市","decorType":"supermarket"},{"id":"node-6861032294","lat":25.1133325,"lon":121.5148723,"name":"石牌基督長老教會","decorType":"shrine"},{"id":"node-6861032305","lat":25.1104593,"lon":121.5129599,"name":"樹王公","decorType":"shrine"},{"id":"node-6861032328","lat":25.1144157,"lon":121.5137216,"name":"摩斯漢堡","decorType":"burger"},{"id":"node-6865431285","lat":25.1099675,"lon":121.518559,"name":"3號出口","decorType":"station"},{"id":"node-6865431287","lat":25.1110034,"lon":121.5167472,"name":"隆昌海鮮","decorType":"restaurant"},{"id":"node-6865431288","lat":25.1109937,"lon":121.5166855,"name":"廖家牛肉麵","decorType":"restaurant"},{"id":"node-6865431289","lat":25.1106955,"lon":121.5159781,"name":"群咖啡","decorType":"cafe"},{"id":"node-6865431290","lat":25.1107726,"lon":121.5156019,"name":"巢客精緻西點麵包","decorType":"bakery"},{"id":"node-6865431291","lat":25.1110923,"lon":121.5162097,"name":"國泰藥師藥局","decorType":"pharmacy"},{"id":"node-6865431299","lat":25.1098789,"lon":121.5202421,"name":"7-Eleven","decorType":"convenience"},{"id":"node-6865431300","lat":25.1095801,"lon":121.5194991,"name":"丹堤咖啡","decorType":"cafe"},{"id":"node-6865431306","lat":25.1089098,"lon":121.5140837,"name":"玉勒聖雲宮","decorType":"shrine"},{"id":"node-6865431307","lat":25.1090701,"lon":121.5139201,"name":"保新宮","decorType":"shrine"},{"id":"node-6865431308","lat":25.109024,"lon":121.5146551,"name":"台北指北宮","decorType":"shrine"},{"id":"node-6865431309","lat":25.1095267,"lon":121.5153256,"name":"美廉社","decorType":"supermarket"},{"id":"node-6865431315","lat":25.1086475,"lon":121.5165594,"name":"錫安新城教會","decorType":"shrine"},{"id":"node-6865431316","lat":25.1085285,"lon":121.5164897,"name":"OK超商","decorType":"convenience"},{"id":"node-6865431317","lat":25.107489,"lon":121.5173212,"name":"無極南天宮","decorType":"shrine"},{"id":"node-6865443400","lat":25.1098182,"lon":121.518099,"name":"天地教天人堂","decorType":"shrine"},{"id":"node-7798097822","lat":25.1045374,"lon":121.5215705,"name":"阿薩姆海鮮快炒店","decorType":"restaurant"},{"id":"node-7798097823","lat":25.1044532,"lon":121.5214302,"name":"香港鳳隆燒臘","decorType":"restaurant"},{"id":"node-7798097824","lat":25.1042089,"lon":121.5210523,"name":"安鳥居酒屋","decorType":"restaurant"},{"id":"node-7798097825","lat":25.104099,"lon":121.5208516,"name":"For you 早午餐","decorType":"restaurant"},{"id":"node-7798097827","lat":25.1035652,"lon":121.5215088,"name":"素食早餐","decorType":"restaurant"},{"id":"node-7798097828","lat":25.1035905,"lon":121.5213016,"name":"喰道樂肴屋","decorType":"restaurant"},{"id":"node-7798097831","lat":25.1026656,"lon":121.5205998,"name":"甜點工作室","decorType":"restaurant"},{"id":"node-7798097832","lat":25.1026629,"lon":121.520683,"name":"86義大利麵/燉飯","decorType":"restaurant"},{"id":"node-7798097833","lat":25.1028482,"lon":121.5213899,"name":"MR.TSUO Patisserie","decorType":"restaurant"},{"id":"node-7798097834","lat":25.1028856,"lon":121.5218043,"name":"大木屋","decorType":"restaurant"},{"id":"node-7798097835","lat":25.1028727,"lon":121.5216345,"name":"早安美芝城","decorType":"burger"},{"id":"node-7798097836","lat":25.1028796,"lon":121.5217459,"name":"皇室吉利早午餐","decorType":"restaurant"},{"id":"node-7798097868","lat":25.1095783,"lon":121.521899,"name":"愛你喔手作坊","decorType":"restaurant"},{"id":"node-7798097869","lat":25.1103327,"lon":121.5211627,"name":"德鮮屋","decorType":"restaurant"},{"id":"node-7798097870","lat":25.1103499,"lon":121.5209807,"name":"一畝田豆花","decorType":"restaurant"},{"id":"node-7798097871","lat":25.1103963,"lon":121.5203975,"name":"台南虱目魚專賣店","decorType":"restaurant"},{"id":"node-7798097872","lat":25.1102254,"lon":121.5205909,"name":"六六早餐吧","decorType":"restaurant"},{"id":"node-7798097873","lat":25.1101472,"lon":121.5204913,"name":"六媽小火鍋","decorType":"restaurant"},{"id":"node-7798097874","lat":25.1098304,"lon":121.520205,"name":"牛肉麵","decorType":"restaurant"},{"id":"node-7798097875","lat":25.1097626,"lon":121.5201054,"name":"二姐鐵板燒","decorType":"restaurant"},{"id":"node-7798097876","lat":25.1097213,"lon":121.5196796,"name":"梁社漢排骨","decorType":"restaurant"},{"id":"node-7798097877","lat":25.1096466,"lon":121.5193145,"name":"石牌牛肉麵","decorType":"restaurant"},{"id":"node-7798097878","lat":25.1097299,"lon":121.5192462,"name":"丰明殿昆布蔬果涮涮鍋","decorType":"restaurant"},{"id":"node-7798097879","lat":25.1092757,"lon":121.5187673,"name":"弘爺漢堡","decorType":"burger"},{"id":"node-7798097880","lat":25.1086205,"lon":121.5185473,"name":"食在幸福","decorType":"restaurant"},{"id":"node-7798097881","lat":25.1085278,"lon":121.5185265,"name":"霸味薑母鴨","decorType":"restaurant"},{"id":"node-7798097882","lat":25.1080725,"lon":121.5183578,"name":"凱洛","decorType":"restaurant"},{"id":"node-7798097883","lat":25.107945,"lon":121.5182593,"name":"元味","decorType":"restaurant"},{"id":"node-7798097884","lat":25.1073572,"lon":121.5177168,"name":"阿鸞滷肉飯，咖哩飯","decorType":"restaurant"},{"id":"node-7798131024","lat":25.1098033,"lon":121.5201459,"name":"可口坊","decorType":"bakery"},{"id":"node-7798131026","lat":25.1148931,"lon":121.510903,"name":"手麥彷","decorType":"bakery"},{"id":"node-7798137185","lat":25.1074331,"lon":121.5177745,"name":"仟人活力","decorType":"restaurant"},{"id":"node-7798137186","lat":25.1075351,"lon":121.5176256,"name":"瑞麟美而美","decorType":"burger"},{"id":"node-7798137187","lat":25.1075734,"lon":121.5178516,"name":"日久早午餐","decorType":"restaurant"},{"id":"node-7798137188","lat":25.1057387,"lon":121.5176052,"name":"池上便當","decorType":"restaurant"},{"id":"node-7798137189","lat":25.1046515,"lon":121.5189164,"name":"阿洲米粉湯","decorType":"restaurant"},{"id":"node-7798137190","lat":25.1050748,"lon":121.5183679,"name":"文林原汁牛肉麵","decorType":"restaurant"},{"id":"node-7798137195","lat":25.1119213,"lon":121.5103222,"name":"京城烤鴨","decorType":"restaurant"},{"id":"node-7798137196","lat":25.1130238,"lon":121.5101084,"name":"四海遊龍","decorType":"restaurant"},{"id":"node-7798137197","lat":25.1129276,"lon":121.5102904,"name":"隆華粵菜燒臘館","decorType":"restaurant"},{"id":"node-7798137198","lat":25.1150404,"lon":121.5107169,"name":"洛城吐司","decorType":"restaurant"},{"id":"node-7798137199","lat":25.1152159,"lon":121.5108865,"name":"鮮堡漢堡","decorType":"restaurant"},{"id":"node-7798137200","lat":25.1153197,"lon":121.5113264,"name":"91堅果館","decorType":"restaurant"},{"id":"node-7798137201","lat":25.1153155,"lon":121.5114847,"name":"越南小吃","decorType":"restaurant"},{"id":"node-7798137202","lat":25.116054,"lon":121.5115706,"name":"吉得堡漢堡","decorType":"restaurant"},{"id":"node-7798137203","lat":25.1161124,"lon":121.5112283,"name":"石牌公園腸粉豆槳","decorType":"restaurant"},{"id":"node-7798137204","lat":25.1167071,"lon":121.5120104,"name":"丼窟日式食堂","decorType":"restaurant"},{"id":"node-8118095203","lat":25.1056254,"lon":121.5176739,"name":"7-Eleven","decorType":"convenience"},{"id":"node-8385313456","lat":25.111772,"lon":121.513701,"name":"八方雲集","decorType":"burger"},{"id":"node-8600777113","lat":25.1041678,"lon":121.5209354,"name":"Just Kitchen - Shihlin","decorType":"restaurant"},{"id":"node-8805718361","lat":25.1100553,"lon":121.518733,"name":"2號出口","decorType":"station"},{"id":"node-9321252511","lat":25.1138313,"lon":121.5116265,"name":"蝦皮店到店","decorType":"convenience"},{"id":"node-9555616129","lat":25.1093374,"lon":121.5187338,"name":"蝦皮店到店","decorType":"convenience"},{"id":"node-9791810237","lat":25.1020927,"lon":121.5196178,"name":"未命名公車站","decorType":"bus_stop"},{"id":"node-9829408467","lat":25.112077,"lon":121.5152523,"name":"全家福素食","decorType":"restaurant"},{"id":"node-9829408468","lat":25.1121849,"lon":121.5152872,"name":"美廉社","decorType":"supermarket"},{"id":"node-10003414190","lat":25.1092678,"lon":121.5153136,"name":"OK超商","decorType":"convenience"},{"id":"node-10092252231","lat":25.1150746,"lon":121.5217983,"name":"蝦皮店到店","decorType":"convenience"},{"id":"node-11015090694","lat":25.1017433,"lon":121.513437,"name":"福國承信路口","decorType":"bus_stop"},{"id":"node-11015090695","lat":25.103667,"lon":121.5123064,"name":"創富中心","decorType":"bus_stop"},{"id":"node-11015090696","lat":25.1049349,"lon":121.5130387,"name":"文承承信路口","decorType":"bus_stop"},{"id":"node-13417522409","lat":25.1082592,"lon":121.5142392,"name":"原岩攀岩館-明德店","decorType":"stadium"},{"id":"way-35549445","lat":25.1062576,"lon":121.5209593,"name":"建民橋","decorType":"bridge"},{"id":"way-74169194","lat":25.1067098,"lon":121.5212063,"name":"東華橋","decorType":"bridge"},{"id":"way-88191520","lat":25.1098358,"lon":121.5187729,"name":"未命名公車站","decorType":"bus_stop"},{"id":"way-88191528","lat":25.1144359,"lon":121.5156219,"name":"未命名公車站","decorType":"bus_stop"},{"id":"way-137324287","lat":25.1038412,"lon":121.5192125,"name":"石牌橋","decorType":"bridge"},{"id":"way-137324317","lat":25.1038754,"lon":121.5193678,"name":"石牌橋","decorType":"bridge"},{"id":"way-202909073","lat":25.1158063,"lon":121.5141017,"name":"活動中心","decorType":"stadium"},{"id":"way-204256043","lat":25.1130065,"lon":121.5098281,"name":"躍獅連鎖藥局宏宜分店","decorType":"pharmacy"},{"id":"way-223253470","lat":25.1024749,"lon":121.5214739,"name":"麗敦精緻旅店","decorType":"hotel"},{"id":"way-256631615","lat":25.1167557,"lon":121.5140018,"name":"未命名橋樑","decorType":"bridge"},{"id":"way-256631700","lat":25.1156213,"lon":121.5147549,"name":"未命名橋樑","decorType":"bridge"},{"id":"way-256631701","lat":25.1156299,"lon":121.5148276,"name":"未命名橋樑","decorType":"bridge"},{"id":"way-258892613","lat":25.1081416,"lon":121.5218538,"name":"克強運動中心","decorType":"stadium"},{"id":"way-259858666","lat":25.1098394,"lon":121.518778,"name":"捷運明德站","decorType":"station"},{"id":"way-259860101","lat":25.1163338,"lon":121.5094792,"name":"未命名公園","decorType":"park"},{"id":"way-259860102","lat":25.1164315,"lon":121.5107034,"name":"石牌公園","decorType":"park"},{"id":"way-259860103","lat":25.116529,"lon":121.5098454,"name":"台北市北投運動中心","decorType":"stadium"},{"id":"way-361491777","lat":25.1158027,"lon":121.520589,"name":"未命名公園","decorType":"park"},{"id":"way-372253554","lat":25.1060208,"lon":121.5210462,"name":"未命名橋樑","decorType":"bridge"},{"id":"way-372253556","lat":25.1063401,"lon":121.520834,"name":"未命名橋樑","decorType":"bridge"},{"id":"way-374307293","lat":25.1056008,"lon":121.5217249,"name":"未命名公園","decorType":"park"},{"id":"way-374307294","lat":25.1072334,"lon":121.5205335,"name":"未命名公園","decorType":"park"},{"id":"way-374307295","lat":25.1083556,"lon":121.5198099,"name":"未命名公園","decorType":"park"},{"id":"way-374307296","lat":25.1113662,"lon":121.5177825,"name":"未命名公園","decorType":"park"},{"id":"way-374307297","lat":25.1127576,"lon":121.5167922,"name":"未命名公園","decorType":"park"},{"id":"way-375044192","lat":25.1157404,"lon":121.5155811,"name":"未命名森林","decorType":"forest"},{"id":"way-375180591","lat":25.1057995,"lon":121.5203394,"name":"建民公園","decorType":"park"},{"id":"way-375180592","lat":25.1072498,"lon":121.5209482,"name":"明德綠地","decorType":"park"},{"id":"way-375180612","lat":25.104763,"lon":121.5199205,"name":"未命名公園","decorType":"park"},{"id":"way-375260835","lat":25.1099886,"lon":121.5219729,"name":"未命名水邊","decorType":"waterside"},{"id":"way-375289501","lat":25.1110731,"lon":121.5159517,"name":"未命名公園","decorType":"park"},{"id":"way-375289528","lat":25.111171,"lon":121.5165636,"name":"未命名公園","decorType":"park"},{"id":"way-375299580","lat":25.1112879,"lon":121.5150779,"name":"致遠公園","decorType":"park"},{"id":"way-375299581","lat":25.1145296,"lon":121.5142695,"name":"榮光公園","decorType":"park"},{"id":"way-375299604","lat":25.1113142,"lon":121.5132905,"name":"未命名公園","decorType":"park"},{"id":"way-375338643","lat":25.1139698,"lon":121.5099332,"name":"未命名森林","decorType":"forest"},{"id":"way-377325613","lat":25.1043559,"lon":121.5122962,"name":"北投257綠地","decorType":"park"},{"id":"way-377325616","lat":25.1027918,"lon":121.5124829,"name":"北投258綠地","decorType":"park"},{"id":"way-377325626","lat":25.1028696,"lon":121.5176115,"name":"軟橋公園","decorType":"park"},{"id":"way-377420784","lat":25.1100805,"lon":121.5116139,"name":"未命名公園","decorType":"park"},{"id":"way-377420785","lat":25.1106444,"lon":121.5110551,"name":"未命名公園","decorType":"park"},{"id":"way-377885422","lat":25.1117088,"lon":121.5101089,"name":"未命名森林","decorType":"forest"},{"id":"way-381670126","lat":25.1039132,"lon":121.5194575,"name":"石牌橋","decorType":"bridge"},{"id":"way-431549441","lat":25.1026754,"lon":121.5214668,"name":"德仁公園","decorType":"park"},{"id":"way-449468100","lat":25.1030974,"lon":121.516597,"name":"未命名公園","decorType":"park"},{"id":"way-449468884","lat":25.1054563,"lon":121.5147001,"name":"中庭花園","decorType":"park"},{"id":"way-529935295","lat":25.1028465,"lon":121.5173377,"name":"福裕宮","decorType":"shrine"},{"id":"way-530053661","lat":25.101829,"lon":121.5180723,"name":"文林橋","decorType":"bridge"},{"id":"way-530053663","lat":25.1018971,"lon":121.5180669,"name":"文林橋","decorType":"bridge"},{"id":"way-530053669","lat":25.1037857,"lon":121.5191236,"name":"未命名橋樑","decorType":"bridge"},{"id":"way-572764804","lat":25.1078104,"lon":121.5219961,"name":"克強公園","decorType":"park"},{"id":"way-588105092","lat":25.1077897,"lon":121.5114346,"name":"未命名公園","decorType":"park"},{"id":"way-620283983","lat":25.1036371,"lon":121.5164031,"name":"生態池","decorType":"waterside"},{"id":"way-694637344","lat":25.1159287,"lon":121.5122549,"name":"未命名公園","decorType":"park"},{"id":"way-725126873","lat":25.110409,"lon":121.5123752,"name":"福星宮","decorType":"shrine"},{"id":"way-733140247","lat":25.1086172,"lon":121.514232,"name":"北投148號綠地","decorType":"park"},{"id":"way-795041697","lat":25.1021584,"lon":121.5185866,"name":"未命名橋樑","decorType":"bridge"},{"id":"way-795041698","lat":25.1021073,"lon":121.5186663,"name":"未命名橋樑","decorType":"bridge"},{"id":"way-795041699","lat":25.1019968,"lon":121.5174112,"name":"未命名橋樑","decorType":"bridge"},{"id":"way-795041700","lat":25.1020691,"lon":121.5180326,"name":"未命名橋樑","decorType":"bridge"},{"id":"way-797027300","lat":25.1072688,"lon":121.5209923,"name":"未命名公園","decorType":"park"},{"id":"way-797027302","lat":25.1072065,"lon":121.5217198,"name":"未命名公園","decorType":"park"},{"id":"way-797027305","lat":25.1062284,"lon":121.5209277,"name":"未命名橋樑","decorType":"bridge"},{"id":"way-797027306","lat":25.1052255,"lon":121.5207754,"name":"未命名神社","decorType":"shrine"},{"id":"way-797027309","lat":25.1113657,"lon":121.5217377,"name":"磺溪","decorType":"waterside"},{"id":"way-797027310","lat":25.1056959,"lon":121.5211101,"name":"未命名公園","decorType":"park"},{"id":"way-797027311","lat":25.1052891,"lon":121.520854,"name":"磺溪公園","decorType":"park"},{"id":"way-835453952","lat":25.1111086,"lon":121.5101978,"name":"皇廷中華料理餐廳","decorType":"restaurant"},{"id":"way-1004055335","lat":25.1018586,"lon":121.5181128,"name":"文林橋","decorType":"bridge"},{"id":"way-1066315470","lat":25.1017639,"lon":121.5170573,"name":"未命名橋樑","decorType":"bridge"},{"id":"way-1066315471","lat":25.1018274,"lon":121.518733,"name":"未命名橋樑","decorType":"bridge"},{"id":"way-1066315472","lat":25.1018165,"lon":121.5178954,"name":"未命名橋樑","decorType":"bridge"},{"id":"way-1068869927","lat":25.1083809,"lon":121.5126489,"name":"Rumah","decorType":"restaurant"},{"id":"way-1097614387","lat":25.1116241,"lon":121.512489,"name":"玄帝宮","decorType":"shrine"},{"id":"way-1102515780","lat":25.106868,"lon":121.5105796,"name":"未命名森林","decorType":"forest"},{"id":"way-1102515785","lat":25.1051644,"lon":121.5107989,"name":"未命名森林","decorType":"forest"},{"id":"way-1102515786","lat":25.104398,"lon":121.50999,"name":"未命名森林","decorType":"forest"},{"id":"way-1102515792","lat":25.1028842,"lon":121.510312,"name":"未命名森林","decorType":"forest"},{"id":"way-1102515793","lat":25.1037616,"lon":121.5105662,"name":"未命名森林","decorType":"forest"},{"id":"way-1102515794","lat":25.1061665,"lon":121.5108475,"name":"未命名森林","decorType":"forest"},{"id":"way-1102515795","lat":25.107085,"lon":121.5111418,"name":"未命名森林","decorType":"forest"},{"id":"way-1102515810","lat":25.1087994,"lon":121.5105471,"name":"未命名森林","decorType":"forest"},{"id":"way-1102515811","lat":25.107971,"lon":121.5101669,"name":"未命名森林","decorType":"forest"},{"id":"way-1102515812","lat":25.1073968,"lon":121.509883,"name":"未命名森林","decorType":"forest"},{"id":"way-1102515813","lat":25.1065802,"lon":121.5095174,"name":"未命名森林","decorType":"forest"},{"id":"way-1118509963","lat":25.1152395,"lon":121.5186166,"name":"振華公園","decorType":"park"},{"id":"way-1133685546","lat":25.1014402,"lon":121.5106351,"name":"五分港溪","decorType":"waterside"},{"id":"way-1134225272","lat":25.1142783,"lon":121.5141969,"name":"榮光公園遊樂場","decorType":"park"},{"id":"way-1134441698","lat":25.106832,"lon":121.5211773,"name":"未命名橋樑","decorType":"bridge"},{"id":"way-1157358539","lat":25.106009,"lon":121.5210462,"name":"未命名橋樑","decorType":"bridge"},{"id":"way-1157358540","lat":25.1063251,"lon":121.5208316,"name":"未命名橋樑","decorType":"bridge"},{"id":"way-1158421199","lat":25.1088157,"lon":121.5124982,"name":"未命名公園","decorType":"park"},{"id":"way-1158421200","lat":25.1085783,"lon":121.5124315,"name":"未命名公園","decorType":"park"},{"id":"way-1158421201","lat":25.1087762,"lon":121.5121546,"name":"未命名公園","decorType":"park"},{"id":"way-1158421218","lat":25.1086468,"lon":121.5126973,"name":"福星公園","decorType":"park"},{"id":"way-1342454623","lat":25.1085634,"lon":121.519682,"name":"未命名公園","decorType":"park"},{"id":"way-1342454630","lat":25.1076549,"lon":121.52028,"name":"未命名公園","decorType":"park"},{"id":"way-1342454656","lat":25.1115983,"lon":121.5175684,"name":"未命名公園","decorType":"park"},{"id":"way-1458080813","lat":25.106677,"lon":121.5120549,"name":"北投255綠地","decorType":"park"},{"id":"way-1458080814","lat":25.1054504,"lon":121.5121903,"name":"北投256綠地","decorType":"park"}]}