{"bbox":{"south":25.101156,"north":25.116763,"west":121.587313,"east":121.600344},"pois":[{"id":"node-1662377683","lat":25.115079,"lon":121.593657,"name":"未命名山丘","decorType":"mountain"},{"id":"node-2482626131","lat":25.109043,"lon":121.598284,"name":"白石湖山","decorType":"mountain"},{"id":"node-2482646696","lat":25.104803,"lon":121.598984,"name":"開眼山","decorType":"mountain"},{"id":"node-3935313457","lat":25.102699,"lon":121.588795,"name":"觀光草莓園","decorType":"bus_stop"},{"id":"node-4111270398","lat":25.101162,"lon":121.597275,"name":"福德正神","decorType":"shrine"},{"id":"node-4111297304","lat":25.114186,"lon":121.595606,"name":"碧山","decorType":"mountain"},{"id":"node-4686255632","lat":25.114641,"lon":121.599001,"name":"楓堤咖啡","decorType":"cafe"},{"id":"node-5388477475","lat":25.104346,"lon":121.589977,"name":"觀光草莓園二","decorType":"bus_stop"},{"id":"node-5388477480","lat":25.10372,"lon":121.594939,"name":"石崁","decorType":"bus_stop"},{"id":"node-5388477482","lat":25.105689,"lon":121.589661,"name":"恆光禪寺","decorType":"bus_stop"},{"id":"node-5388477483","lat":25.102685,"lon":121.58866,"name":"觀光草莓園","decorType":"bus_stop"},{"id":"node-5407727132","lat":25.114983,"lon":121.598984,"name":"同心亭","decorType":"bus_stop"},{"id":"node-5407727151","lat":25.115484,"lon":121.599648,"name":"同心亭","decorType":"bus_stop"},{"id":"node-7278998256","lat":25.105758,"lon":121.588166,"name":"幸福廣場","decorType":"bus_stop"},{"id":"way-306645891","lat":25.105045,"lon":121.590257,"name":"未命名森林","decorType":"forest"},{"id":"way-535879290","lat":25.103617,"lon":121.596592,"name":"未命名橋樑","decorType":"bridge"},{"id":"way-830255075","lat":25.10292,"lon":121.588436,"name":"山屋關東煮","decorType":"restaurant"},{"id":"way-830255076","lat":25.102388,"lon":121.588558,"name":"莓圃休閒農園 餐廳","decorType":"restaurant"},{"id":"way-830255077","lat":25.103676,"lon":121.589971,"name":"郭金本土雞城","decorType":"restaurant"},{"id":"way-830255078","lat":25.105555,"lon":121.587615,"name":"大崙頭草莓園","decorType":"restaurant"},{"id":"way-864672886","lat":25.104612,"lon":121.591882,"name":"未命名水邊","decorType":"waterside"},{"id":"way-864672887","lat":25.102572,"lon":121.590675,"name":"未命名水邊","decorType":"waterside"},{"id":"way-864672888","lat":25.105286,"lon":121.59079,"name":"未命名水邊","decorType":"waterside"},{"id":"way-864672889","lat":25.102824,"lon":121.591595,"name":"未命名水邊","decorType":"waterside"},{"id":"way-1076530131","lat":25.106315,"lon":121.589135,"name":"恆光禪寺","decorType":"shrine"},{"id":"way-1128444153","lat":25.104443,"lon":121.594533,"name":"未命名水邊","decorType":"waterside"},{"id":"way-1128444155","lat":25.105256,"lon":121.594593,"name":"碧山路","decorType":"bridge"},{"id":"way-1184172232","lat":25.104772,"lon":121.588605,"name":"未命名水邊","decorType":"waterside"},{"id":"way-1184172233","lat":25.103648,"lon":121.58905,"name":"未命名水邊","decorType":"waterside"},{"id":"way-1383255708","lat":25.105199,"lon":121.589224,"name":"未命名水邊","decorType":"waterside"}]}