{"bbox":{"south":25.10115625,"north":25.1167625,"west":121.5873125,"east":121.60034375},"pois":[{"id":"node-1662377683","lat":25.1150792,"lon":121.593657,"name":"未命名山丘","decorType":"mountain"},{"id":"node-2482626131","lat":25.1090431,"lon":121.598284,"name":"白石湖山","decorType":"mountain"},{"id":"node-2482646696","lat":25.1048032,"lon":121.5989839,"name":"開眼山","decorType":"mountain"},{"id":"node-3935313457","lat":25.1026987,"lon":121.5887947,"name":"觀光草莓園","decorType":"bus_stop"},{"id":"node-4111270398","lat":25.1011615,"lon":121.5972753,"name":"福德正神","decorType":"shrine"},{"id":"node-4111297304","lat":25.1141862,"lon":121.5956061,"name":"碧山","decorType":"mountain"},{"id":"node-4686255632","lat":25.1146409,"lon":121.5990014,"name":"楓堤咖啡","decorType":"cafe"},{"id":"node-5388477475","lat":25.104346,"lon":121.5899773,"name":"觀光草莓園二","decorType":"bus_stop"},{"id":"node-5388477480","lat":25.1037203,"lon":121.5949388,"name":"石崁","decorType":"bus_stop"},{"id":"node-5388477482","lat":25.1056891,"lon":121.5896612,"name":"恆光禪寺","decorType":"bus_stop"},{"id":"node-5388477483","lat":25.1026845,"lon":121.5886597,"name":"觀光草莓園","decorType":"bus_stop"},{"id":"node-5407727132","lat":25.1149826,"lon":121.5989838,"name":"同心亭","decorType":"bus_stop"},{"id":"node-5407727151","lat":25.1154842,"lon":121.5996475,"name":"同心亭","decorType":"bus_stop"},{"id":"node-7278998256","lat":25.1057577,"lon":121.5881655,"name":"幸福廣場","decorType":"bus_stop"},{"id":"way-306645891","lat":25.1050454,"lon":121.5902569,"name":"未命名森林","decorType":"forest"},{"id":"way-535879290","lat":25.1036166,"lon":121.5965921,"name":"未命名橋樑","decorType":"bridge"},{"id":"way-830255075","lat":25.1029202,"lon":121.5884355,"name":"山屋關東煮","decorType":"restaurant"},{"id":"way-830255076","lat":25.1023883,"lon":121.5885583,"name":"莓圃休閒農園 餐廳","decorType":"restaurant"},{"id":"way-830255077","lat":25.1036763,"lon":121.5899711,"name":"郭金本土雞城","decorType":"restaurant"},{"id":"way-830255078","lat":25.1055551,"lon":121.5876147,"name":"大崙頭草莓園","decorType":"restaurant"},{"id":"way-864672886","lat":25.1046115,"lon":121.5918819,"name":"未命名水邊","decorType":"waterside"},{"id":"way-864672887","lat":25.1025724,"lon":121.5906749,"name":"未命名水邊","decorType":"waterside"},{"id":"way-864672888","lat":25.1052862,"lon":121.5907901,"name":"未命名水邊","decorType":"waterside"},{"id":"way-864672889","lat":25.102824,"lon":121.5915949,"name":"未命名水邊","decorType":"waterside"},{"id":"way-1076530131","lat":25.1063149,"lon":121.5891346,"name":"恆光禪寺","decorType":"shrine"},{"id":"way-1128444153","lat":25.1044426,"lon":121.5945327,"name":"未命名水邊","decorType":"waterside"},{"id":"way-1128444155","lat":25.1052559,"lon":121.5945931,"name":"碧山路","decorType":"bridge"},{"id":"way-1184172232","lat":25.1047722,"lon":121.5886047,"name":"未命名水邊","decorType":"waterside"},{"id":"way-1184172233","lat":25.1036478,"lon":121.5890502,"name":"未命名水邊","decorType":"waterside"},{"id":"way-1383255708","lat":25.1051992,"lon":121.5892242,"name":"未命名水邊","decorType":"waterside"}]}