{"bbox":{"south":25.101156,"north":25.116763,"west":121.639438,"east":121.652469},"pois":[{"id":"node-2482629159","lat":25.103173,"lon":121.649708,"name":"刣狗寮山","decorType":"mountain"},{"id":"node-4360901113","lat":25.104864,"lon":121.646245,"name":"福中居茶坊","decorType":"restaurant"},{"id":"node-5558091159","lat":25.105015,"lon":121.651998,"name":"圍貓尖山","decorType":"mountain"},{"id":"node-6778890206","lat":25.104001,"lon":121.644766,"name":"正德廟","decorType":"shrine"},{"id":"node-7044278789","lat":25.108937,"lon":121.639949,"name":"柯子林峽谷","decorType":"bus_stop"},{"id":"node-8432380506","lat":25.110236,"lon":121.647696,"name":"瑞士山莊一","decorType":"bus_stop"},{"id":"node-8432400035","lat":25.112898,"lon":121.645644,"name":"瑞松街199巷口","decorType":"bus_stop"},{"id":"node-8432400075","lat":25.105855,"lon":121.645489,"name":"興樺汽車","decorType":"bus_stop"},{"id":"node-8432400102","lat":25.112934,"lon":121.644024,"name":"瑞松街204巷口","decorType":"bus_stop"},{"id":"node-8432400349","lat":25.110245,"lon":121.646652,"name":"瑞士山莊","decorType":"bus_stop"},{"id":"node-8432400356","lat":25.105936,"lon":121.645449,"name":"興樺汽車","decorType":"bus_stop"},{"id":"node-8432400357","lat":25.108162,"lon":121.641801,"name":"夢湖路口","decorType":"bus_stop"},{"id":"node-8432400361","lat":25.109937,"lon":121.645522,"name":"瑞松街146號","decorType":"bus_stop"},{"id":"node-8432400647","lat":25.110719,"lon":121.648643,"name":"瑞松街網球場","decorType":"bus_stop"},{"id":"node-8432400991","lat":25.10878,"lon":121.640995,"name":"廖厝","decorType":"bus_stop"},{"id":"node-8432401001","lat":25.105075,"lon":121.644889,"name":"四川橋","decorType":"bus_stop"},{"id":"node-8432401002","lat":25.105071,"lon":121.644964,"name":"四川橋","decorType":"bus_stop"},{"id":"node-8432401005","lat":25.103034,"lon":121.643864,"name":"月牙泉","decorType":"bus_stop"},{"id":"node-8432401006","lat":25.103144,"lon":121.643832,"name":"月牙泉","decorType":"bus_stop"},{"id":"node-8479809942","lat":25.104588,"lon":121.644017,"name":"烘內","decorType":"bus_stop"},{"id":"node-8479809943","lat":25.104588,"lon":121.644158,"name":"烘內","decorType":"bus_stop"},{"id":"node-8479809944","lat":25.110044,"lon":121.645359,"name":"瑞松街146號","decorType":"bus_stop"},{"id":"way-285206749","lat":25.109026,"lon":121.63946,"name":"北港溪","decorType":"waterside"},{"id":"way-573510357","lat":25.109102,"lon":121.646395,"name":"未命名水邊","decorType":"waterside"},{"id":"way-574669858","lat":25.107993,"lon":121.642087,"name":"一號橋","decorType":"bridge"},{"id":"way-625036979","lat":25.112918,"lon":121.641819,"name":"未命名水邊","decorType":"waterside"},{"id":"way-625036984","lat":25.112539,"lon":121.640876,"name":"未命名水邊","decorType":"waterside"},{"id":"way-722665056","lat":25.10437,"lon":121.644694,"name":"臺灣道承宮","decorType":"shrine"},{"id":"way-722665059","lat":25.104053,"lon":121.645014,"name":"南天宮","decorType":"shrine"},{"id":"way-878682991","lat":25.11273,"lon":121.652185,"name":"十四坑溪","decorType":"waterside"},{"id":"way-878682992","lat":25.113867,"lon":121.651589,"name":"十四坑溪","decorType":"waterside"},{"id":"way-878682993","lat":25.114744,"lon":121.649152,"name":"十四坑溪","decorType":"waterside"},{"id":"way-878682994","lat":25.115048,"lon":121.649842,"name":"未命名水邊","decorType":"waterside"},{"id":"way-1060240793","lat":25.114218,"lon":121.641945,"name":"靈隱寺","decorType":"shrine"},{"id":"way-1060240794","lat":25.114509,"lon":121.642249,"name":"未命名水邊","decorType":"waterside"},{"id":"way-1077740920","lat":25.10903,"lon":121.641042,"name":"未命名水邊","decorType":"waterside"},{"id":"way-1443855338","lat":25.111722,"lon":121.641686,"name":"未命名水邊","decorType":"waterside"},{"id":"way-1443855339","lat":25.112055,"lon":121.641911,"name":"未命名水邊","decorType":"waterside"},{"id":"way-1443855341","lat":25.10824,"lon":121.641766,"name":"二號橋","decorType":"bridge"},{"id":"way-1443855344","lat":25.116094,"lon":121.648413,"name":"未命名水邊","decorType":"waterside"},{"id":"way-1443855345","lat":25.11607,"lon":121.648516,"name":"未命名水邊","decorType":"waterside"},{"id":"way-1450364886","lat":25.10522,"lon":121.645313,"name":"北港溪","decorType":"waterside"},{"id":"way-1450745859","lat":25.113514,"lon":121.652253,"name":"十四坑溪","decorType":"waterside"},{"id":"way-1450745860","lat":25.113657,"lon":121.652102,"name":"十四坑溪","decorType":"waterside"}]}