{"bbox":{"south":25.101156,"north":25.116763,"west":121.509125,"east":121.522156},"pois":[{"id":"way-1102515779","lat":25.102301,"lon":121.51013,"name":"未命名森林","decorType":"forest"},{"id":"way-1102515784","lat":25.105183,"lon":121.50958,"name":"未命名森林","decorType":"forest"},{"id":"way-1102515814","lat":25.10783,"lon":121.509223,"name":"未命名森林","decorType":"forest"},{"id":"node-1801386528","lat":25.10407,"lon":121.521268,"name":"7-Eleven","decorType":"convenience"},{"id":"node-1843810192","lat":25.116373,"lon":121.517973,"name":"7-Eleven","decorType":"convenience"},{"id":"node-1843811036","lat":25.116529,"lon":121.51623,"name":"星巴克","decorType":"cafe"},{"id":"node-2321729253","lat":25.102675,"lon":121.521535,"name":"未命名公園","decorType":"park"},{"id":"node-2587937512","lat":25.102922,"lon":121.52169,"name":"未命名美髮院","decorType":"hair_salon"},{"id":"node-2587937515","lat":25.102917,"lon":121.521639,"name":"未命名超市","decorType":"supermarket"},{"id":"node-2622769196","lat":25.114832,"lon":121.515347,"name":"未命名車站","decorType":"station"},{"id":"node-2622770959","lat":25.113531,"lon":121.516246,"name":"未命名車站","decorType":"station"},{"id":"node-2628218112","lat":25.114544,"lon":121.517526,"name":"萊爾富","decorType":"convenience"},{"id":"node-2628220590","lat":25.114738,"lon":121.517561,"name":"達美樂","decorType":"restaurant"},{"id":"node-2703456598","lat":25.104441,"lon":121.521528,"name":"德行西路","decorType":"bus_stop"},{"id":"node-2703456599","lat":25.104102,"lon":121.521147,"name":"德行西路","decorType":"bus_stop"},{"id":"node-2703459229","lat":25.102533,"lon":121.520691,"name":"捷運芝山站 (戲曲中心)","decorType":"bus_stop"},{"id":"node-2703459230","lat":25.102543,"lon":121.520152,"name":"捷運芝山站 (戲曲中心)","decorType":"bus_stop"},{"id":"node-2705324688","lat":25.115949,"lon":121.515542,"name":"綜合市場","decorType":"bus_stop"},{"id":"node-2705324690","lat":25.115971,"lon":121.515947,"name":"綜合市場","decorType":"bus_stop"},{"id":"node-2705327511","lat":25.114868,"lon":121.515684,"name":"捷運石牌站(東華)","decorType":"bus_stop"},{"id":"node-2705336340","lat":25.114678,"lon":121.515049,"name":"捷運石牌站(西安)","decorType":"bus_stop"},{"id":"node-2706257574","lat":25.114302,"lon":121.513174,"name":"石牌國小","decorType":"bus_stop"},{"id":"node-2706257576","lat":25.114351,"lon":121.512877,"name":"石牌國小","decorType":"bus_stop"},{"id":"node-2706266518","lat":25.113418,"lon":121.511073,"name":"石牌路","decorType":"bus_stop"},{"id":"node-2706266519","lat":25.11335,"lon":121.510736,"name":"石牌路","decorType":"bus_stop"},{"id":"node-2706266521","lat":25.109485,"lon":121.512375,"name":"石牌","decorType":"bus_stop"},{"id":"node-2706266522","lat":25.110194,"lon":121.512085,"name":"石牌","decorType":"bus_stop"},{"id":"node-2706291116","lat":25.107081,"lon":121.515092,"name":"文林國小","decorType":"bus_stop"},{"id":"node-2706291117","lat":25.107539,"lon":121.515061,"name":"文林國小","decorType":"bus_stop"},{"id":"node-2706291118","lat":25.104978,"lon":121.517877,"name":"中正高中","decorType":"bus_stop"},{"id":"node-2706291119","lat":25.105679,"lon":121.51741,"name":"中正高中","decorType":"bus_stop"},{"id":"node-2711808350","lat":25.116055,"lon":121.514783,"name":"義理街口","decorType":"bus_stop"},{"id":"node-2711808351","lat":25.11668,"lon":121.513685,"name":"石牌國中","decorType":"bus_stop"},{"id":"node-2714943512","lat":25.115496,"lon":121.52034,"name":"宏國新村","decorType":"bus_stop"},{"id":"node-2714943513","lat":25.115409,"lon":121.520421,"name":"宏國新村","decorType":"bus_stop"},{"id":"node-2714944814","lat":25.112356,"lon":121.52167,"name":"奎山國中","decorType":"bus_stop"},{"id":"node-2714944815","lat":25.112295,"lon":121.52178,"name":"奎山國中","decorType":"bus_stop"},{"id":"node-2714944930","lat":25.110456,"lon":121.520715,"name":"明德路","decorType":"bus_stop"},{"id":"node-2714944931","lat":25.110204,"lon":121.520328,"name":"明德路","decorType":"bus_stop"},{"id":"node-2714945927","lat":25.107696,"lon":121.518051,"name":"明德國中","decorType":"bus_stop"},{"id":"node-2714945928","lat":25.10702,"lon":121.517596,"name":"明德國中","decorType":"bus_stop"},{"id":"node-2923101923","lat":25.110539,"lon":121.514616,"name":"7-Eleven","decorType":"convenience"},{"id":"node-2923101924","lat":25.110603,"lon":121.514885,"name":"屈臣氏","decorType":"pharmacy"},{"id":"node-2956950317","lat":25.115307,"lon":121.509591,"name":"全家便利商店","decorType":"convenience"},{"id":"node-3034549343","lat":25.111977,"lon":121.510234,"name":"五花肉飯","decorType":"restaurant"},{"id":"node-3495094878","lat":25.109859,"lon":121.518769,"name":"明德","decorType":"station"},{"id":"node-3495094879","lat":25.114607,"lon":121.515523,"name":"石牌","decorType":"station"},{"id":"node-3661063904","lat":25.115901,"lon":121.521748,"name":"美髮部","decorType":"hair_salon"},{"id":"node-3673618209","lat":25.102044,"lon":121.512491,"name":"建民里","decorType":"bus_stop"},{"id":"node-3673618210","lat":25.102965,"lon":121.511967,"name":"建民里","decorType":"bus_stop"},{"id":"node-3673618211","lat":25.105073,"lon":121.512178,"name":"建民里一","decorType":"bus_stop"},{"id":"node-3673618217","lat":25.105047,"lon":121.511772,"name":"建民里一","decorType":"bus_stop"},{"id":"node-3680387891","lat":25.104128,"lon":121.522,"name":"老街切仔麵","decorType":"restaurant"},{"id":"node-3682736009","lat":25.103815,"lon":121.520692,"name":"凡遊動漫租借","decorType":"library"},{"id":"node-3683171365","lat":25.103249,"lon":121.519953,"name":"萊爾富","decorType":"convenience"},{"id":"node-3687984550","lat":25.104137,"lon":121.520903,"name":"麗莎專業美髮沙龍","decorType":"hair_salon"},{"id":"node-3701501244","lat":25.109245,"lon":121.519115,"name":"捷運明德站","decorType":"bus_stop"},{"id":"node-3702793963","lat":25.103704,"lon":121.519669,"name":"長疆炭燒羊肉爐","decorType":"restaurant"},{"id":"node-3702793965","lat":25.104689,"lon":121.521817,"name":"蚵仔煎魷魚羹","decorType":"restaurant"},{"id":"node-3704491035","lat":25.104357,"lon":121.521306,"name":"芝山鵝肉切仔麵","decorType":"restaurant"},{"id":"node-3704491037","lat":25.104293,"lon":121.521204,"name":"夏威夷咖啡館","decorType":"restaurant"},{"id":"node-3707345719","lat":25.103519,"lon":121.520195,"name":"紅霸天碳燒薑母鴨","decorType":"restaurant"},{"id":"node-3711235221","lat":25.103572,"lon":121.520307,"name":"太陽公公","decorType":"laundry"},{"id":"node-3711235222","lat":25.10444,"lon":121.521911,"name":"屈臣氏","decorType":"pharmacy"},{"id":"node-3711235223","lat":25.10445,"lon":121.52182,"name":"北投志明牛肉拉麵","decorType":"ramen"},{"id":"node-3711235925","lat":25.103745,"lon":121.520574,"name":"ArtYes時尚沙龍","decorType":"cosmetics"},{"id":"node-3717742602","lat":25.103679,"lon":121.52044,"name":"立功","decorType":"electronics"},{"id":"node-3730373622","lat":25.103628,"lon":121.521897,"name":"HOU","decorType":"cafe"},{"id":"node-3730373623","lat":25.103628,"lon":121.521964,"name":"天丼專門店","decorType":"restaurant"},{"id":"node-3730373727","lat":25.10435,"lon":121.521934,"name":"福華飯包","decorType":"restaurant"},{"id":"node-3744240092","lat":25.109099,"lon":121.518885,"name":"全家便利商店","decorType":"convenience"},{"id":"node-3744240093","lat":25.112036,"lon":121.516732,"name":"全家便利商店","decorType":"convenience"},{"id":"node-3744240100","lat":25.109802,"lon":121.519132,"name":"捷運明德站(東華)","decorType":"bus_stop"},{"id":"node-3744240101","lat":25.109165,"lon":121.518844,"name":"捷運明德站(西安)","decorType":"bus_stop"},{"id":"node-3744245316","lat":25.112151,"lon":121.517663,"name":"自強街口(東華)","decorType":"bus_stop"},{"id":"node-3744245317","lat":25.112304,"lon":121.516588,"name":"自強街口(西安)","decorType":"bus_stop"},{"id":"node-3744245327","lat":25.109,"lon":121.518805,"name":"7-Eleven","decorType":"convenience"},{"id":"node-3744245328","lat":25.109477,"lon":121.519404,"name":"7-Eleven","decorType":"convenience"},{"id":"node-3755095934","lat":25.115642,"lon":121.519956,"name":"全家便利商店","decorType":"convenience"},{"id":"node-3776735653","lat":25.111316,"lon":121.517528,"name":"北巡宮","decorType":"shrine"},{"id":"node-3784303151","lat":25.114131,"lon":121.519664,"name":"7-Eleven","decorType":"convenience"},{"id":"node-3784303383","lat":25.111076,"lon":121.519252,"name":"全聯福利中心","decorType":"supermarket"},{"id":"node-3785978439","lat":25.1111,"lon":121.521126,"name":"益全便當","decorType":"restaurant"},{"id":"node-3785978440","lat":25.111577,"lon":121.521044,"name":"家樂福超市","decorType":"supermarket"},{"id":"node-3786805508","lat":25.111657,"lon":121.512472,"name":"玄帝宮","decorType":"shrine"},{"id":"node-3798721495","lat":25.105651,"lon":121.517659,"name":"未命名郵局","decorType":"post_office"},{"id":"node-3851686258","lat":25.113255,"lon":121.510896,"name":"義美","decorType":"convenience"},{"id":"node-3857683715","lat":25.110014,"lon":121.514956,"name":"未命名郵局","decorType":"post_office"},{"id":"node-3882560180","lat":25.114317,"lon":121.512729,"name":"未命名郵局","decorType":"post_office"},{"id":"node-3882560181","lat":25.115659,"lon":121.511668,"name":"未命名郵局","decorType":"post_office"},{"id":"node-4018208919","lat":25.115973,"lon":121.515398,"name":"爭鮮迴轉壽司","decorType":"restaurant"},{"id":"node-4018209442","lat":25.115873,"lon":121.515332,"name":"怡客咖啡","decorType":"cafe"},{"id":"node-4052220815","lat":25.115753,"lon":121.515335,"name":"綜合市場 (捷運石牌站)","decorType":"bus_stop"},{"id":"node-4307554208","lat":25.116294,"lon":121.516205,"name":"Tom's","decorType":"pharmacy"},{"id":"node-4307554210","lat":25.115323,"lon":121.515497,"name":"丹提咖啡","decorType":"cafe"},{"id":"node-4307554219","lat":25.116676,"lon":121.51635,"name":"屈臣氏","decorType":"pharmacy"},{"id":"node-4307554220","lat":25.115674,"lon":121.51593,"name":"康是美","decorType":"pharmacy"},{"id":"node-4307554221","lat":25.114341,"lon":121.515242,"name":"康賢藥局","decorType":"pharmacy"},{"id":"node-4307554226","lat":25.114589,"lon":121.515047,"name":"牛董牛肉麵","decorType":"restaurant"},{"id":"node-4307554240","lat":25.116761,"lon":121.515764,"name":"老眷村北方點心","decorType":"restaurant"},{"id":"node-4307554243","lat":25.116695,"lon":121.515904,"name":"金樺城鴨肉擔","decorType":"restaurant"},{"id":"node-4307554244","lat":25.116666,"lon":121.515979,"name":"阿二麻辣","decorType":"restaurant"},{"id":"node-4307554247","lat":25.115424,"lon":121.515601,"name":"7-Eleven","decorType":"convenience"},{"id":"node-4307603567","lat":25.103413,"lon":121.522039,"name":"洪樓小館","decorType":"restaurant"},{"id":"node-4307603608","lat":25.103264,"lon":121.522143,"name":"阿里郎村落","decorType":"restaurant"},{"id":"node-4329768668","lat":25.109315,"lon":121.519589,"name":"八方雲集","decorType":"burger"},{"id":"node-4329768682","lat":25.109387,"lon":121.51972,"name":"康是美","decorType":"pharmacy"},{"id":"node-4329769309","lat":25.109693,"lon":121.519307,"name":"石牌教會","decorType":"shrine"},{"id":"node-4329769450","lat":25.109443,"lon":121.51902,"name":"1號出口","decorType":"station"},{"id":"node-4545809289","lat":25.114745,"lon":121.50931,"name":"石牌手工蛋餅","decorType":"restaurant"},{"id":"node-4620336496","lat":25.113909,"lon":121.511099,"name":"山東姥姥","decorType":"restaurant"},{"id":"node-4628572090","lat":25.111548,"lon":121.521228,"name":"The HUB","decorType":"cafe"},{"id":"node-5137186858","lat":25.112055,"lon":121.513785,"name":"基督教台灣貴格會石牌合一堂","decorType":"shrine"},{"id":"node-5178049427","lat":25.111106,"lon":121.516285,"name":"蕭家牛肉麵","decorType":"restaurant"},{"id":"node-5178056922","lat":25.111076,"lon":121.516194,"name":"第二家鹽酥雞","decorType":"restaurant"},{"id":"node-5199741122","lat":25.111102,"lon":121.516159,"name":"凱古早味切仔麵","decorType":"restaurant"},{"id":"node-5222741234","lat":25.104227,"lon":121.521138,"name":"胖老爹美式炸雞","decorType":"burger"},{"id":"node-5222741236","lat":25.104326,"lon":121.521252,"name":"萊義客","decorType":"restaurant"},{"id":"node-5222746427","lat":25.104172,"lon":121.521472,"name":"Qburger","decorType":"burger"},{"id":"node-5222759621","lat":25.104064,"lon":121.521158,"name":"八方悅鍋物","decorType":"restaurant"},{"id":"node-5222763321","lat":25.104246,"lon":121.521155,"name":"吃味鮮","decorType":"restaurant"},{"id":"node-5222763326","lat":25.104092,"lon":121.520873,"name":"盛豐機車材料行","decorType":"hardware"},{"id":"node-5222768621","lat":25.10384,"lon":121.520772,"name":"遊泰人","decorType":"restaurant"},{"id":"node-5222789022","lat":25.103572,"lon":121.52205,"name":"泰泰小館","decorType":"restaurant"},{"id":"node-5222801421","lat":25.103659,"lon":121.521987,"name":"大元國際洋行","decorType":"electronics"},{"id":"node-5281388423","lat":25.102641,"lon":121.519448,"name":"Lutetia","decorType":"cafe"},{"id":"node-6199032956","lat":25.101604,"lon":121.522063,"name":"上方通信","decorType":"electronics"},{"id":"node-6199080667","lat":25.101599,"lon":121.52192,"name":"晁日早餐","decorType":"burger"},{"id":"node-6199090814","lat":25.101567,"lon":121.521882,"name":"朝 大眾酒場","decorType":"restaurant"},{"id":"node-6199123643","lat":25.101524,"lon":121.521917,"name":"開源社","decorType":"restaurant"},{"id":"node-6199123644","lat":25.10151,"lon":121.521932,"name":"曉嬋美甲店","decorType":"cosmetics"},{"id":"node-6205497105","lat":25.110756,"lon":121.515512,"name":"全家便利商店","decorType":"convenience"},{"id":"node-6205703852","lat":25.112205,"lon":121.515155,"name":"立新豆漿","decorType":"restaurant"},{"id":"node-6205703854","lat":25.112256,"lon":121.515119,"name":"安心洗","decorType":"laundry"},{"id":"node-6205703855","lat":25.112293,"lon":121.515258,"name":"OK超商","decorType":"convenience"},{"id":"node-6205703856","lat":25.11242,"lon":121.515168,"name":"全家便利商店","decorType":"convenience"},{"id":"node-6205703858","lat":25.111955,"lon":121.516647,"name":"泓佳電器行","decorType":"electronics"},{"id":"node-6205703861","lat":25.110028,"lon":121.514918,"name":"北投致遠郵局","decorType":"post_office"},{"id":"node-6210526810","lat":25.102772,"lon":121.521174,"name":"勝泰藥師藥局","decorType":"pharmacy"},{"id":"node-6210526811","lat":25.102826,"lon":121.521292,"name":"關東煮食堂","decorType":"restaurant"},{"id":"node-6210542679","lat":25.103216,"lon":121.521254,"name":"Mio Hair Salon","decorType":"hair_salon"},{"id":"node-6210559194","lat":25.102929,"lon":121.520274,"name":"金春發牛肉店","decorType":"restaurant"},{"id":"node-6210661838","lat":25.102692,"lon":121.520635,"name":"劉家肉粽","decorType":"restaurant"},{"id":"node-6515975289","lat":25.115223,"lon":121.510948,"name":"晴光車輪餅","decorType":"restaurant"},{"id":"node-6516564972","lat":25.113992,"lon":121.512516,"name":"7-Eleven","decorType":"convenience"},{"id":"node-6522588384","lat":25.115319,"lon":121.510878,"name":"未命名美髮院","decorType":"hair_salon"},{"id":"node-6522592536","lat":25.115245,"lon":121.510173,"name":"福園小館","decorType":"restaurant"},{"id":"node-6522601565","lat":25.11295,"lon":121.509935,"name":"胖老爹美式炸雞","decorType":"burger"},{"id":"node-6855627856","lat":25.114554,"lon":121.509364,"name":"北投實踐郵局","decorType":"post_office"},{"id":"node-6861028884","lat":25.11377,"lon":121.512509,"name":"臥龍居","decorType":"shrine"},{"id":"node-6861032285","lat":25.113891,"lon":121.512504,"name":"孫東寶","decorType":"restaurant"},{"id":"node-6861032289","lat":25.112067,"lon":121.513545,"name":"7-Eleven","decorType":"convenience"},{"id":"node-6861032290","lat":25.111176,"lon":121.514196,"name":"家樂福超市","decorType":"supermarket"},{"id":"node-6861032294","lat":25.113333,"lon":121.514872,"name":"石牌基督長老教會","decorType":"shrine"},{"id":"node-6861032305","lat":25.110459,"lon":121.51296,"name":"樹王公","decorType":"shrine"},{"id":"node-6861032328","lat":25.114416,"lon":121.513722,"name":"摩斯漢堡","decorType":"burger"},{"id":"node-6865431285","lat":25.109968,"lon":121.518559,"name":"3號出口","decorType":"station"},{"id":"node-6865431287","lat":25.111003,"lon":121.516747,"name":"隆昌海鮮","decorType":"restaurant"},{"id":"node-6865431288","lat":25.110994,"lon":121.516686,"name":"廖家牛肉麵","decorType":"restaurant"},{"id":"node-6865431289","lat":25.110696,"lon":121.515978,"name":"群咖啡","decorType":"cafe"},{"id":"node-6865431290","lat":25.110773,"lon":121.515602,"name":"巢客精緻西點麵包","decorType":"bakery"},{"id":"node-6865431291","lat":25.111092,"lon":121.51621,"name":"國泰藥師藥局","decorType":"pharmacy"},{"id":"node-6865431299","lat":25.109879,"lon":121.520242,"name":"7-Eleven","decorType":"convenience"},{"id":"node-6865431300","lat":25.10958,"lon":121.519499,"name":"丹堤咖啡","decorType":"cafe"},{"id":"node-6865431306","lat":25.10891,"lon":121.514084,"name":"玉勒聖雲宮","decorType":"shrine"},{"id":"node-6865431307","lat":25.10907,"lon":121.51392,"name":"保新宮","decorType":"shrine"},{"id":"node-6865431308","lat":25.109024,"lon":121.514655,"name":"台北指北宮","decorType":"shrine"},{"id":"node-6865431309","lat":25.109527,"lon":121.515326,"name":"美廉社","decorType":"supermarket"},{"id":"node-6865431315","lat":25.108648,"lon":121.516559,"name":"錫安新城教會","decorType":"shrine"},{"id":"node-6865431316","lat":25.108529,"lon":121.51649,"name":"OK超商","decorType":"convenience"},{"id":"node-6865431317","lat":25.107489,"lon":121.517321,"name":"無極南天宮","decorType":"shrine"},{"id":"node-6865443400","lat":25.109818,"lon":121.518099,"name":"天地教天人堂","decorType":"shrine"},{"id":"node-7798097822","lat":25.104537,"lon":121.521571,"name":"阿薩姆海鮮快炒店","decorType":"restaurant"},{"id":"node-7798097823","lat":25.104453,"lon":121.52143,"name":"香港鳳隆燒臘","decorType":"restaurant"},{"id":"node-7798097824","lat":25.104209,"lon":121.521052,"name":"安鳥居酒屋","decorType":"restaurant"},{"id":"node-7798097825","lat":25.104099,"lon":121.520852,"name":"For you 早午餐","decorType":"restaurant"},{"id":"node-7798097827","lat":25.103565,"lon":121.521509,"name":"素食早餐","decorType":"restaurant"},{"id":"node-7798097828","lat":25.103591,"lon":121.521302,"name":"喰道樂肴屋","decorType":"restaurant"},{"id":"node-7798097831","lat":25.102666,"lon":121.5206,"name":"甜點工作室","decorType":"restaurant"},{"id":"node-7798097832","lat":25.102663,"lon":121.520683,"name":"86義大利麵/燉飯","decorType":"restaurant"},{"id":"node-7798097833","lat":25.102848,"lon":121.52139,"name":"MR.TSUO Patisserie","decorType":"restaurant"},{"id":"node-7798097834","lat":25.102886,"lon":121.521804,"name":"大木屋","decorType":"restaurant"},{"id":"node-7798097835","lat":25.102873,"lon":121.521635,"name":"早安美芝城","decorType":"burger"},{"id":"node-7798097836","lat":25.10288,"lon":121.521746,"name":"皇室吉利早午餐","decorType":"restaurant"},{"id":"node-7798097868","lat":25.109578,"lon":121.521899,"name":"愛你喔手作坊","decorType":"restaurant"},{"id":"node-7798097869","lat":25.110333,"lon":121.521163,"name":"德鮮屋","decorType":"restaurant"},{"id":"node-7798097870","lat":25.11035,"lon":121.520981,"name":"一畝田豆花","decorType":"restaurant"},{"id":"node-7798097871","lat":25.110396,"lon":121.520398,"name":"台南虱目魚專賣店","decorType":"restaurant"},{"id":"node-7798097872","lat":25.110225,"lon":121.520591,"name":"六六早餐吧","decorType":"restaurant"},{"id":"node-7798097873","lat":25.110147,"lon":121.520491,"name":"六媽小火鍋","decorType":"restaurant"},{"id":"node-7798097874","lat":25.10983,"lon":121.520205,"name":"牛肉麵","decorType":"restaurant"},{"id":"node-7798097875","lat":25.109763,"lon":121.520105,"name":"二姐鐵板燒","decorType":"restaurant"},{"id":"node-7798097876","lat":25.109721,"lon":121.51968,"name":"梁社漢排骨","decorType":"restaurant"},{"id":"node-7798097877","lat":25.109647,"lon":121.519315,"name":"石牌牛肉麵","decorType":"restaurant"},{"id":"node-7798097878","lat":25.10973,"lon":121.519246,"name":"丰明殿昆布蔬果涮涮鍋","decorType":"restaurant"},{"id":"node-7798097879","lat":25.109276,"lon":121.518767,"name":"弘爺漢堡","decorType":"burger"},{"id":"node-7798097880","lat":25.108621,"lon":121.518547,"name":"食在幸福","decorType":"restaurant"},{"id":"node-7798097881","lat":25.108528,"lon":121.518527,"name":"霸味薑母鴨","decorType":"restaurant"},{"id":"node-7798097882","lat":25.108073,"lon":121.518358,"name":"凱洛","decorType":"restaurant"},{"id":"node-7798097883","lat":25.107945,"lon":121.518259,"name":"元味","decorType":"restaurant"},{"id":"node-7798097884","lat":25.107357,"lon":121.517717,"name":"阿鸞滷肉飯，咖哩飯","decorType":"restaurant"},{"id":"node-7798131024","lat":25.109803,"lon":121.520146,"name":"可口坊","decorType":"bakery"},{"id":"node-7798131026","lat":25.114893,"lon":121.510903,"name":"手麥彷","decorType":"bakery"},{"id":"node-7798137185","lat":25.107433,"lon":121.517775,"name":"仟人活力","decorType":"restaurant"},{"id":"node-7798137186","lat":25.107535,"lon":121.517626,"name":"瑞麟美而美","decorType":"burger"},{"id":"node-7798137187","lat":25.107573,"lon":121.517852,"name":"日久早午餐","decorType":"restaurant"},{"id":"node-7798137188","lat":25.105739,"lon":121.517605,"name":"池上便當","decorType":"restaurant"},{"id":"node-7798137189","lat":25.104652,"lon":121.518916,"name":"阿洲米粉湯","decorType":"restaurant"},{"id":"node-7798137190","lat":25.105075,"lon":121.518368,"name":"文林原汁牛肉麵","decorType":"restaurant"},{"id":"node-7798137195","lat":25.111921,"lon":121.510322,"name":"京城烤鴨","decorType":"restaurant"},{"id":"node-7798137196","lat":25.113024,"lon":121.510108,"name":"四海遊龍","decorType":"restaurant"},{"id":"node-7798137197","lat":25.112928,"lon":121.51029,"name":"隆華粵菜燒臘館","decorType":"restaurant"},{"id":"node-7798137198","lat":25.11504,"lon":121.510717,"name":"洛城吐司","decorType":"restaurant"},{"id":"node-7798137199","lat":25.115216,"lon":121.510887,"name":"鮮堡漢堡","decorType":"restaurant"},{"id":"node-7798137200","lat":25.11532,"lon":121.511326,"name":"91堅果館","decorType":"restaurant"},{"id":"node-7798137201","lat":25.115316,"lon":121.511485,"name":"越南小吃","decorType":"restaurant"},{"id":"node-7798137202","lat":25.116054,"lon":121.511571,"name":"吉得堡漢堡","decorType":"restaurant"},{"id":"node-7798137203","lat":25.116112,"lon":121.511228,"name":"石牌公園腸粉豆槳","decorType":"restaurant"},{"id":"node-7798137204","lat":25.116707,"lon":121.51201,"name":"丼窟日式食堂","decorType":"restaurant"},{"id":"node-8118095203","lat":25.105625,"lon":121.517674,"name":"7-Eleven","decorType":"convenience"},{"id":"node-8385313456","lat":25.111772,"lon":121.513701,"name":"八方雲集","decorType":"burger"},{"id":"node-8600777113","lat":25.104168,"lon":121.520935,"name":"Just Kitchen - Shihlin","decorType":"restaurant"},{"id":"node-8805718361","lat":25.110055,"lon":121.518733,"name":"2號出口","decorType":"station"},{"id":"node-9321252511","lat":25.113831,"lon":121.511627,"name":"蝦皮店到店","decorType":"convenience"},{"id":"node-9555616129","lat":25.109337,"lon":121.518734,"name":"蝦皮店到店","decorType":"convenience"},{"id":"node-9791810237","lat":25.102093,"lon":121.519618,"name":"未命名公車站","decorType":"bus_stop"},{"id":"node-9829408467","lat":25.112077,"lon":121.515252,"name":"全家福素食","decorType":"restaurant"},{"id":"node-9829408468","lat":25.112185,"lon":121.515287,"name":"美廉社","decorType":"supermarket"},{"id":"node-10003414190","lat":25.109268,"lon":121.515314,"name":"OK超商","decorType":"convenience"},{"id":"node-10092252231","lat":25.115075,"lon":121.521798,"name":"蝦皮店到店","decorType":"convenience"},{"id":"node-11015090694","lat":25.101743,"lon":121.513437,"name":"福國承信路口","decorType":"bus_stop"},{"id":"node-11015090695","lat":25.103667,"lon":121.512306,"name":"創富中心","decorType":"bus_stop"},{"id":"node-11015090696","lat":25.104935,"lon":121.513039,"name":"文承承信路口","decorType":"bus_stop"},{"id":"node-13417522409","lat":25.108259,"lon":121.514239,"name":"原岩攀岩館-明德店","decorType":"stadium"},{"id":"way-35549445","lat":25.106258,"lon":121.520959,"name":"建民橋","decorType":"bridge"},{"id":"way-74169194","lat":25.10671,"lon":121.521206,"name":"東華橋","decorType":"bridge"},{"id":"way-88191520","lat":25.109836,"lon":121.518773,"name":"未命名公車站","decorType":"bus_stop"},{"id":"way-88191528","lat":25.114436,"lon":121.515622,"name":"未命名公車站","decorType":"bus_stop"},{"id":"way-137324287","lat":25.103841,"lon":121.519213,"name":"石牌橋","decorType":"bridge"},{"id":"way-137324317","lat":25.103875,"lon":121.519368,"name":"石牌橋","decorType":"bridge"},{"id":"way-202909073","lat":25.115806,"lon":121.514102,"name":"活動中心","decorType":"stadium"},{"id":"way-204256043","lat":25.113007,"lon":121.509828,"name":"躍獅連鎖藥局宏宜分店","decorType":"pharmacy"},{"id":"way-223253470","lat":25.102475,"lon":121.521474,"name":"麗敦精緻旅店","decorType":"hotel"},{"id":"way-256631615","lat":25.116756,"lon":121.514002,"name":"未命名橋樑","decorType":"bridge"},{"id":"way-256631700","lat":25.115621,"lon":121.514755,"name":"未命名橋樑","decorType":"bridge"},{"id":"way-256631701","lat":25.11563,"lon":121.514828,"name":"未命名橋樑","decorType":"bridge"},{"id":"way-258892613","lat":25.108142,"lon":121.521854,"name":"克強運動中心","decorType":"stadium"},{"id":"way-259858666","lat":25.109839,"lon":121.518778,"name":"捷運明德站","decorType":"station"},{"id":"way-259860101","lat":25.116334,"lon":121.509479,"name":"未命名公園","decorType":"park"},{"id":"way-259860102","lat":25.116432,"lon":121.510703,"name":"石牌公園","decorType":"park"},{"id":"way-259860103","lat":25.116529,"lon":121.509845,"name":"台北市北投運動中心","decorType":"stadium"},{"id":"way-361491777","lat":25.115803,"lon":121.520589,"name":"未命名公園","decorType":"park"},{"id":"way-372253554","lat":25.106021,"lon":121.521046,"name":"未命名橋樑","decorType":"bridge"},{"id":"way-372253556","lat":25.10634,"lon":121.520834,"name":"未命名橋樑","decorType":"bridge"},{"id":"way-374307293","lat":25.105601,"lon":121.521725,"name":"未命名公園","decorType":"park"},{"id":"way-374307294","lat":25.107233,"lon":121.520534,"name":"未命名公園","decorType":"park"},{"id":"way-374307295","lat":25.108356,"lon":121.51981,"name":"未命名公園","decorType":"park"},{"id":"way-374307296","lat":25.111366,"lon":121.517783,"name":"未命名公園","decorType":"park"},{"id":"way-374307297","lat":25.112758,"lon":121.516792,"name":"未命名公園","decorType":"park"},{"id":"way-375044192","lat":25.11574,"lon":121.515581,"name":"未命名森林","decorType":"forest"},{"id":"way-375180591","lat":25.1058,"lon":121.520339,"name":"建民公園","decorType":"park"},{"id":"way-375180592","lat":25.10725,"lon":121.520948,"name":"明德綠地","decorType":"park"},{"id":"way-375180612","lat":25.104763,"lon":121.519921,"name":"未命名公園","decorType":"park"},{"id":"way-375260835","lat":25.109989,"lon":121.521973,"name":"未命名水邊","decorType":"waterside"},{"id":"way-375289501","lat":25.111073,"lon":121.515952,"name":"未命名公園","decorType":"park"},{"id":"way-375289528","lat":25.111171,"lon":121.516564,"name":"未命名公園","decorType":"park"},{"id":"way-375299580","lat":25.111288,"lon":121.515078,"name":"致遠公園","decorType":"park"},{"id":"way-375299581","lat":25.11453,"lon":121.51427,"name":"榮光公園","decorType":"park"},{"id":"way-375299604","lat":25.111314,"lon":121.513291,"name":"未命名公園","decorType":"park"},{"id":"way-375338643","lat":25.11397,"lon":121.509933,"name":"未命名森林","decorType":"forest"},{"id":"way-377325613","lat":25.104356,"lon":121.512296,"name":"北投257綠地","decorType":"park"},{"id":"way-377325616","lat":25.102792,"lon":121.512483,"name":"北投258綠地","decorType":"park"},{"id":"way-377325626","lat":25.10287,"lon":121.517612,"name":"軟橋公園","decorType":"park"},{"id":"way-377420784","lat":25.110081,"lon":121.511614,"name":"未命名公園","decorType":"park"},{"id":"way-377420785","lat":25.110644,"lon":121.511055,"name":"未命名公園","decorType":"park"},{"id":"way-377885422","lat":25.111709,"lon":121.510109,"name":"未命名森林","decorType":"forest"},{"id":"way-381670126","lat":25.103913,"lon":121.519458,"name":"石牌橋","decorType":"bridge"},{"id":"way-431549441","lat":25.102675,"lon":121.521467,"name":"德仁公園","decorType":"park"},{"id":"way-449468100","lat":25.103097,"lon":121.516597,"name":"未命名公園","decorType":"park"},{"id":"way-449468884","lat":25.105456,"lon":121.5147,"name":"中庭花園","decorType":"park"},{"id":"way-529935295","lat":25.102847,"lon":121.517338,"name":"福裕宮","decorType":"shrine"},{"id":"way-530053661","lat":25.101829,"lon":121.518072,"name":"文林橋","decorType":"bridge"},{"id":"way-530053663","lat":25.101897,"lon":121.518067,"name":"文林橋","decorType":"bridge"},{"id":"way-530053669","lat":25.103786,"lon":121.519124,"name":"未命名橋樑","decorType":"bridge"},{"id":"way-572764804","lat":25.10781,"lon":121.521996,"name":"克強公園","decorType":"park"},{"id":"way-588105092","lat":25.10779,"lon":121.511435,"name":"未命名公園","decorType":"park"},{"id":"way-620283983","lat":25.103637,"lon":121.516403,"name":"生態池","decorType":"waterside"},{"id":"way-694637344","lat":25.115929,"lon":121.512255,"name":"未命名公園","decorType":"park"},{"id":"way-725126873","lat":25.110409,"lon":121.512375,"name":"福星宮","decorType":"shrine"},{"id":"way-733140247","lat":25.108617,"lon":121.514232,"name":"北投148號綠地","decorType":"park"},{"id":"way-795041697","lat":25.102158,"lon":121.518587,"name":"未命名橋樑","decorType":"bridge"},{"id":"way-795041698","lat":25.102107,"lon":121.518666,"name":"未命名橋樑","decorType":"bridge"},{"id":"way-795041699","lat":25.101997,"lon":121.517411,"name":"未命名橋樑","decorType":"bridge"},{"id":"way-795041700","lat":25.102069,"lon":121.518033,"name":"未命名橋樑","decorType":"bridge"},{"id":"way-797027300","lat":25.107269,"lon":121.520992,"name":"未命名公園","decorType":"park"},{"id":"way-797027302","lat":25.107207,"lon":121.52172,"name":"未命名公園","decorType":"park"},{"id":"way-797027305","lat":25.106228,"lon":121.520928,"name":"未命名橋樑","decorType":"bridge"},{"id":"way-797027306","lat":25.105226,"lon":121.520775,"name":"未命名神社","decorType":"shrine"},{"id":"way-797027309","lat":25.111366,"lon":121.521738,"name":"磺溪","decorType":"waterside"},{"id":"way-797027310","lat":25.105696,"lon":121.52111,"name":"未命名公園","decorType":"park"},{"id":"way-797027311","lat":25.105289,"lon":121.520854,"name":"磺溪公園","decorType":"park"},{"id":"way-835453952","lat":25.111109,"lon":121.510198,"name":"皇廷中華料理餐廳","decorType":"restaurant"},{"id":"way-1004055335","lat":25.101859,"lon":121.518113,"name":"文林橋","decorType":"bridge"},{"id":"way-1066315470","lat":25.101764,"lon":121.517057,"name":"未命名橋樑","decorType":"bridge"},{"id":"way-1066315471","lat":25.101827,"lon":121.518733,"name":"未命名橋樑","decorType":"bridge"},{"id":"way-1066315472","lat":25.101817,"lon":121.517895,"name":"未命名橋樑","decorType":"bridge"},{"id":"way-1068869927","lat":25.108381,"lon":121.512649,"name":"Rumah","decorType":"restaurant"},{"id":"way-1097614387","lat":25.111624,"lon":121.512489,"name":"玄帝宮","decorType":"shrine"},{"id":"way-1102515780","lat":25.106868,"lon":121.51058,"name":"未命名森林","decorType":"forest"},{"id":"way-1102515785","lat":25.105164,"lon":121.510799,"name":"未命名森林","decorType":"forest"},{"id":"way-1102515786","lat":25.104398,"lon":121.50999,"name":"未命名森林","decorType":"forest"},{"id":"way-1102515792","lat":25.102884,"lon":121.510312,"name":"未命名森林","decorType":"forest"},{"id":"way-1102515793","lat":25.103762,"lon":121.510566,"name":"未命名森林","decorType":"forest"},{"id":"way-1102515794","lat":25.106167,"lon":121.510848,"name":"未命名森林","decorType":"forest"},{"id":"way-1102515795","lat":25.107085,"lon":121.511142,"name":"未命名森林","decorType":"forest"},{"id":"way-1102515810","lat":25.108799,"lon":121.510547,"name":"未命名森林","decorType":"forest"},{"id":"way-1102515811","lat":25.107971,"lon":121.510167,"name":"未命名森林","decorType":"forest"},{"id":"way-1102515812","lat":25.107397,"lon":121.509883,"name":"未命名森林","decorType":"forest"},{"id":"way-1102515813","lat":25.10658,"lon":121.509517,"name":"未命名森林","decorType":"forest"},{"id":"way-1118509963","lat":25.11524,"lon":121.518617,"name":"振華公園","decorType":"park"},{"id":"way-1133685546","lat":25.10144,"lon":121.510635,"name":"五分港溪","decorType":"waterside"},{"id":"way-1134225272","lat":25.114278,"lon":121.514197,"name":"榮光公園遊樂場","decorType":"park"},{"id":"way-1134441698","lat":25.106832,"lon":121.521177,"name":"未命名橋樑","decorType":"bridge"},{"id":"way-1157358539","lat":25.106009,"lon":121.521046,"name":"未命名橋樑","decorType":"bridge"},{"id":"way-1157358540","lat":25.106325,"lon":121.520832,"name":"未命名橋樑","decorType":"bridge"},{"id":"way-1158421199","lat":25.108816,"lon":121.512498,"name":"未命名公園","decorType":"park"},{"id":"way-1158421200","lat":25.108578,"lon":121.512432,"name":"未命名公園","decorType":"park"},{"id":"way-1158421201","lat":25.108776,"lon":121.512155,"name":"未命名公園","decorType":"park"},{"id":"way-1158421218","lat":25.108647,"lon":121.512697,"name":"福星公園","decorType":"park"},{"id":"way-1342454623","lat":25.108563,"lon":121.519682,"name":"未命名公園","decorType":"park"},{"id":"way-1342454630","lat":25.107655,"lon":121.52028,"name":"未命名公園","decorType":"park"},{"id":"way-1342454656","lat":25.111598,"lon":121.517568,"name":"未命名公園","decorType":"park"},{"id":"way-1458080813","lat":25.106677,"lon":121.512055,"name":"北投255綠地","decorType":"park"},{"id":"way-1458080814","lat":25.10545,"lon":121.51219,"name":"北投256綠地","decorType":"park"}]}